#------------------------------------------------------------------------------
# Created by    : vladimir.rabinovich
# Created on    : 09/19/2023 17:20:50
#------------------------------------------------------------------------------
~Version Information Section
VERS.           2.0     :   CWLS log ASCII Standard - VERSION 2.0
WRAP.           NO      :   One line per depth step
~Well Information Section
#MNEM       .UNIT                                         VALUE :DESCRIPTION
#------------------------------------------------------------------------------
STRT        .FT                                            2540 :START DEPTH
STOP        .FT                                            8943 :STOP DEPTH
STEP        .FT                                             0.5 :STEP      
NULL        .                                           -999.25 :NULL      
COMP        .                                 MECOM ENERGY CORP :COMPANY   
WELL        .                                          SL 00783 :WELL      
FLD         .                                           WILDCAT :FIELD     
LOC         .                                                   :LOCATION  
CNTY        .                                       SABINE PASS :LOCATION  
STAT        .                                         LOUISIANA :STATE     
CTRY        .                                     UNITED STATES :COUNTRY   
SRVC        .                                                   :SERVICE COMPANY
DATE        .                             9/13/2023 11:18:59 AM :LOG DATE  
API         .                                    17731000010000 :API NUMBER
UWI         .                                    17731000010000 :UNIQUE WELL ID
XCOORD      .                                  1377176.19909999 :SURFACE X 
YCOORD      .                                  10775304.6885056 :SURFACE Y 
LAT         .                                         29.687969 :LATITUDE  
LON         .                                        -93.829297 :LONGITUDE 
ELEV        .FT                                              11 :ELEVATION VALUE
ELEV_TYPE   .                                                KB :ELEVATION REFERENCE TYPE
~Curve Information Section
#MNEM       .UNIT                                      API CODE :CURVE DESCRIPTION
#------------------------------------------------------------------------------
DEPT        .FT                                                 :DEPTH     
ASN         .OHMM                                               :          
LAT         .OHMM                                               :          
LN          .OHMM                                               :          
SP          .MV                                                 :          
SP_NORM     .MV                                                 :SP Normalized
VSH_SP      .V/V                                                :Volume of Shale from SP
~A        DEPTH            ASN            LAT             LN             SP        SP_NORM         VSH_SP
# ...
      2958.0000         0.8445         0.7155         0.8675       -51.2013      -5.183342      0.7726184
      2958.5000         0.8495         0.7321         0.8612       -50.8215      -4.805031      0.7996407
      2959.0000         0.8541         0.7496         0.8549       -50.4418      -4.426819      0.8266558
      2959.5000         0.8551          0.772         0.8487       -50.0834      -4.069912      0.8521491
      2960.0000         0.8523         0.7943          0.836       -49.7721      -3.760101      0.8742785
      2960.5000         0.8496         0.8166         0.8219       -49.4608      -3.450294      0.8964075
      2961.0000         0.8427         0.8389         0.8079       -49.1561      -3.147087      0.9180652
      2961.5000         0.8326         0.8629         0.7938       -48.9055      -2.897976      0.9358588
      2962.0000         0.8226         0.8869         0.7798       -48.6547      -2.648666      0.9536667
      2962.5000         0.8125         0.9109         0.7661       -48.4041      -2.399555      0.9714603
      2963.0000         0.7959         0.9324         0.7533       -48.2494      -2.246349      0.9824036
      2963.5000         0.7767          0.949         0.7405       -48.1329       -2.13134      0.9906186
      2964.0000         0.7468         0.9656         0.7276       -48.0163      -2.016232      0.9988406
      2964.5000         0.7209         0.9703         0.7167       -48.3697      -2.371124      0.9734911
      2965.0000         0.7081         0.9742         0.7067       -48.8961       -2.89901       0.935785
      2965.5000         0.6924         0.9763         0.6968       -49.6078      -3.612202      0.8848428
      2966.0000         0.6757         0.9683         0.6938        -50.619      -4.624893      0.8125076
      2966.5000         0.6616         0.9604         0.7066       -51.6207      -5.628086       0.740851
      2967.0000         0.6529         0.9475         0.7193       -52.6105      -6.619377      0.6700445
      2967.5000         0.6759          0.927          0.732       -53.6003      -7.610664      0.5992383
      2968.0000         0.6927         0.9064         0.7446       -54.5405      -8.552357      0.5319745
      2968.5000         0.7178         0.8858         0.7571       -55.4632      -9.476547      0.4659609
      2969.0000         0.7435          0.863         0.7697       -56.3859      -10.40074      0.3999473
      2969.5000         0.7597         0.8392         0.7655       -57.1852      -11.20153      0.3427478
      2970.0000         0.7424         0.8153          0.761       -57.9597      -11.97752      0.2873197
      2970.5000         0.7252         0.7914         0.7566       -58.7382      -12.75751      0.2316063
      2971.0000         0.7076         0.7675         0.7497       -59.5256       -13.5464       0.175257
      2971.5000           0.69         0.7396         0.7415        -60.084      -14.10629      0.1352648
      2972.0000           0.67         0.7106         0.7333       -60.4554      -14.47918      0.1086298
      2972.5000         0.6482         0.6817         0.7251       -60.8268      -14.85208     0.08199447
      2973.0000         0.6283         0.6527         0.7169       -61.0557      -15.08247     0.06553813
      2973.5000          0.624         0.6245         0.7087       -61.1902      -15.21846     0.05582455
      2974.0000         0.6197         0.5965         0.6701       -61.3249      -15.35465     0.04609653
      2974.5000         0.6257         0.5684         0.6437       -61.1749      -15.20614     0.05670438
      2975.0000         0.6556         0.5482         0.6529       -60.9681      -15.00083     0.07136917
      2975.5000         0.6853         0.5401         0.6621       -60.6467      -14.68092     0.09421975
      2976.0000         0.6907          0.532         0.6713       -60.1794      -14.21511      0.1274921
      2976.5000         0.6961         0.5282         0.6805       -59.7122       -13.7494      0.1607571
      2977.0000         0.7015         0.5385         0.6897       -59.2938      -13.33249      0.1905362
      2977.5000         0.7066         0.5489         0.6989         -59.04      -13.08018      0.2085582
      2978.0000         0.7114         0.5592         0.7081       -58.7863      -12.82798      0.2265731
      2978.5000         0.7162         0.5696         0.7173       -58.5325      -12.57567      0.2445951
      2979.0000         0.7211         0.5799         0.7265       -58.2852      -12.32985      0.2621534
      2979.5000         0.7274         0.5965         0.7357       -58.2246      -12.27075      0.2663751
      2980.0000         0.7377         0.6165         0.7449       -58.1641      -12.21174      0.2705901
      2980.5000          0.748         0.6365         0.7541       -58.1036      -12.15273      0.2748051
      2981.0000         0.7582         0.6565         0.7619       -58.0432      -12.09382      0.2790127
      2981.5000         0.7711         0.6765          0.769       -57.9826      -12.03471      0.2832347
      2982.0000         0.7844         0.6967          0.776       -57.8509       -11.9045      0.2925358
      2982.5000         0.8074         0.7276          0.783       -57.6382      -11.69329      0.3076221
      2983.0000          0.836         0.7585         0.7878       -57.4255      -11.48208      0.3227084
      2983.5000         0.8555         0.7894         0.7903       -57.2128      -11.27087      0.3377947
      2984.0000         0.8814         0.8194         0.7928       -57.0002      -11.05976       0.352874
      2984.5000         0.9119         0.8479         0.7953       -56.6954      -10.75646      0.3745387
      2985.0000         0.9282         0.8764         0.7978        -56.291      -10.35355      0.4033181
      2985.5000         0.9367          0.905         0.8003       -55.8862      -9.950237      0.4321259
      2986.0000         0.9414         0.9249         0.7987       -55.4818      -9.547329      0.4609051
      2986.5000         0.9339         0.9445         0.7959       -55.0782      -9.145222       0.489627
      2987.0000          0.915          0.956          0.793       -54.6912      -8.759712      0.5171634
      2987.5000         0.8847         0.9608         0.7902       -54.3043      -8.374298       0.544693
      2988.0000         0.8375         0.9656         0.7738       -53.9172      -7.988689      0.5722365
      2988.5000         0.7859         0.9631          0.755       -53.5302      -7.603184      0.5997726
      2989.0000         0.7509         0.9548         0.7399       -53.1678      -7.242275      0.6255518
      2989.5000         0.7169         0.9466         0.7264       -52.8342      -6.910168      0.6492738
      2990.0000         0.7003         0.9383         0.7129       -52.5005      -6.577957      0.6730031
      2990.5000         0.6895         0.9256         0.7016       -52.1894      -6.268345      0.6951182
      2991.0000         0.6792          0.913         0.7005       -51.9436      -6.024036      0.7125688
      2991.5000         0.6701         0.9003         0.6995       -51.6979      -5.779827      0.7300124
      2992.0000         0.6654         0.8877         0.6984        -51.552      -5.635418      0.7403273
      2992.5000         0.6783         0.8715          0.706       -51.4574      -5.542313      0.7469777
      2993.0000         0.7007         0.8539         0.7183       -51.5583      -5.644703      0.7396641
      2993.5000         0.7208         0.8362         0.7305       -51.8768      -5.964691      0.7168078
      2994.0000         0.7393         0.8186         0.7428       -52.1954      -6.284782      0.6939441
      2994.5000         0.7577          0.796         0.7551       -52.5287      -6.619576      0.6700303
      2995.0000         0.7681         0.7721         0.7631        -52.868      -6.960365      0.6456882
      2995.5000          0.778          0.748         0.7707       -53.2072      -7.301056      0.6213531
