#------------------------------------------------------------------------------
# Created by    : vladimir.rabinovich
# Created on    : 09/19/2023 17:20:50
#------------------------------------------------------------------------------
~Version Information Section
VERS.           2.0     :   CWLS log ASCII Standard - VERSION 2.0
WRAP.           NO      :   One line per depth step
~Well Information Section
#MNEM       .UNIT                                         VALUE :DESCRIPTION
#------------------------------------------------------------------------------
STRT        .FT                                            2540 :START DEPTH
STOP        .FT                                            8943 :STOP DEPTH
STEP        .FT                                             0.5 :STEP      
NULL        .                                           -999.25 :NULL      
COMP        .                                 MECOM ENERGY CORP :COMPANY   
WELL        .                                          SL 00783 :WELL      
FLD         .                                           WILDCAT :FIELD     
LOC         .                                                   :LOCATION  
CNTY        .                                       SABINE PASS :LOCATION  
STAT        .                                         LOUISIANA :STATE     
CTRY        .                                     UNITED STATES :COUNTRY   
SRVC        .                                                   :SERVICE COMPANY
DATE        .                             9/13/2023 11:18:59 AM :LOG DATE  
API         .                                    17731000010000 :API NUMBER
UWI         .                                    17731000010000 :UNIQUE WELL ID
XCOORD      .                                  1377176.19909999 :SURFACE X 
YCOORD      .                                  10775304.6885056 :SURFACE Y 
LAT         .                                         29.687969 :LATITUDE  
LON         .                                        -93.829297 :LONGITUDE 
ELEV        .FT                                              11 :ELEVATION VALUE
ELEV_TYPE   .                                                KB :ELEVATION REFERENCE TYPE
~Curve Information Section
#MNEM       .UNIT                                      API CODE :CURVE DESCRIPTION
#------------------------------------------------------------------------------
DEPT        .FT                                                 :DEPTH     
ASN         .OHMM                                               :          
LAT         .OHMM                                               :          
LN          .OHMM                                               :          
SP          .MV                                                 :          
SP_NORM     .MV                                                 :SP Normalized
VSH_SP      .V/V                                                :Volume of Shale from SP
~A        DEPTH            ASN            LAT             LN             SP        SP_NORM         VSH_SP
# ...
      5960.0000         0.2502          0.451         0.4045       -59.9078      -20.02423     0.05135646
      5960.5000         0.2498         0.4493         0.4007       -59.7172      -19.83612     0.06125661
      5961.0000         0.2474         0.4475          0.398       -59.5825      -19.70392     0.06821482
      5961.5000          0.245         0.4457         0.3962       -59.4479      -19.57181      0.0751678
      5962.0000         0.2426         0.4409         0.3944        -59.447      -19.57341     0.07508388
      5962.5000         0.2405         0.4362         0.3925       -59.5292       -19.6581     0.07062611
      5963.0000         0.2417         0.4314         0.3907       -59.6116        -19.743     0.06615809
      5963.5000          0.243         0.4266         0.3889       -59.6902      -19.82409     0.06188985
      5964.0000         0.2443         0.4219         0.3876       -59.7126      -19.84899      0.0605796
      5964.5000         0.2492          0.417          0.388       -59.7352      -19.87408     0.05925871
      5965.0000         0.2557         0.4113         0.3884       -59.7577      -19.89908     0.05794304
      5965.5000         0.2621         0.4055         0.3889       -59.5811      -19.72498     0.06710654
      5966.0000         0.2681         0.3997         0.3893       -59.3168      -19.46317     0.08088583
      5966.5000         0.2705         0.3939         0.3897       -59.0527      -19.20156     0.09465449
      5967.0000         0.2728         0.3882         0.3901       -58.7883      -18.93966       0.108439
      5967.5000         0.2741         0.3814         0.3906       -58.6116      -18.76545      0.1176077
      5968.0000         0.2727         0.3734         0.3915       -58.4459      -18.60225      0.1261974
      5968.5000         0.2714         0.3655         0.3923         -58.28      -18.43884      0.1347978
      5969.0000         0.2701         0.3582         0.3931       -58.1143      -18.27564      0.1433874
      5969.5000         0.2675         0.3522         0.3939       -57.9485      -18.11234      0.1519824
      5970.0000         0.2647         0.3462         0.3947       -57.8991      -18.06543      0.1544511
      5970.5000          0.262         0.3403         0.3955       -57.9001      -18.06892      0.1542672
      5971.0000         0.2593         0.3353         0.3963       -57.9012      -18.07252       0.154078
      5971.5000         0.2579         0.3363         0.3976       -57.9023      -18.07611      0.1538887
      5972.0000         0.2574         0.3372         0.3997       -57.9034      -18.07971      0.1536996
      5972.5000          0.257         0.3382         0.4019       -57.9045       -18.0833      0.1535105
      5973.0000         0.2565         0.3392          0.404       -57.9788       -18.1601      0.1494685
      5973.5000          0.256         0.3437         0.4061       -58.0774      -18.26119      0.1441478
      5974.0000         0.2631         0.3484         0.4083       -58.1758      -18.36209      0.1388375
      5974.5000         0.2717          0.353         0.4104       -58.2744      -18.46318      0.1335168
      5975.0000         0.2803         0.3577         0.4125        -58.373      -18.56428      0.1281959
      5975.5000         0.2887          0.368         0.4142       -58.4716      -18.66537      0.1228752
      5976.0000         0.2971         0.3786          0.414       -58.5134      -18.70967      0.1205438
      5976.5000         0.3081         0.3892         0.4139       -58.5436      -18.74236      0.1188232
      5977.0000         0.3198         0.3997         0.4138       -58.5739      -18.77516       0.117097
      5977.5000         0.3291         0.4103         0.4137       -58.6042      -18.80795      0.1153709
      5978.0000         0.3345          0.413         0.4136       -58.6344      -18.84065      0.1136501
      5978.5000         0.3286         0.4131         0.4135       -58.7463      -18.95504      0.1076293
      5979.0000         0.3226         0.4132         0.4147       -58.8694      -19.08064       0.101019
      5979.5000         0.3104         0.4064         0.4165       -58.9925      -19.20623     0.09440874
      5980.0000          0.297         0.3942         0.4183       -59.1964      -19.41263     0.08354589
      5980.5000         0.2921         0.3821         0.4201       -59.4072      -19.62592     0.07231984
      5981.0000         0.2883         0.3701         0.4219       -59.6183      -19.83952     0.06107792
      5981.5000         0.2949         0.3583         0.4236       -59.8291      -20.05281     0.04985187
      5982.0000         0.3015         0.3465         0.4301       -59.7296      -19.95581     0.05495754
      5982.5000         0.3218         0.3346          0.437       -59.5501       -19.7788     0.06427363
      5983.0000         0.3486         0.3333         0.4439       -59.3705       -19.6017     0.07359495
      5983.5000         0.3931         0.3377         0.4508       -59.2217      -19.45539     0.08129521
      5984.0000         0.4554          0.342         0.4619       -59.1958      -19.43199     0.08252696
      5984.5000         0.5023         0.3501         0.4745         -59.17      -19.40868     0.08375368
      5985.0000         0.5396         0.3694         0.4872       -59.1442      -19.38538     0.08498021
      5985.5000         0.5267         0.3886         0.4998       -59.1183      -19.36197     0.08621196
      5986.0000         0.4803         0.4077         0.5108       -59.0924      -19.33857      0.0874439
      5986.5000         0.4184         0.4199         0.5128       -59.2595      -19.50816     0.07851791
      5987.0000         0.3656          0.432         0.5149       -59.4625      -19.71366     0.06770224
      5987.5000         0.3246         0.4284          0.517       -59.6654      -19.91905     0.05689199
      5988.0000         0.2925         0.4147         0.5191       -59.8686      -20.12474     0.04606608
      5988.5000         0.2791         0.4006           0.52       -60.0546      -20.31324     0.03614526
      5989.0000         0.2689         0.3854         0.5159       -60.2392      -20.50034     0.02629792
      5989.5000         0.2596         0.3702         0.5118       -60.4236      -20.68723     0.01646142
      5990.0000         0.2509         0.3549         0.5076       -60.6081      -20.87423    0.006619504
      5990.5000         0.2475         0.3427         0.5035        -60.655      -20.92362    0.004019888
      5991.0000         0.2446         0.3318         0.4993       -60.6041      -20.87522    0.006567503
      5991.5000         0.2417         0.3209         0.4952       -60.5533      -20.82691    0.009109898
      5992.0000         0.2388         0.3259         0.4911       -60.2127      -20.48881     0.02690486
      5992.5000         0.2693         0.3371          0.487       -59.8007       -20.0793      0.0484577
      5993.0000          0.282         0.3483         0.4829       -59.3046       -19.5857     0.07443699
      5993.5000         0.2889         0.3644         0.4788       -58.4286      -18.71219      0.1204109
      5994.0000         0.2828         0.4192         0.4747       -57.8458      -18.13189      0.1509534
      5994.5000         0.2767         0.4636         0.4706       -57.8864      -18.17498      0.1486853
      5995.0000         0.2706         0.4773         0.4665       -57.9718      -18.26288       0.144059
      5995.5000          0.265         0.4909         0.4609       -58.2072      -18.50077      0.1315384
      5996.0000         0.2594         0.4833         0.4539       -58.7037      -18.99977      0.1052754
      5996.5000         0.2741         0.4718         0.4468       -59.2003      -19.49886      0.0790074
      5997.0000         0.2867         0.4602         0.4398       -59.6964      -19.99746      0.0527655
      5997.5000         0.2938         0.4486         0.4328       -60.9122      -21.21575              0
