#------------------------------------------------------------------------------
# Created by    : vladimir.rabinovich
# Created on    : 09/19/2023 17:20:50
#------------------------------------------------------------------------------
~Version Information Section
VERS.           2.0     :   CWLS log ASCII Standard - VERSION 2.0
WRAP.           NO      :   One line per depth step
~Well Information Section
#MNEM       .UNIT                                         VALUE :DESCRIPTION
#------------------------------------------------------------------------------
STRT        .FT                                            2540 :START DEPTH
STOP        .FT                                            8943 :STOP DEPTH
STEP        .FT                                             0.5 :STEP      
NULL        .                                           -999.25 :NULL      
COMP        .                                 MECOM ENERGY CORP :COMPANY   
WELL        .                                          SL 00783 :WELL      
FLD         .                                           WILDCAT :FIELD     
LOC         .                                                   :LOCATION  
CNTY        .                                       SABINE PASS :LOCATION  
STAT        .                                         LOUISIANA :STATE     
CTRY        .                                     UNITED STATES :COUNTRY   
SRVC        .                                                   :SERVICE COMPANY
DATE        .                             9/13/2023 11:18:59 AM :LOG DATE  
API         .                                    17731000010000 :API NUMBER
UWI         .                                    17731000010000 :UNIQUE WELL ID
XCOORD      .                                  1377176.19909999 :SURFACE X 
YCOORD      .                                  10775304.6885056 :SURFACE Y 
LAT         .                                         29.687969 :LATITUDE  
LON         .                                        -93.829297 :LONGITUDE 
ELEV        .FT                                              11 :ELEVATION VALUE
ELEV_TYPE   .                                                KB :ELEVATION REFERENCE TYPE
~Curve Information Section
#MNEM       .UNIT                                      API CODE :CURVE DESCRIPTION
#------------------------------------------------------------------------------
DEPT        .FT                                                 :DEPTH     
ASN         .OHMM                                               :          
LAT         .OHMM                                               :          
LN          .OHMM                                               :          
SP          .MV                                                 :          
SP_NORM     .MV                                                 :SP Normalized
VSH_SP      .V/V                                                :Volume of Shale from SP
~A        DEPTH            ASN            LAT             LN             SP        SP_NORM         VSH_SP
# ...
      8924.0000         0.8954         1.3469         0.9679       -42.2047      -1.767544       0.973533
      8924.5000         0.8994         1.3144         0.9638       -42.0851      -1.647942      0.9776572
      8925.0000         0.9053          1.282         0.9597       -41.9622      -1.525043       0.981895
      8925.5000         0.9111         1.2496         0.9572       -41.8392      -1.402042      0.9861365
      8926.0000          0.917         1.2159         0.9578       -41.7161      -1.278942      0.9903813
      8926.5000         0.9229         1.1786         0.9585       -41.5931      -1.155945      0.9946226
      8927.0000         0.9148         1.1412         0.9591        -41.494      -1.056843      0.9980399
      8927.5000         0.9041         1.1039         0.9692       -41.4819      -1.044743      0.9984571
      8928.0000          0.892         1.0739         0.9808       -41.4698      -1.032642      0.9988744
      8928.5000           0.88         1.0451         0.9939       -41.4577      -1.020542      0.9992917
      8929.0000         0.8869         1.0204         1.0126       -41.4731      -1.035942      0.9987606
      8929.5000         0.8957         0.9998         1.0311       -41.5068      -1.069645      0.9975985
      8930.0000         0.8913         0.9793         1.0494       -41.5405      -1.103344      0.9964364
      8930.5000         0.8853         0.9612         1.0662       -41.4984      -1.061245      0.9978881
      8931.0000         0.8991         0.9483         1.0813       -41.4011     -0.9639435              1
      8931.5000         0.9338         0.9353          1.086       -41.3036     -0.8664436              1
      8932.0000          0.962         0.9224         1.0908       -41.2064     -0.7692451              1
      8932.5000         0.9876         0.9148          1.092       -40.9815      -0.544342              1
      8933.0000         1.0384         0.9073         1.0895       -40.7227     -0.2855415              1
      8933.5000         1.0604         0.8998          1.087       -40.4638    -0.02664185              1
      8934.0000         1.0691         0.8923         1.0845       -40.2047      0.2324562              1
      8934.5000         1.0736         0.8914         1.0831       -39.9461      0.4910583              1
      8935.0000         1.0701         0.8938         1.0818       -39.6875      0.7496567              1
      8935.5000         1.0588         0.8961         1.0804       -39.4286       1.008556              1
      8936.0000          1.044         0.9015         1.0797       -39.1701       1.267056              1
      8936.5000         1.0292         0.9093         1.0804       -38.9115       1.525658              1
      8937.0000         1.0127         0.9167          1.081       -38.6487       1.788456              1
      8937.5000         0.9954          0.923         1.0816       -38.3859       2.051258              1
      8938.0000         0.9821         0.9292         1.0823       -38.1231       2.314056              1
      8938.5000         0.9767         0.9251         1.0829       -37.9046       2.532558              1
      8939.0000         0.9713         0.9194         1.0835       -37.8725       2.564655              1
      8939.5000         0.9744         0.9119         1.0848       -37.8404       2.596756              1
      8940.0000         0.9882         0.9004         1.0866       -37.9159       2.521255              1
      8940.5000         1.0021         0.8967         1.0883       -38.0208       2.416355              1
      8941.0000         1.0187         0.8956         1.0894        -38.067       2.370155              1
      8941.5000         1.0385         0.8945         1.0889       -38.0947       2.342457              1
      8942.0000         1.0618         0.8964         1.0884        -38.099       2.338158              1
      8942.5000         1.0857         0.9002          1.088       -38.0583       2.378857              1
      8943.0000         1.0957         0.9039         1.0886       -38.0176       2.419556              1
