#------------------------------------------------------------------------------
# Created by    : vladimir.rabinovich
# Created on    : 09/19/2023 17:20:50
#------------------------------------------------------------------------------
~Version Information Section
VERS.           2.0     :   CWLS log ASCII Standard - VERSION 2.0
WRAP.           NO      :   One line per depth step
~Well Information Section
#MNEM       .UNIT                                         VALUE :DESCRIPTION
#------------------------------------------------------------------------------
STRT        .FT                                            2540 :START DEPTH
STOP        .FT                                            8943 :STOP DEPTH
STEP        .FT                                             0.5 :STEP      
NULL        .                                           -999.25 :NULL      
COMP        .                                 MECOM ENERGY CORP :COMPANY   
WELL        .                                          SL 00783 :WELL      
FLD         .                                           WILDCAT :FIELD     
LOC         .                                                   :LOCATION  
CNTY        .                                       SABINE PASS :LOCATION  
STAT        .                                         LOUISIANA :STATE     
CTRY        .                                     UNITED STATES :COUNTRY   
SRVC        .                                                   :SERVICE COMPANY
DATE        .                             9/13/2023 11:18:59 AM :LOG DATE  
API         .                                    17731000010000 :API NUMBER
UWI         .                                    17731000010000 :UNIQUE WELL ID
XCOORD      .                                  1377176.19909999 :SURFACE X 
YCOORD      .                                  10775304.6885056 :SURFACE Y 
LAT         .                                         29.687969 :LATITUDE  
LON         .                                        -93.829297 :LONGITUDE 
ELEV        .FT                                              11 :ELEVATION VALUE
ELEV_TYPE   .                                                KB :ELEVATION REFERENCE TYPE
~Curve Information Section
#MNEM       .UNIT                                      API CODE :CURVE DESCRIPTION
#------------------------------------------------------------------------------
DEPT        .FT                                                 :DEPTH     
ASN         .OHMM                                               :          
LAT         .OHMM                                               :          
LN          .OHMM                                               :          
SP          .MV                                                 :          
SP_NORM     .MV                                                 :SP Normalized
VSH_SP      .V/V                                                :Volume of Shale from SP
~A        DEPTH            ASN            LAT             LN             SP        SP_NORM         VSH_SP
# ...
      6378.0000         0.8071           0.83          0.786       -43.2374      -4.800812      0.8832995
      6378.5000         0.7911         0.8615         0.7904       -42.9367      -4.499088      0.8958713
      6379.0000         0.7703         0.8367         0.7949        -42.746      -4.307369      0.9038596
      6379.5000         0.7787         0.7845         0.7993        -42.619      -4.179352      0.9091937
      6380.0000         0.7906         0.7297         0.8028       -42.4917      -4.051033      0.9145403
      6380.5000         0.8043         0.6956         0.8017       -42.4407      -3.999016      0.9167077
      6381.0000          0.819         0.6763         0.8006       -42.4871      -4.044395      0.9148169
      6381.5000         0.8336          0.657         0.7995       -42.5335      -4.089779      0.9129259
      6382.0000         0.8511         0.6377         0.7984         -42.58      -4.135262      0.9110308
      6382.5000          0.867         0.6184         0.7904       -42.8657      -4.419941      0.8991691
      6383.0000         0.8813         0.6107         0.7804       -43.2766      -4.829823      0.8820907
      6383.5000         0.8974         0.6163         0.7704       -43.6875      -5.239704      0.8650123
      6384.0000         0.9044         0.6218          0.758        -44.099      -5.650185       0.847909
      6384.5000          0.891         0.6354          0.742       -45.2004      -6.750568      0.8020597
      6385.0000         0.8775         0.6693         0.7259       -46.3819      -7.931046      0.7528731
      6385.5000         0.8641         0.7031         0.7099       -47.8328      -9.380928      0.6924613
      6386.0000         0.8381          0.737         0.6907       -49.3953      -10.94241      0.6273996
      6386.5000         0.8104          0.781         0.6611       -50.9803      -12.52639      0.5614004
      6387.0000         0.7803         0.8305         0.6315       -52.6623      -14.20737      0.4913596
      6387.5000         0.7396           0.88         0.5939       -54.4052      -15.94925      0.4187811
      6388.0000         0.6979         0.9294          0.555       -56.2878      -17.83083       0.340382
      6388.5000         0.6135         0.9957          0.521       -57.5573      -19.09932      0.2875285
      6389.0000         0.5835         1.0554         0.4977       -58.8267      -20.36769      0.2346794
      6389.5000         0.5589         1.0219         0.4743        -60.096      -21.63598      0.1818342
      6390.0000         0.5179         0.9601          0.451       -61.3654      -22.90436      0.1289851
      6390.5000         0.4772         0.8791         0.4329       -62.6348      -24.17274     0.07613579
      6391.0000         0.4413         0.7863         0.4243       -63.9042      -25.44112     0.02328666
      6391.5000         0.4122         0.6935         0.4158       -65.1736       -26.7095              0
      6392.0000         0.3558         0.6353         0.4072       -65.6887      -27.22358              0
      6392.5000         0.2934         0.5789         0.3987       -64.4746      -26.00846              0
      6393.0000         0.2814         0.5235         0.3901       -63.4944      -25.02724     0.04053148
      6393.5000         0.2705          0.488         0.3829       -62.7729      -24.30473     0.07063643
      6394.0000         0.2649         0.4525         0.3813       -62.0519      -23.58271      0.1007206
      6394.5000           0.26          0.417         0.3797       -61.3304      -22.86019      0.1308255
      6395.0000         0.2576         0.3842         0.3781       -60.6089      -22.13767      0.1609305
      6395.5000         0.2645         0.3675         0.3764        -60.095      -21.62275      0.1823853
      6396.0000         0.2713         0.3507         0.3748       -60.2589      -21.78563      0.1755986
      6396.5000          0.277          0.334         0.3732       -60.4374      -21.96312      0.1682035
      6397.0000         0.2819          0.322         0.3716       -60.6187      -22.14339      0.1606919
      6397.5000         0.2832          0.329         0.3701       -60.7997      -22.32338      0.1531927
      6398.0000         0.2783          0.336         0.3734        -60.981      -22.50365      0.1456811
      6398.5000         0.2789          0.343         0.3768        -61.035      -22.55664      0.1434735
      6399.0000          0.288           0.35         0.3802       -61.0267      -22.54732      0.1438618
      6399.5000          0.297         0.3593         0.3836       -61.0183       -22.5379      0.1442542
      6400.0000          0.306           0.37          0.387       -61.0099      -22.52848      0.1446466
      6400.5000         0.3239         0.3807         0.3903       -61.0016      -22.51916       0.145035
      6401.0000         0.3389         0.3914         0.3937       -60.8801      -22.39664      0.1501398
      6401.5000          0.343         0.4022         0.3971       -60.5701      -22.08562       0.163099
      6402.0000         0.3465         0.4129         0.3975       -60.2598      -21.77431      0.1760705
      6402.5000          0.344         0.4229         0.3971        -59.976      -21.48949      0.1879379
      6403.0000         0.3415           0.43         0.3966       -59.7369      -21.24937      0.1979429
      6403.5000         0.3343         0.4371         0.3962        -59.498      -21.00945      0.2079396
      6404.0000         0.3254         0.4442         0.3958       -59.9106      -21.42103      0.1907905
      6404.5000         0.3165         0.4513         0.3954       -60.3429      -21.85231      0.1728204
      6405.0000         0.3076         0.4584         0.3949       -60.8271      -22.33549      0.1526879
      6405.5000         0.2987         0.4654         0.3945       -61.3705      -22.87787      0.1300886
      6406.0000         0.2898         0.4574         0.3934       -61.9144      -23.42075      0.1074686
      6406.5000         0.2808         0.4495         0.3896       -62.4578      -23.96314     0.08486923
      6407.0000         0.2719         0.4416         0.3857       -63.0018      -24.50612     0.06224505
      6407.5000         0.2661         0.4336         0.3819       -63.5457        -25.049     0.03962501
      6408.0000         0.2678         0.4257          0.378        -64.089      -25.59128     0.01703008
      6408.5000         0.2694         0.4177         0.3742       -64.4915      -25.99276     0.00030152
      6409.0000         0.2704         0.4083         0.3704       -64.7711      -26.27135              0
      6409.5000         0.2668         0.3989         0.3665       -65.0509      -26.55013              0
      6410.0000         0.2633         0.3895         0.3641       -65.3306       -26.8288              0
      6410.5000         0.2598         0.3801         0.3626       -65.6104      -27.10758              0
      6411.0000         0.2549         0.3707          0.361        -65.571      -27.06717              0
      6411.5000         0.2498         0.3613         0.3595       -65.4797      -26.97485              0
      6412.0000         0.2446         0.3519          0.358       -65.3884      -26.88253              0
      6412.5000         0.2397         0.3446         0.3565       -65.2971      -26.79021              0
      6413.0000         0.2359         0.3409          0.355       -65.2059      -26.69799              0
      6413.5000         0.2321         0.3372         0.3547       -65.1146      -26.60567              0
      6414.0000         0.2363         0.3335         0.3564       -65.0233      -26.51336              0
      6414.5000         0.2455         0.3298         0.3581       -64.9321      -26.42113              0
      6415.0000         0.2548          0.326         0.3598       -64.8488      -26.33682              0
      6415.5000          0.264         0.3223         0.3615       -64.7815       -26.2685              0
