#------------------------------------------------------------------------------
# Created by    : vladimir.rabinovich
# Created on    : 09/19/2023 17:20:50
#------------------------------------------------------------------------------
~Version Information Section
VERS.           2.0     :   CWLS log ASCII Standard - VERSION 2.0
WRAP.           NO      :   One line per depth step
~Well Information Section
#MNEM       .UNIT                                         VALUE :DESCRIPTION
#------------------------------------------------------------------------------
STRT        .FT                                            2540 :START DEPTH
STOP        .FT                                            8943 :STOP DEPTH
STEP        .FT                                             0.5 :STEP      
NULL        .                                           -999.25 :NULL      
COMP        .                                 MECOM ENERGY CORP :COMPANY   
WELL        .                                          SL 00783 :WELL      
FLD         .                                           WILDCAT :FIELD     
LOC         .                                                   :LOCATION  
CNTY        .                                       SABINE PASS :LOCATION  
STAT        .                                         LOUISIANA :STATE     
CTRY        .                                     UNITED STATES :COUNTRY   
SRVC        .                                                   :SERVICE COMPANY
DATE        .                             9/13/2023 11:18:59 AM :LOG DATE  
API         .                                    17731000010000 :API NUMBER
UWI         .                                    17731000010000 :UNIQUE WELL ID
XCOORD      .                                  1377176.19909999 :SURFACE X 
YCOORD      .                                  10775304.6885056 :SURFACE Y 
LAT         .                                         29.687969 :LATITUDE  
LON         .                                        -93.829297 :LONGITUDE 
ELEV        .FT                                              11 :ELEVATION VALUE
ELEV_TYPE   .                                                KB :ELEVATION REFERENCE TYPE
~Curve Information Section
#MNEM       .UNIT                                      API CODE :CURVE DESCRIPTION
#------------------------------------------------------------------------------
DEPT        .FT                                                 :DEPTH     
ASN         .OHMM                                               :          
LAT         .OHMM                                               :          
LN          .OHMM                                               :          
SP          .MV                                                 :          
SP_NORM     .MV                                                 :SP Normalized
VSH_SP      .V/V                                                :Volume of Shale from SP
~A        DEPTH            ASN            LAT             LN             SP        SP_NORM         VSH_SP
# ...
      5086.0000          0.766          0.897         0.8719        -45.273       -2.79092      0.9534753
      5086.5000         0.7751          0.864         0.8943        -45.458      -2.977264      0.9425139
      5087.0000         0.8009         0.8231         0.9167       -45.6431      -3.163704      0.9315468
      5087.5000         0.8268         0.7764         0.9419       -45.8281       -3.35004      0.9205859
      5088.0000         0.8537         0.7297         0.9691       -45.3611       -2.88438      0.9479776
      5088.5000          0.881         0.7025         0.9973       -44.6452      -2.169823      0.9900104
      5089.0000         0.9095         0.6838           1.03       -43.5838      -1.109764              1
      5089.5000         0.9414         0.6757         1.0628       -42.3821     0.09059906              1
      5090.0000         0.9782         0.6871         1.0778       -41.9899      0.4814568              1
      5090.5000         0.9966         0.6986         1.0923       -41.9913      0.4787178              1
      5091.0000         1.0145         0.7101         1.1069        -42.231      0.2376785              1
      5091.5000         1.0316         0.7216         1.0772       -43.0122     -0.5448608              1
      5092.0000         1.0371         0.7388         1.0463       -43.7929      -1.326904              1
      5092.5000         1.0175         0.7561         1.0115       -44.5742      -2.109543      0.9935563
      5093.0000         0.9949         0.7735         0.9646       -45.3492      -2.885883      0.9478892
      5093.5000         0.9714         0.7908         0.9178         -46.02      -3.558022      0.9083517
      5094.0000          0.947         0.8082          0.871       -46.6907      -4.230064      0.8688197
      5094.5000         0.9258         0.8231          0.849       -47.3615      -4.902203      0.8292822
      5095.0000         0.9115         0.8374         0.8278       -48.0323      -5.574341      0.7897447
      5095.5000         0.8983         0.8516         0.8066       -48.7025       -6.24588      0.7502424
      5096.0000         0.8864         0.8659          0.786       -49.3902      -6.934925      0.7097103
      5096.5000         0.8775         0.8749         0.7655       -50.1365      -7.682564      0.6657315
      5097.0000         0.8899         0.8839         0.7449       -50.8828      -8.430202      0.6217528
      5097.5000         0.9201         0.8929         0.7254       -51.7311      -9.279839      0.5717742
      5098.0000         0.9488         0.8928          0.714       -52.7964      -10.34648      0.5090305
      5098.5000         1.0096         0.8803         0.7027       -53.8596      -11.41102      0.4464104
      5099.0000         1.0519         0.8678         0.6913        -54.784      -12.33676      0.3919552
      5099.5000         1.0652         0.8465           0.68       -55.7084       -13.2625      0.3374999
      5100.0000         1.0659         0.8156         0.6779       -56.5773      -14.13274      0.2863092
      5100.5000         0.8741         0.7818         0.6822       -57.0392      -14.59598      0.2590599
      5101.0000         0.6911         0.7424         0.6866       -57.5012      -15.05932      0.2318046
      5101.5000         0.6653         0.7031         0.6941       -57.9631      -15.52256      0.2045553
      5102.0000         0.6405         0.6579         0.7074        -58.425       -15.9858      0.1773058
      5102.5000         0.6234         0.6128         0.7207       -58.5983      -16.16044      0.1670328
      5103.0000         0.6114         0.5744         0.7341       -58.7386      -16.30208      0.1587011
      5103.5000         0.5948          0.551         0.7351       -58.8786      -16.44342      0.1503868
      5104.0000          0.578         0.5444         0.7262       -59.0187      -16.58486       0.142067
      5104.5000         0.5976         0.5379         0.7173       -58.8779       -16.4454      0.1502706
      5105.0000         0.6252         0.5314         0.7084        -58.646      -16.21484      0.1638329
      5105.5000         0.6569         0.5248         0.6892        -58.414      -15.98418      0.1774009
      5106.0000         0.6854         0.5504         0.6674       -58.1821      -15.75362      0.1909635
      5106.5000         0.7078         0.6007         0.6456       -57.9504      -15.52326       0.204514
      5107.0000         0.7311         0.6509         0.6262       -57.7184       -15.2926      0.2180824
      5107.5000         0.7528         0.6933         0.6138       -57.4865      -15.06204      0.2316446
      5108.0000         0.7686         0.7322         0.6013       -57.2546      -14.83148       0.245207
      5108.5000         0.7809         0.7711         0.5983       -57.0226      -14.60082      0.2587754
      5109.0000         0.7911         0.8099         0.6181       -56.7906      -14.37016      0.2723436
      5109.5000         0.6834         0.8593         0.6368        -56.559       -14.1399      0.2858882
      5110.0000         0.6157         1.0055         0.6455       -56.4383      -14.02054      0.2929093
      5110.5000         0.5767         0.9226         0.6542       -56.3953      -13.97888      0.2953599
      5111.0000         0.4677         0.8398         0.6629       -56.3524      -13.93732      0.2978047
      5111.5000         0.4375         0.7785         0.6715       -56.3094      -13.89566      0.3002553
      5112.0000         0.4122         0.7283         0.6802       -56.2665       -13.8541         0.3027
      5112.5000         0.3884         0.6781         0.6701       -56.1528      -13.74174      0.3093093
      5113.0000         0.3617         0.6278         0.6526       -55.9981      -13.58838      0.3183306
      5113.5000         0.3522         0.5812         0.6352       -55.8434      -13.43502      0.3273517
      5114.0000         0.3488         0.5355         0.6123       -55.6887      -13.28166      0.3363728
      5114.5000         0.3573         0.4994         0.5877       -55.5339       -13.1282         0.3454
      5115.0000         0.3892         0.4743         0.5631       -55.3807      -12.97634      0.3543331
      5115.5000         0.4211         0.4782         0.5392       -55.2496      -12.84658      0.3619659
      5116.0000         0.4529         0.4943         0.5337       -55.1182      -12.71652      0.3696166
      5116.5000         0.4886         0.5348         0.5283       -54.4041      -12.00376      0.4115437
      5117.0000         0.5325            0.6         0.5229       -53.6059       -11.2069      0.4584176
      5117.5000          0.561         0.6653         0.5175       -52.8083      -10.41064      0.5052564
      5118.0000          0.586          0.736         0.5347       -52.0101      -9.613781      0.5521305
      5118.5000         0.6072         0.8151         0.5552       -51.2125       -8.81752      0.5989694
      5119.0000         0.6187         0.8969         0.5757       -50.4144       -8.02076      0.6458377
      5119.5000         0.6296         0.9813         0.5961       -49.6168      -7.224499      0.6926765
      5120.0000         0.6303         1.0238         0.6168       -48.8186      -6.427639      0.7395507
      5120.5000         0.6309         1.0569         0.6379       -48.0211      -5.631477      0.7863837
      5121.0000         0.6316         1.0054         0.6591       -47.2228      -4.834522      0.8332634
      5121.5000         0.6446         0.9469         0.6802        -47.618       -5.23106      0.8099377
      5122.0000         0.6595          0.885         0.6847       -48.0937      -5.708099      0.7818765
      5122.5000         0.6854         0.8305         0.6811       -48.6461      -6.261837      0.7493037
      5123.0000         0.7484         0.7885         0.6774       -49.4979      -7.114979      0.6991189
      5123.5000         0.7894         0.7567         0.6737       -50.3495      -7.967918       0.648946
