#------------------------------------------------------------------------------
# Created by    : vladimir.rabinovich
# Created on    : 09/19/2023 17:20:50
#------------------------------------------------------------------------------
~Version Information Section
VERS.           2.0     :   CWLS log ASCII Standard - VERSION 2.0
WRAP.           NO      :   One line per depth step
~Well Information Section
#MNEM       .UNIT                                         VALUE :DESCRIPTION
#------------------------------------------------------------------------------
STRT        .FT                                            2540 :START DEPTH
STOP        .FT                                            8943 :STOP DEPTH
STEP        .FT                                             0.5 :STEP      
NULL        .                                           -999.25 :NULL      
COMP        .                                 MECOM ENERGY CORP :COMPANY   
WELL        .                                          SL 00783 :WELL      
FLD         .                                           WILDCAT :FIELD     
LOC         .                                                   :LOCATION  
CNTY        .                                       SABINE PASS :LOCATION  
STAT        .                                         LOUISIANA :STATE     
CTRY        .                                     UNITED STATES :COUNTRY   
SRVC        .                                                   :SERVICE COMPANY
DATE        .                             9/13/2023 11:18:59 AM :LOG DATE  
API         .                                    17731000010000 :API NUMBER
UWI         .                                    17731000010000 :UNIQUE WELL ID
XCOORD      .                                  1377176.19909999 :SURFACE X 
YCOORD      .                                  10775304.6885056 :SURFACE Y 
LAT         .                                         29.687969 :LATITUDE  
LON         .                                        -93.829297 :LONGITUDE 
ELEV        .FT                                              11 :ELEVATION VALUE
ELEV_TYPE   .                                                KB :ELEVATION REFERENCE TYPE
~Curve Information Section
#MNEM       .UNIT                                      API CODE :CURVE DESCRIPTION
#------------------------------------------------------------------------------
DEPT        .FT                                                 :DEPTH     
ASN         .OHMM                                               :          
LAT         .OHMM                                               :          
LN          .OHMM                                               :          
SP          .MV                                                 :          
SP_NORM     .MV                                                 :SP Normalized
VSH_SP      .V/V                                                :Volume of Shale from SP
~A        DEPTH            ASN            LAT             LN             SP        SP_NORM         VSH_SP
# ...
      8088.0000         0.8022         0.4485         0.6003       -38.2712       3.661526              1
      8088.5000         0.8083         0.4376            0.6       -38.0994       3.834351              1
      8089.0000          0.817          0.426         0.5998        -37.928       4.006779              1
      8089.5000         0.8233         0.4143         0.5995       -37.7563       4.179504              1
      8090.0000         0.8175         0.4039         0.5992       -37.7309       4.205933              1
      8090.5000         0.8118         0.3938          0.599       -37.7278        4.21006              1
      8091.0000         0.8057         0.3837         0.6016       -37.8648       4.074085              1
      8091.5000         0.7927         0.3737         0.6049       -38.3752       3.564716              1
      8092.0000         0.7798         0.3675         0.6083       -38.8862       3.054741              1
      8092.5000         0.7629         0.3617         0.6116       -39.4326       2.509369              1
      8093.0000         0.7438          0.356          0.615       -40.8154       1.127594              1
      8093.5000         0.7267         0.3554         0.6183       -42.2524     -0.3083801              1
      8094.0000         0.7102         0.3556         0.6187       -43.9578      -2.012753      0.9992499
      8094.5000         0.7209         0.3501         0.6184        -47.902      -5.955925      0.7672985
      8095.0000         0.7407         0.3414          0.618       -48.9544      -7.007298      0.7054531
      8095.5000         0.7521         0.3327         0.6176       -50.0124      -8.064274       0.643278
      8096.0000          0.742          0.324         0.6173       -51.0805      -9.131348      0.5805089
      8096.5000         0.7318         0.3267         0.6206       -52.0573      -10.10712      0.5231108
      8097.0000          0.721         0.3294         0.6305       -53.3622      -11.41099      0.4464123
      8097.5000         0.7102         0.3321         0.6403       -54.2601      -12.30787       0.393655
      8098.0000         0.6901         0.3348         0.6501       -53.5066      -11.55334       0.438039
      8098.5000         0.6674         0.3611         0.6599       -52.1531      -10.19881       0.517717
      8099.0000         0.6919         0.4032         0.6698       -49.2228      -7.267483      0.6901481
      8099.5000         0.7221         0.4454         0.6796       -46.3895      -4.433155      0.8568732
      8100.0000         0.7652         0.4961         0.6894       -42.2795     -0.3221283              1
      8100.5000         0.8402         0.5475         0.6992       -37.3178       4.640598              1
      8101.0000          0.869         0.5891         0.7101        -36.385       5.574425              1
      8101.5000         0.9177         0.6076         0.7258        -35.785       6.175449              1
      8102.0000         0.9393         0.6261         0.7415         -36.16       5.801479              1
      8102.5000         0.9598         0.6339         0.7572        -36.535       5.427505              1
      8103.0000         0.9785         0.6313          0.776       -36.9253       5.038231              1
      8103.5000         0.9914         0.6287         0.7996       -37.3302       4.634357              1
      8104.0000         1.0044         0.6261         0.8232       -37.7351       4.230484              1
      8104.5000         1.0173         0.6235         0.8468       -38.1406       3.826015              1
      8105.0000         1.0302         0.6209         0.8737       -38.5292       3.438438              1
      8105.5000         1.0528         0.6203         0.9025       -38.8969       3.071766              1
      8106.0000         1.0815         0.6231         0.9313       -39.2646       2.705093              1
      8106.5000         1.1139         0.6259         0.9678       -39.6492       2.321518              1
      8107.0000         1.1458         0.6287         1.0077       -40.7759       1.195847              1
      8107.5000          1.165         0.6315         1.0701       -41.4662      0.5065727              1
      8108.0000         1.1586         0.6343         1.1177       -41.8314      0.1423988              1
      8108.5000         1.1331         0.6416         1.1515       -41.6292      0.3456268              1
      8109.0000          1.112         0.6537          1.132       -41.3664      0.6094513              1
      8109.5000         1.0923         0.6659         1.1062       -40.9688       1.008083              1
      8110.0000         1.0742          0.678         1.0709       -40.5712       1.406708              1
      8110.5000          1.058         0.6902         1.0357       -40.1948       1.784134              1
      8111.0000         1.0408         0.7023         1.0006       -39.9016       2.078362              1
      8111.5000         1.0235         0.7136         0.9719       -39.6083       2.372688              1
      8112.0000          1.009         0.7245         0.9433       -38.6442       3.337818              1
      8112.5000         0.9959         0.7353         0.9497       -38.0453       3.937744              1
      8113.0000         0.9995         0.7462           0.99       -37.4768       4.507271              1
      8113.5000         1.0444          0.757         1.0209       -37.5107       4.474396              1
      8114.0000         1.0998         0.7733         1.0514       -38.1603       3.825821              1
      8114.5000         1.1297         0.7907         1.0819        -38.704       3.283154              1
      8115.0000         1.1152         0.8082         1.0673       -39.1292       2.858978              1
      8115.5000         1.0991         0.8276         1.0429        -39.458       2.531204              1
      8116.0000         1.0812         0.8496         1.0176       -39.0153        2.97493              1
      8116.5000         1.0756         0.8717         0.9902        -38.572       3.419258              1
      8117.0000         1.0718         0.8982         0.9629       -37.8693       4.122982              1
      8117.5000         1.0674         0.9375         0.9356       -36.7888       5.204514              1
      8118.0000         1.0486         0.9864         0.8863       -35.7297       6.264641              1
      8118.5000          1.019          1.085         0.8295        -35.071       6.924366              1
      8119.0000         1.0012         1.1332         0.7514       -35.6304        6.36599              1
      8119.5000         0.9834         1.1814         0.7004       -36.4753       5.522118              1
      8120.0000         0.9657         1.2217         0.6571       -37.2366       4.761848              1
      8120.5000          0.933         1.2592         0.6211       -37.9968       4.002674              1
      8121.0000         0.8951         1.2873         0.5944       -39.4146       2.585899              1
      8121.5000         0.8609         1.3152         0.5771       -40.8763       1.125225              1
      8122.0000         0.8291          1.335         0.5866       -42.2839     -0.2813492              1
      8122.5000         0.7952         1.3498         0.6011       -43.9849      -1.981319              1
      8123.0000         0.7598         1.3134         0.6156       -46.0873      -4.082691      0.8774887
      8123.5000         0.7213         1.2353          0.627       -48.8754      -6.869766      0.7135432
      8124.0000         0.6688         1.1302          0.629       -51.2508      -9.244141      0.5738741
      8124.5000         0.6349         1.0546         0.6311       -53.2179      -11.21021      0.4582228
      8125.0000         0.5933         0.9958         0.6331       -54.8353      -12.82658      0.3631421
      8125.5000         0.5358         0.9254         0.6351       -55.1105      -13.10076      0.3470142
