#------------------------------------------------------------------------------
# Created by    : vladimir.rabinovich
# Created on    : 09/19/2023 17:20:50
#------------------------------------------------------------------------------
~Version Information Section
VERS.           2.0     :   CWLS log ASCII Standard - VERSION 2.0
WRAP.           NO      :   One line per depth step
~Well Information Section
#MNEM       .UNIT                                         VALUE :DESCRIPTION
#------------------------------------------------------------------------------
STRT        .FT                                            2540 :START DEPTH
STOP        .FT                                            8943 :STOP DEPTH
STEP        .FT                                             0.5 :STEP      
NULL        .                                           -999.25 :NULL      
COMP        .                                 MECOM ENERGY CORP :COMPANY   
WELL        .                                          SL 00783 :WELL      
FLD         .                                           WILDCAT :FIELD     
LOC         .                                                   :LOCATION  
CNTY        .                                       SABINE PASS :LOCATION  
STAT        .                                         LOUISIANA :STATE     
CTRY        .                                     UNITED STATES :COUNTRY   
SRVC        .                                                   :SERVICE COMPANY
DATE        .                             9/13/2023 11:18:59 AM :LOG DATE  
API         .                                    17731000010000 :API NUMBER
UWI         .                                    17731000010000 :UNIQUE WELL ID
XCOORD      .                                  1377176.19909999 :SURFACE X 
YCOORD      .                                  10775304.6885056 :SURFACE Y 
LAT         .                                         29.687969 :LATITUDE  
LON         .                                        -93.829297 :LONGITUDE 
ELEV        .FT                                              11 :ELEVATION VALUE
ELEV_TYPE   .                                                KB :ELEVATION REFERENCE TYPE
~Curve Information Section
#MNEM       .UNIT                                      API CODE :CURVE DESCRIPTION
#------------------------------------------------------------------------------
DEPT        .FT                                                 :DEPTH     
ASN         .OHMM                                               :          
LAT         .OHMM                                               :          
LN          .OHMM                                               :          
SP          .MV                                                 :          
SP_NORM     .MV                                                 :SP Normalized
VSH_SP      .V/V                                                :Volume of Shale from SP
~A        DEPTH            ASN            LAT             LN             SP        SP_NORM         VSH_SP
# ...
      4668.0000         1.0529         0.4756         1.2034       -40.8235        1.79945              1
      4668.5000         1.0688         0.4758         1.2259       -40.8932       1.729752              1
      4669.0000         1.0837          0.476         1.2456        -40.963        1.65995              1
      4669.5000         1.0976         0.4762         1.2645       -41.0325        1.59045              1
      4670.0000         1.1093         0.4906         1.2792        -41.066        1.55695              1
      4670.5000         1.1186           0.51         1.2938       -41.0539        1.56905              1
      4671.0000         1.1251         0.5295         1.3084       -41.0418        1.58115              1
      4671.5000         1.1274         0.5489         1.3232       -41.0297        1.59325              1
      4672.0000         1.1297         0.5737         1.3389       -40.9893       1.633652              1
      4672.5000          1.132         0.6093         1.3546       -40.9188       1.704151              1
      4673.0000         1.1372         0.6448         1.3702       -40.8482        1.77475              1
      4673.5000         1.1426          0.645         1.3859       -40.7778        1.84515              1
      4674.0000          1.148         0.6416         1.3945       -40.8535       1.769451              1
      4674.5000         1.1515         0.6382         1.4029       -40.9863        1.63665              1
      4675.0000         1.1457         0.6372         1.4079        -41.119       1.503952              1
      4675.5000         1.1399         0.6406         1.4079       -41.2519       1.371052              1
      4676.0000         1.1341         0.6441         1.4063       -41.3846        1.23835              1
      4676.5000         1.1285         0.6476         1.3995       -41.6735      0.9494514              1
      4677.0000         1.1235          0.651         1.3924       -42.0695      0.5534515              1
      4677.5000         1.1185         0.6773         1.3799       -42.4658      0.1571503              1
      4678.0000         1.1244         0.7188         1.3675       -42.8198     -0.1968498              1
      4678.5000         1.1325         0.7601         1.3551       -43.0554     -0.4324493              1
      4679.0000         1.1508         0.8015         1.3368       -43.1146     -0.4916496              1
      4679.5000         1.1692         0.8429         1.3132       -43.0947     -0.4717484              1
      4680.0000         1.1847         0.8843         1.2896       -43.0748     -0.4518471              1
      4680.5000         1.1988         0.9257         1.2659       -43.3812     -0.7582474              1
      4681.0000         1.2129         0.9878         1.2382       -43.7162       -1.09325              1
      4681.5000         1.2272         1.0536         1.2095       -44.0516       -1.42865              1
      4682.0000         1.2516         1.1503         1.1808       -44.4569       -1.83395              1
      4682.5000         1.2859         1.2342         1.1191        -45.157       -2.53405      0.9685853
      4683.0000         1.3022         1.2956         1.0526       -45.8571       -3.23415       0.927403
      4683.5000          1.297         1.3505         0.9937       -46.5577       -3.93475      0.8861912
      4684.0000         1.2788         1.3904         0.9404       -47.2578       -4.63485      0.8450089
      4684.5000         1.2317         1.4229         0.8757       -48.2375      -5.614548      0.7873796
      4685.0000         1.1917         1.4526         0.7996       -49.3242      -6.701248       0.723456
      4685.5000         1.1435         1.4926         0.7492       -50.4099      -7.786949      0.6595912
      4686.0000         1.0839         1.5358         0.6989        -51.425      -8.802048      0.5998796
      4686.5000         1.0335         1.5183          0.665        -52.354      -9.731049      0.5452324
      4687.0000          0.979         1.4641         0.6357       -53.2823      -10.65935      0.4906266
      4687.5000         0.8966         1.3835         0.6064       -54.1859      -11.56295      0.4374735
      4688.0000         0.7791         1.3028         0.5846       -54.9576      -12.33465      0.3920795
      4688.5000         0.6848         1.2206         0.5668       -55.7292      -13.10625      0.3466914
      4689.0000         0.6007         1.1384          0.549       -56.5009      -13.87795      0.3012971
      4689.5000         0.5375         1.0639         0.5312       -57.1266      -14.50365      0.2644913
      4690.0000         0.4777         0.9947         0.5158       -57.7292      -15.10625      0.2290443
      4690.5000         0.4424         0.9255          0.505       -58.3317      -15.70875      0.1936031
      4691.0000         0.4171         0.8644         0.4942       -58.8058      -16.18285      0.1657147
      4691.5000         0.3906         0.8166         0.4834       -59.0504      -16.42745      0.1513266
      4692.0000         0.3693         0.7689         0.4796        -59.295      -16.67205      0.1369384
      4692.5000         0.3549         0.7258         0.4804       -59.5397      -16.91675      0.1225442
      4693.0000         0.3433         0.6931         0.4813       -59.6951      -17.07215      0.1134031
      4693.5000         0.3345         0.6605         0.4822       -59.7303      -17.10735      0.1113324
      4694.0000         0.3277         0.6278         0.4884       -59.7657      -17.14275        0.10925
      4694.5000         0.3223         0.6053         0.4975        -59.801      -17.17805      0.1071737
      4695.0000           0.32         0.5851         0.5067       -59.8364      -17.21345      0.1050913
      4695.5000         0.3177         0.5649         0.5158       -59.8575      -17.23455      0.1038502
      4696.0000         0.3153         0.5486         0.5248       -59.8637      -17.24075      0.1034853
      4696.5000         0.3131         0.5328         0.5335       -59.8698      -17.24685      0.1031265
      4697.0000         0.3108         0.5169         0.5422       -59.8759      -17.25295      0.1027677
      4697.5000         0.3085         0.5018          0.551       -59.8851      -17.26215      0.1022265
      4698.0000         0.3063         0.4879         0.5587        -59.914      -17.29105      0.1005265
      4698.5000         0.3041          0.474         0.5586        -59.943      -17.32005     0.09882063
      4699.0000          0.302         0.4601         0.5585       -59.9719      -17.34895     0.09712062
      4699.5000         0.2998         0.4462         0.5575       -59.8901      -17.26715      0.1019325
      4700.0000         0.2977         0.4323         0.5507       -59.8049      -17.18195      0.1069441
      4700.5000         0.2962         0.4184         0.5439        -59.738      -17.11505      0.1108796
      4701.0000         0.2951         0.4045         0.5371       -59.6821      -17.05915      0.1141678
      4701.5000         0.2934         0.3907         0.5297       -59.6263      -17.00335        0.11745
      4702.0000         0.2889         0.3768          0.521       -59.5571      -16.93415      0.1215208
      4702.5000         0.2864         0.3641         0.5123       -59.1995      -16.57655      0.1425559
      4703.0000         0.2981         0.3522         0.5036       -58.8419      -16.21895      0.1635913
      4703.5000         0.3194         0.3404         0.4949       -58.2505      -15.62755      0.1983795
      4704.0000         0.3388         0.3794         0.4867       -56.9823      -14.35935      0.2729795
      4704.5000         0.3526         0.4874         0.4812       -55.7151      -13.09215      0.3475207
      4705.0000         0.3663         0.6138         0.4757        -54.448      -11.82505      0.4220559
      4705.5000         0.3805         0.6533         0.4703       -53.1797      -10.55675      0.4966619
