#------------------------------------------------------------------------------
# Created by    : vladimir.rabinovich
# Created on    : 09/19/2023 17:20:50
#------------------------------------------------------------------------------
~Version Information Section
VERS.           2.0     :   CWLS log ASCII Standard - VERSION 2.0
WRAP.           NO      :   One line per depth step
~Well Information Section
#MNEM       .UNIT                                         VALUE :DESCRIPTION
#------------------------------------------------------------------------------
STRT        .FT                                            2540 :START DEPTH
STOP        .FT                                            8943 :STOP DEPTH
STEP        .FT                                             0.5 :STEP      
NULL        .                                           -999.25 :NULL      
COMP        .                                 MECOM ENERGY CORP :COMPANY   
WELL        .                                          SL 00783 :WELL      
FLD         .                                           WILDCAT :FIELD     
LOC         .                                                   :LOCATION  
CNTY        .                                       SABINE PASS :LOCATION  
STAT        .                                         LOUISIANA :STATE     
CTRY        .                                     UNITED STATES :COUNTRY   
SRVC        .                                                   :SERVICE COMPANY
DATE        .                             9/13/2023 11:18:59 AM :LOG DATE  
API         .                                    17731000010000 :API NUMBER
UWI         .                                    17731000010000 :UNIQUE WELL ID
XCOORD      .                                  1377176.19909999 :SURFACE X 
YCOORD      .                                  10775304.6885056 :SURFACE Y 
LAT         .                                         29.687969 :LATITUDE  
LON         .                                        -93.829297 :LONGITUDE 
ELEV        .FT                                              11 :ELEVATION VALUE
ELEV_TYPE   .                                                KB :ELEVATION REFERENCE TYPE
~Curve Information Section
#MNEM       .UNIT                                      API CODE :CURVE DESCRIPTION
#------------------------------------------------------------------------------
DEPT        .FT                                                 :DEPTH     
ASN         .OHMM                                               :          
LAT         .OHMM                                               :          
LN          .OHMM                                               :          
SP          .MV                                                 :          
SP_NORM     .MV                                                 :SP Normalized
VSH_SP      .V/V                                                :Volume of Shale from SP
~A        DEPTH            ASN            LAT             LN             SP        SP_NORM         VSH_SP
# ...
      8506.0000         1.0081         1.0986         1.3099       -43.5579      -1.621136      0.9785815
      8506.5000         1.0138         1.0998         1.3245       -43.7268      -1.794224       0.972613
      8507.0000         1.0397         1.1031         1.3392       -43.8958      -1.967415      0.9666409
      8507.5000         1.0747         1.1064         1.3539       -44.0565      -2.132301      0.9609551
      8508.0000         1.1207         1.1096          1.368       -44.2112      -2.291187      0.9554763
      8508.5000          1.176         1.1129         1.3791       -44.3663      -2.450474      0.9499837
      8509.0000         1.2091         1.1161         1.3902       -44.4808      -2.569164      0.9458909
      8509.5000         1.3218         1.1194         1.3888        -44.528      -2.620552      0.9441189
      8510.0000         1.3496         1.1226         1.3842       -44.5276       -2.62434      0.9439883
      8510.5000          1.357         1.1278         1.3796        -44.299      -2.399929      0.9517266
      8511.0000         1.3594         1.1467         1.3663       -44.0703      -2.175419      0.9594683
      8511.5000         1.3519         1.1657         1.3509       -43.8416      -1.950901      0.9672103
      8512.0000         1.3033         1.1764         1.3356        -43.617      -1.730492      0.9748107
      8512.5000           1.25          1.187         1.3203       -43.5182       -1.63588      0.9780731
      8513.0000         1.2107         1.1976         1.3054       -43.4192      -1.541069      0.9813424
      8513.5000         1.1575         1.2078         1.2909        -43.336      -1.462055      0.9840671
      8514.0000         1.1255         1.2173         1.2764       -43.5224      -1.652645       0.977495
      8514.5000         1.1046         1.2269         1.2627       -43.7088      -1.843231      0.9709231
      8515.0000         1.1052         1.2365         1.2502       -43.8954      -2.034019      0.9643441
      8515.5000         1.1205         1.2587         1.2414       -44.1106      -2.253407      0.9567791
      8516.0000         1.1357         1.2819         1.2381       -44.4247      -2.571697      0.9458035
      8516.5000          1.151          1.305         1.2348       -44.7383      -2.889484      0.9348454
      8517.0000         1.1663         1.3331         1.2315       -45.0518      -3.207172      0.9238906
      8517.5000         1.1815         1.3673         1.2283       -45.3643      -3.523861      0.9129703
      8518.0000         1.2069         1.3985         1.2244        -45.675      -3.838745      0.9021122
      8518.5000         1.2404          1.427         1.2185       -45.9863      -4.154236      0.8912333
      8519.0000         1.2695         1.4554         1.2127       -46.2976      -4.469723      0.8803544
      8519.5000          1.268         1.4695         1.2068       -46.6884      -4.864712      0.8667341
      8520.0000         1.2493         1.4646          1.201       -47.2648      -5.445301      0.8467138
      8520.5000         1.2305         1.4597         1.1951       -47.8964      -6.081089      0.8247901
      8521.0000         1.1792         1.4548         1.1893       -48.7085      -6.897377      0.7966422
      8521.5000         1.1331         1.4388         1.1832       -50.1364       -8.32946        0.74726
      8522.0000         1.1006         1.3941          1.177       -51.2722      -9.469452      0.7079499
      8522.5000         1.0698         1.3493         1.1707       -51.6368      -9.838238      0.6952332
      8523.0000         1.0405         1.3038         1.1645        -51.861      -10.06663      0.6873577
      8523.5000          1.007         1.2556         1.1583       -52.0854      -10.29522      0.6794753
      8524.0000         0.9783         1.2074         1.1521       -52.5862      -10.80021      0.6620619
      8524.5000         0.9682         1.1621         1.1459       -51.1752      -9.393391      0.7105727
      8525.0000         0.9441         1.1312          1.139       -50.3959      -8.618279      0.7373008
      8525.5000         0.9475         1.1004         1.1321       -49.6808      -7.907368      0.7618149
      8526.0000         0.9654         1.0695         1.1251       -49.0232      -7.253956      0.7843463
      8526.5000          0.982         1.0447         1.1182        -48.451      -6.685944       0.803933
      8527.0000         0.9983         1.0318         1.1112       -48.1891       -6.42823      0.8128197
      8527.5000         1.0146          1.019         1.1042       -47.9274      -6.170719      0.8216993
      8528.0000         1.0213         1.0062         1.0988       -47.9054      -6.152905      0.8223137
      8528.5000         1.0251         1.0098         1.0961        -47.941      -6.192696      0.8209415
      8529.0000         1.0285         1.0186         1.0934       -48.2562      -6.512081      0.8099282
      8529.5000          1.022         1.0275         1.0906       -48.5715       -6.83157      0.7989114
      8530.0000         1.0156         1.0363         1.0879       -48.8517      -7.115959      0.7891049
      8530.5000         1.0091         1.0452         1.0852       -49.0035       -7.27195      0.7837259
      8531.0000         0.9991         1.0599         1.0827       -49.1552      -7.427834      0.7783506
      8531.5000         0.9881         1.0775         1.0809       -49.1168       -7.39362      0.7795303
      8532.0000         0.9772         1.0952         1.0791       -48.7903      -7.071308      0.7906445
      8532.5000         0.9662         1.1128         1.0773       -48.4637      -6.748898      0.8017622
      8533.0000         0.9558         1.1304         1.0756       -48.1282      -6.417587      0.8131866
      8533.5000         0.9462         1.1482         1.0738       -47.6663      -5.959877      0.8289698
      8534.0000         0.9366         1.1727         1.0737       -47.2045      -5.502262      0.8447496
      8534.5000         0.9248         1.1972          1.074       -46.7432      -5.045147      0.8605122
      8535.0000         0.9094         1.2218         1.0742       -46.2813      -4.587437      0.8762953
      8535.5000         0.9016         1.2439         1.0745       -45.6925      -4.002827      0.8964543
      8536.0000         0.8941          1.265         1.0768       -45.0157      -3.330215      0.9196478
      8536.5000         0.9046         1.2862         1.0838       -44.5003      -2.819004      0.9372757
      8537.0000         0.9161         1.2997         1.0908        -44.066      -2.388893      0.9521071
      8537.5000         0.9359         1.3029         1.0978       -43.7349      -2.061977      0.9633801
      8538.0000         0.9557          1.306         1.1047       -43.6193      -1.950565      0.9672219
      8538.5000         0.9755         1.2926         1.1148       -43.7562      -2.091652      0.9623568
      8539.0000         0.9982         1.2766          1.125       -43.9837      -2.323341      0.9543675
      8539.5000         1.0214         1.2607         1.1349       -44.2112      -2.555031      0.9463782
      8540.0000         1.0482         1.2459         1.1384       -44.2737      -2.621719      0.9440786
      8540.5000         1.0671         1.2438          1.142       -44.3188      -2.671009       0.942379
      8541.0000         1.0657         1.2416         1.1455       -44.3639      -2.720291      0.9406796
      8541.5000         1.0634         1.2394         1.1457       -44.4089      -2.769482      0.9389834
      8542.0000         1.0631         1.2372         1.1444       -44.3661      -2.730869      0.9403148
      8542.5000         1.0657         1.2485          1.141       -44.1222      -2.491158      0.9485808
      8543.0000         1.0757         1.2645         1.1326       -43.8782      -2.251347      0.9568501
      8543.5000         1.0857         1.2804         1.1242       -43.6346      -2.011936      0.9651057
