#------------------------------------------------------------------------------
# Created by    : vladimir.rabinovich
# Created on    : 09/19/2023 17:20:50
#------------------------------------------------------------------------------
~Version Information Section
VERS.           2.0     :   CWLS log ASCII Standard - VERSION 2.0
WRAP.           NO      :   One line per depth step
~Well Information Section
#MNEM       .UNIT                                         VALUE :DESCRIPTION
#------------------------------------------------------------------------------
STRT        .FT                                            2540 :START DEPTH
STOP        .FT                                            8943 :STOP DEPTH
STEP        .FT                                             0.5 :STEP      
NULL        .                                           -999.25 :NULL      
COMP        .                                 MECOM ENERGY CORP :COMPANY   
WELL        .                                          SL 00783 :WELL      
FLD         .                                           WILDCAT :FIELD     
LOC         .                                                   :LOCATION  
CNTY        .                                       SABINE PASS :LOCATION  
STAT        .                                         LOUISIANA :STATE     
CTRY        .                                     UNITED STATES :COUNTRY   
SRVC        .                                                   :SERVICE COMPANY
DATE        .                             9/13/2023 11:18:59 AM :LOG DATE  
API         .                                    17731000010000 :API NUMBER
UWI         .                                    17731000010000 :UNIQUE WELL ID
XCOORD      .                                  1377176.19909999 :SURFACE X 
YCOORD      .                                  10775304.6885056 :SURFACE Y 
LAT         .                                         29.687969 :LATITUDE  
LON         .                                        -93.829297 :LONGITUDE 
ELEV        .FT                                              11 :ELEVATION VALUE
ELEV_TYPE   .                                                KB :ELEVATION REFERENCE TYPE
~Curve Information Section
#MNEM       .UNIT                                      API CODE :CURVE DESCRIPTION
#------------------------------------------------------------------------------
DEPT        .FT                                                 :DEPTH     
ASN         .OHMM                                               :          
LAT         .OHMM                                               :          
LN          .OHMM                                               :          
SP          .MV                                                 :          
SP_NORM     .MV                                                 :SP Normalized
VSH_SP      .V/V                                                :Volume of Shale from SP
~A        DEPTH            ASN            LAT             LN             SP        SP_NORM         VSH_SP
      2540.0000         0.1382         0.1746         0.1168       -44.7466       2.247932              1
      2540.5000         0.5058         0.1767         0.1868       -43.6672       3.327335              1
      2541.0000         0.5736          0.179         0.3059       -43.3299       3.664635              1
      2541.5000         0.5977         0.1815         0.4279       -43.6292       3.365334              1
      2542.0000         0.6167          0.184         0.5848       -43.9283       3.066235              1
      2542.5000         0.6442         0.1889         0.6802       -44.2277       2.766834              1
      2543.0000         0.6866         0.1945         0.7588       -44.6621       2.332432              1
      2543.5000         0.7392         0.2002         0.8231        -45.166       1.828533              1
      2544.0000         0.7664         0.2059         0.8613       -45.6928       1.301735              1
      2544.5000         0.7982         0.2134         0.8911        -46.463      0.5315323              1
      2545.0000         0.8146          0.221          0.913       -47.2085     -0.2139664              1
      2545.5000         0.8143         0.2257         0.9311        -47.897     -0.9024658              1
      2546.0000          0.816         0.2289         0.9434       -48.6707      -1.676167              1
      2546.5000         0.8196         0.2312          0.951       -49.4987      -2.504166      0.9639882
      2547.0000         0.8233         0.2326         0.9578       -50.2802      -3.285667      0.9081666
      2547.5000         0.8169          0.234         0.9602       -50.8628      -3.868267      0.8665524
      2548.0000         0.8095         0.2355         0.9626       -50.9448      -3.950268      0.8606952
      2548.5000         0.7995          0.237          0.965       -50.6508      -3.656265      0.8816953
      2549.0000         0.7887         0.2342         0.9605       -50.3571      -3.362568      0.9026737
      2549.5000          0.777         0.2311         0.9558       -50.0512      -3.056667      0.9245238
      2550.0000         0.7648         0.2274         0.9511       -49.7258      -2.731266      0.9477667
      2550.5000         0.7534         0.2232          0.946       -49.6157      -2.621166       0.955631
      2551.0000         0.7441         0.2184         0.9391       -49.8579      -2.863365      0.9383311
      2551.5000         0.7345         0.2133         0.9323       -50.3383      -3.343765      0.9040168
      2552.0000         0.7249         0.2082         0.9254       -50.9832      -3.988667      0.8579524
      2552.5000         0.7164         0.2031         0.9185       -51.6336      -4.639065      0.8114954
      2553.0000         0.7065         0.1977         0.9118       -52.6082      -5.613667       0.741881
      2553.5000         0.7011         0.1916         0.9052       -53.4937      -6.499165      0.6786311
      2554.0000         0.6957         0.1857         0.8985       -54.1008      -7.106266      0.6352667
      2554.5000         0.6853         0.1801         0.8916        -54.525      -7.530468      0.6049666
      2555.0000         0.6738         0.1755         0.8836       -54.7036      -7.709068      0.5922094
      2555.5000          0.664         0.1721         0.8755       -54.4808      -7.486267      0.6081238
      2556.0000         0.6543         0.1745         0.8675       -54.2582      -7.263668      0.6240237
      2556.5000         0.6469         0.1932         0.8604         -54.03      -7.035465      0.6403239
      2557.0000         0.6563         0.2252         0.8541       -53.7958      -6.801266      0.6570525
      2557.5000         0.6656         0.2584         0.8477       -53.5616      -6.567066       0.673781
      2558.0000         0.6756         0.2964         0.8417       -53.3556      -6.361065      0.6884953
      2558.5000         0.6771         0.3353          0.837       -53.4463      -6.451767      0.6820167
      2559.0000         0.6663         0.3749         0.8322        -53.537      -6.542465      0.6755382
      2559.5000         0.6556         0.4164         0.8275       -53.8005      -6.805965      0.6567168
      2560.0000         0.6449         0.4579          0.823       -54.1381      -7.143566      0.6326024
      2560.5000         0.6341         0.4994         0.8188       -54.4756      -7.481068      0.6084952
      2561.0000         0.6234         0.5409         0.8146       -54.9092      -7.914665      0.5775239
      2561.5000         0.6127         0.5381         0.8104        -55.351      -8.356468      0.5459666
      2562.0000         0.6019         0.5241          0.808       -55.7287      -8.734165      0.5189882
      2562.5000         0.5906         0.4984         0.8056       -55.7287      -8.734165      0.5189882
      2563.0000         0.5792         0.4721         0.8032       -55.7287      -8.734165      0.5189882
      2563.5000         0.5713         0.4459         0.8008       -55.5817      -8.587166      0.5294881
      2564.0000         0.5689         0.4222         0.7988       -55.1722      -8.177666      0.5587382
      2564.5000          0.579         0.4084         0.7971       -54.7626      -7.768066      0.5879952
      2565.0000         0.5892         0.3947         0.7954        -54.421      -7.426468      0.6123952
      2565.5000         0.5963         0.3809         0.7936       -54.1983      -7.203766      0.6283025
      2566.0000          0.597         0.3741         0.7931       -53.9756      -6.981068      0.6442094
      2566.5000         0.5911         0.3698         0.7932       -54.2762      -7.281666      0.6227382
      2567.0000         0.5861         0.3656         0.7932       -54.7575      -7.762966      0.5883595
      2567.5000         0.5821         0.3613         0.7933       -55.3536      -8.359066       0.545781
      2568.0000         0.5789         0.3585         0.7954       -55.9473      -8.952766      0.5033738
      2568.5000         0.5866          0.359         0.7985       -56.2329      -9.238365      0.4829739
      2569.0000          0.599         0.3595         0.8016       -56.5184      -9.523865      0.4625811
      2569.5000          0.614         0.3599         0.8049       -56.6943      -9.699768      0.4500166
      2570.0000          0.629         0.3604         0.8126       -56.4995      -9.504967      0.4639309
      2570.5000         0.6447         0.3608         0.8204       -56.3045      -9.309967      0.4778595
      2571.0000          0.662         0.3625         0.8281       -56.1245      -9.129967      0.4907167
      2571.5000         0.6792         0.3663          0.837        -55.953      -8.958466      0.5029668
      2572.0000         0.7054         0.3701         0.8499       -55.7816      -8.787067      0.5152095
      2572.5000         0.7336         0.3738         0.8628         -55.61      -8.615467      0.5274667
      2573.0000         0.7482         0.3776         0.8757       -55.6138      -8.619267      0.5271953
      2573.5000         0.7551         0.3814         0.8904       -55.6483      -8.653767       0.524731
      2574.0000         0.7548         0.3852         0.9056       -55.6829      -8.688366      0.5222596
      2574.5000         0.7552          0.389          0.925       -55.7173      -8.722767      0.5198024
      2575.0000         0.7578         0.3929         0.9513       -55.8752      -8.880665      0.5085239
      2575.5000         0.7635         0.3984         0.9758       -56.0931      -9.098568      0.4929594
      2576.0000         0.7698         0.4039         0.9904       -56.3417      -9.347168      0.4752023
      2576.5000         0.7695          0.411          1.005       -56.6041      -9.609566      0.4564596
      2577.0000         0.7674         0.4196         1.0185       -56.8665      -9.871967      0.4377166
      2577.5000         0.7722         0.4283         1.0247       -57.1034      -10.10887      0.4207952
