#------------------------------------------------------------------------------
# Created by    : vladimir.rabinovich
# Created on    : 09/19/2023 17:20:50
#------------------------------------------------------------------------------
~Version Information Section
VERS.           2.0     :   CWLS log ASCII Standard - VERSION 2.0
WRAP.           NO      :   One line per depth step
~Well Information Section
#MNEM       .UNIT                                         VALUE :DESCRIPTION
#------------------------------------------------------------------------------
STRT        .FT                                            2540 :START DEPTH
STOP        .FT                                            8943 :STOP DEPTH
STEP        .FT                                             0.5 :STEP      
NULL        .                                           -999.25 :NULL      
COMP        .                                 MECOM ENERGY CORP :COMPANY   
WELL        .                                          SL 00783 :WELL      
FLD         .                                           WILDCAT :FIELD     
LOC         .                                                   :LOCATION  
CNTY        .                                       SABINE PASS :LOCATION  
STAT        .                                         LOUISIANA :STATE     
CTRY        .                                     UNITED STATES :COUNTRY   
SRVC        .                                                   :SERVICE COMPANY
DATE        .                             9/13/2023 11:18:59 AM :LOG DATE  
API         .                                    17731000010000 :API NUMBER
UWI         .                                    17731000010000 :UNIQUE WELL ID
XCOORD      .                                  1377176.19909999 :SURFACE X 
YCOORD      .                                  10775304.6885056 :SURFACE Y 
LAT         .                                         29.687969 :LATITUDE  
LON         .                                        -93.829297 :LONGITUDE 
ELEV        .FT                                              11 :ELEVATION VALUE
ELEV_TYPE   .                                                KB :ELEVATION REFERENCE TYPE
~Curve Information Section
#MNEM       .UNIT                                      API CODE :CURVE DESCRIPTION
#------------------------------------------------------------------------------
DEPT        .FT                                                 :DEPTH     
ASN         .OHMM                                               :          
LAT         .OHMM                                               :          
LN          .OHMM                                               :          
SP          .MV                                                 :          
SP_NORM     .MV                                                 :SP Normalized
VSH_SP      .V/V                                                :Volume of Shale from SP
~A        DEPTH            ASN            LAT             LN             SP        SP_NORM         VSH_SP
# ...
      4250.0000         0.3885         0.4326         0.4217       -61.0187      -18.06665     0.05490292
      4250.5000         0.4059         0.4297         0.4232       -60.4638       -17.5128     0.08748245
      4251.0000         0.4237         0.4268         0.4246       -60.2754      -17.32544     0.09850334
      4251.5000         0.4475         0.4239          0.426       -60.0869      -17.13799      0.1095298
      4252.0000         0.4766          0.421         0.4256       -60.1783      -17.23044      0.1040919
      4252.5000         0.5181          0.418         0.4232       -60.7375      -17.79069     0.07113603
      4253.0000         0.5665         0.4123         0.4207       -61.2972      -18.35144     0.03815079
      4253.5000         0.5702         0.4066         0.4183       -61.7851      -18.84038    0.009389317
      4254.0000          0.548         0.4008         0.4158       -62.2326      -19.28893              0
      4254.5000         0.5172         0.3951         0.4134       -62.6805      -19.73788              0
      4255.0000         0.4857         0.3894         0.4109       -62.3394      -19.39783              0
      4255.5000         0.4574         0.3836         0.4085       -61.6653      -18.72477     0.01619002
      4256.0000         0.4399         0.3779         0.4067        -61.348      -18.40852     0.03479296
      4256.5000         0.4341         0.3728         0.4051       -61.1851      -18.24667     0.04431377
      4257.0000         0.4499         0.3681         0.4035       -61.9618      -19.02441              0
      4257.5000         0.4657         0.3634         0.4019        -62.738      -19.80166              0
      4258.0000         0.5188         0.3587         0.4002       -63.7644      -20.82911              0
      4258.5000         0.5318          0.354         0.3986       -63.0147      -20.08046              0
      4259.0000         0.5142         0.3493          0.397       -61.8801       -18.9469    0.003123339
      4259.5000         0.4999         0.3513         0.3965       -61.3209      -18.38875     0.03595599
      4260.0000         0.4856         0.3544         0.3964       -60.7617       -17.8306     0.06878842
      4260.5000          0.472         0.3574         0.3963       -60.2026      -17.27254       0.101615
      4261.0000         0.4585         0.3605         0.3962       -59.6434      -16.71439      0.1344477
      4261.5000         0.4476         0.3635         0.3962       -59.5004      -16.57244      0.1427976
      4262.0000         0.4409         0.3637         0.3961       -59.3634      -16.43649       0.150795
      4262.5000         0.4341         0.3606          0.396       -59.2264      -16.30053      0.1587922
      4263.0000          0.429         0.3575         0.3959       -59.0894      -16.16458      0.1667893
      4263.5000         0.4247         0.3565         0.3939        -59.013      -16.08923      0.1712218
      4264.0000         0.4204         0.3557         0.3919       -59.0184      -16.09567      0.1708428
      4264.5000         0.4161          0.355         0.3899       -59.0238      -16.10212      0.1704633
      4265.0000         0.4135         0.3543         0.3879       -59.0292      -16.10857      0.1700841
      4265.5000         0.4117         0.3536         0.3858        -59.114      -16.19442      0.1650344
      4266.0000         0.4098         0.3529         0.3838       -59.2108      -16.29226      0.1592786
      4266.5000         0.4042         0.3522         0.3818       -59.3077      -16.39021      0.1535169
      4267.0000          0.396         0.3515         0.3793       -59.5067      -16.59026      0.1417497
      4267.5000         0.3878         0.3508         0.3764       -59.7469       -16.8315      0.1275585
      4268.0000         0.3817         0.3477         0.3735       -59.9872      -17.07285      0.1133616
      4268.5000         0.3807         0.3444         0.3705       -60.2275       -17.3142     0.09916463
      4269.0000         0.3797          0.341         0.3676       -60.4679      -17.55565     0.08496183
      4269.5000         0.3788         0.3377         0.3647       -60.5883      -17.67709     0.07781803
      4270.0000         0.3778         0.3343         0.3618       -60.6781      -17.76794     0.07247386
      4270.5000         0.3768          0.331         0.3588       -60.5402      -17.63109     0.08052422
      4271.0000         0.3774         0.3276         0.3575       -59.6637      -16.75564      0.1320213
      4271.5000         0.3781         0.3264         0.3564       -59.3396      -16.43258      0.1510245
      4272.0000         0.3787         0.3261         0.3554       -59.0154      -16.10943      0.1700334
      4272.5000         0.3768         0.3258         0.3543       -58.6913      -15.78638      0.1890367
      4273.0000         0.3733         0.3255         0.3533       -58.3672      -15.46333      0.2080397
      4273.5000         0.3698         0.3252         0.3522       -58.3387      -15.43587      0.2096546
      4274.0000         0.3699         0.3249         0.3512       -58.4733      -15.57152      0.2016752
      4274.5000         0.3704         0.3277         0.3508        -58.608      -15.70727      0.1936901
      4275.0000         0.3719         0.3334         0.3518       -58.9332      -16.03352      0.1744991
      4275.5000         0.3805         0.3391         0.3529       -59.7144      -16.81576      0.1284846
      4276.0000         0.3892         0.3449         0.3539       -60.4224      -17.52481     0.08677584
      4276.5000         0.3979         0.3506         0.3549       -60.7341      -17.83755     0.06837912
      4277.0000         0.4126         0.3563         0.3559       -61.0458       -18.1503     0.04998218
      4277.5000         0.4334          0.364         0.3569       -60.8229      -17.92845     0.06303226
      4278.0000         0.4538         0.3736         0.3592       -60.4661       -17.5727     0.08395902
      4278.5000         0.4694         0.3832         0.3624       -60.1093      -17.21695      0.1048855
      4279.0000         0.4785         0.3928         0.3655       -59.7688      -16.87749      0.1248535
      4279.5000         0.4801         0.4005         0.3686       -59.4385      -16.54824      0.1442211
      4280.0000         0.4708         0.4061         0.3717       -59.1085      -16.21929      0.1635713
      4280.5000         0.4587         0.4116         0.3748       -58.7781      -15.88993       0.182945
      4281.0000         0.4392         0.4171         0.3745       -58.4481      -15.56098      0.2022952
      4281.5000         0.4197         0.4226         0.3738       -58.1785      -15.29243      0.2180923
      4282.0000         0.4026         0.4281         0.3731       -58.1029      -15.21788      0.2224779
      4282.5000          0.393         0.4286         0.3724       -58.0273      -15.14333      0.2268632
      4283.0000         0.3835         0.4283         0.3716       -57.9517      -15.06877       0.231249
      4283.5000         0.3751          0.428         0.3708       -57.9012      -15.01932      0.2341578
      4284.0000          0.369         0.4277          0.369       -57.8629      -14.98206      0.2363492
      4284.5000         0.3629         0.4274         0.3673       -57.8245      -14.94471      0.2385463
      4285.0000          0.358         0.4271         0.3656       -57.7861      -14.90736      0.2407438
      4285.5000         0.3572         0.4254         0.3638       -57.7477      -14.87001      0.2429408
      4286.0000         0.3565         0.4222         0.3621       -57.7813      -14.90466      0.2409026
      4286.5000         0.3553         0.4189         0.3604       -57.8416        -14.966      0.2372941
      4287.0000         0.3533         0.4156         0.3586       -57.9018      -15.02725      0.2336913
      4287.5000         0.3512         0.4124         0.3569        -57.962       -15.0885      0.2300884
