#------------------------------------------------------------------------------
# Created by    : vladimir.rabinovich
# Created on    : 09/19/2023 17:20:50
#------------------------------------------------------------------------------
~Version Information Section
VERS.           2.0     :   CWLS log ASCII Standard - VERSION 2.0
WRAP.           NO      :   One line per depth step
~Well Information Section
#MNEM       .UNIT                                         VALUE :DESCRIPTION
#------------------------------------------------------------------------------
STRT        .FT                                            2540 :START DEPTH
STOP        .FT                                            8943 :STOP DEPTH
STEP        .FT                                             0.5 :STEP      
NULL        .                                           -999.25 :NULL      
COMP        .                                 MECOM ENERGY CORP :COMPANY   
WELL        .                                          SL 00783 :WELL      
FLD         .                                           WILDCAT :FIELD     
LOC         .                                                   :LOCATION  
CNTY        .                                       SABINE PASS :LOCATION  
STAT        .                                         LOUISIANA :STATE     
CTRY        .                                     UNITED STATES :COUNTRY   
SRVC        .                                                   :SERVICE COMPANY
DATE        .                             9/13/2023 11:18:59 AM :LOG DATE  
API         .                                    17731000010000 :API NUMBER
UWI         .                                    17731000010000 :UNIQUE WELL ID
XCOORD      .                                  1377176.19909999 :SURFACE X 
YCOORD      .                                  10775304.6885056 :SURFACE Y 
LAT         .                                         29.687969 :LATITUDE  
LON         .                                        -93.829297 :LONGITUDE 
ELEV        .FT                                              11 :ELEVATION VALUE
ELEV_TYPE   .                                                KB :ELEVATION REFERENCE TYPE
~Curve Information Section
#MNEM       .UNIT                                      API CODE :CURVE DESCRIPTION
#------------------------------------------------------------------------------
DEPT        .FT                                                 :DEPTH     
ASN         .OHMM                                               :          
LAT         .OHMM                                               :          
LN          .OHMM                                               :          
SP          .MV                                                 :          
SP_NORM     .MV                                                 :SP Normalized
VSH_SP      .V/V                                                :Volume of Shale from SP
~A        DEPTH            ASN            LAT             LN             SP        SP_NORM         VSH_SP
# ...
      7214.0000         0.2914         0.3661         0.3812       -64.5665      -24.42643     0.06556559
      7214.5000         0.2856          0.347         0.3762       -64.3461      -24.20501     0.07479127
      7215.0000         0.2805         0.3384         0.3757       -64.1259      -23.98379     0.08400869
      7215.5000         0.2789         0.3299         0.3752       -63.9053      -23.76217      0.0932428
      7216.0000         0.2835         0.3214         0.3747       -63.1795      -23.03535      0.1235269
      7216.5000         0.2881         0.3338         0.3742       -62.2637      -22.11853      0.1617277
      7217.0000         0.3061          0.356         0.3737       -61.3489      -21.20272      0.1998868
      7217.5000         0.3319         0.3781         0.3732        -60.433       -20.2858      0.2380918
      7218.0000         0.3749         0.4002         0.3727       -59.5172      -19.36898      0.2762927
      7218.5000         0.4223         0.4223         0.3739       -58.0645      -17.91526      0.3368643
      7219.0000         0.4592         0.4506          0.379        -56.438      -16.28774      0.4046775
      7219.5000         0.4837         0.4925         0.3841       -54.8116      -14.66032      0.4724866
      7220.0000         0.5239         0.5344         0.3893       -53.4919       -13.3396      0.5275165
      7220.5000         0.5818         0.5757         0.3944       -52.3742      -12.22088      0.5741299
      7221.0000         0.6059         0.6166         0.3995       -51.2553      -11.10096      0.6207932
      7221.5000         0.5747         0.6604         0.4047       -50.2029      -10.04755      0.6646855
      7222.0000          0.552         0.7062         0.4098       -49.1732      -9.016827      0.7076322
      7222.5000         0.5393         0.7445         0.4155        -48.105      -7.947609       0.752183
      7223.0000          0.531         0.7703         0.4217       -47.9494      -7.790993      0.7587087
      7223.5000         0.5241         0.7956         0.4279       -48.8822      -8.722771      0.7198846
      7224.0000         0.5298         0.8149         0.4341       -49.8161      -9.655651      0.6810145
      7224.5000         0.5362         0.8343         0.4403       -49.6029      -9.441433      0.6899403
      7225.0000         0.5391         0.8468         0.4465       -49.2234      -9.060913      0.7057953
      7225.5000         0.5294         0.8538         0.4527        -48.854      -8.690495      0.7212294
      7226.0000         0.5153         0.8378         0.4588       -49.0147      -8.850178      0.7145759
      7226.5000         0.5125         0.8217         0.4648       -49.4022      -9.236656      0.6984727
      7227.0000          0.525         0.7985         0.4708       -49.3587      -9.192139      0.7003276
      7227.5000         0.5374         0.7652         0.4768       -48.9369      -8.769321      0.7179449
      7228.0000         0.5509         0.7319         0.4823       -49.4196      -9.251003      0.6978748
      7228.5000         0.5674         0.7082         0.4805       -49.9018      -9.732182      0.6778257
      7229.0000          0.584         0.6849         0.4786       -50.7489      -10.57827      0.6425722
      7229.5000         0.6022         0.6616         0.4767       -51.6523      -11.48065       0.604973
      7230.0000         0.6167         0.6404         0.4749       -51.4719      -11.29923      0.6125321
      7230.5000         0.6248          0.624         0.4722       -51.0038       -10.8301      0.6320789
      7231.0000          0.626         0.6076         0.4675       -50.5352      -10.36049      0.6516464
      7231.5000         0.6203         0.5912         0.4627       -50.0591      -9.883369      0.6715263
      7232.0000         0.6085         0.5838         0.4579       -49.4935       -9.31675      0.6951354
      7232.5000         0.5957         0.5775         0.4534       -48.9279       -8.75013      0.7187446
      7233.0000         0.5777         0.5712         0.4539       -48.3616      -8.182812      0.7423828
      7233.5000         0.5823          0.565         0.4543        -47.796      -7.616196      0.7659919
      7234.0000         0.5879         0.5589         0.4547       -47.3147      -7.133877      0.7860885
      7234.5000         0.5958         0.5542         0.4555        -47.117      -6.935158      0.7943684
      7235.0000         0.6037         0.5496         0.4608       -46.9194      -6.736538      0.8026443
      7235.5000         0.6115         0.5449         0.4662       -47.5276      -7.343719       0.777345
      7236.0000         0.6115         0.5402         0.4716       -48.5438      -8.358902      0.7350457
      7236.5000         0.5902         0.5356         0.4769       -49.5601      -9.374184      0.6927423
      7237.0000         0.5689         0.5266         0.4823       -50.5775      -10.39056      0.6503933
      7237.5000         0.5473         0.5146          0.492        -52.267      -12.07904        0.58004
      7238.0000         0.5257         0.5025         0.5021       -53.6904      -13.50142      0.5207741
      7238.5000         0.4916         0.4905         0.5122       -54.5837       -14.3937      0.4835957
      7239.0000         0.4629         0.4784         0.5222       -53.5021      -13.31109      0.5287046
      7239.5000         0.4929         0.4632         0.5405       -52.2512      -12.05917      0.5808679
      7240.0000         0.5366          0.448         0.5611       -50.4443      -10.25125      0.6561978
      7240.5000         0.5616         0.4327         0.5868       -48.0002      -7.806129      0.7580779
      7241.0000         0.5716         0.4169         0.6193       -49.2713      -9.076214      0.7051578
      7241.5000         0.5717         0.4008         0.6414       -50.5425      -10.34639      0.6522336
      7242.0000         0.5442         0.3844         0.6529       -52.0076      -11.81047      0.5912302
      7242.5000         0.4963          0.367         0.6522       -53.5438      -13.34566      0.5272643
      7243.0000         0.4801         0.4478         0.6406         -55.08      -14.88084      0.4632985
      7243.5000         0.4639         0.4562         0.6283       -56.6478      -16.44762       0.398016
      7244.0000         0.4478         0.4253         0.6108        -58.281       -18.0798      0.3300085
      7244.5000         0.3976         0.3888         0.5933       -60.3248      -20.12258      0.2448926
      7245.0000         0.3725         0.3558         0.5758       -61.4894      -21.28616        0.19641
      7245.5000         0.3626         0.3259         0.5577       -62.1142      -21.90994      0.1704191
      7246.0000         0.3671         0.2991          0.539       -61.9662      -21.76093      0.1766281
      7246.5000         0.3761         0.2724         0.5202       -61.6718       -21.4655      0.1889374
      7247.0000          0.385         0.2661         0.5022       -61.3771      -21.16979      0.2012588
      7247.5000          0.394         0.2959         0.4847       -59.6683      -19.45997      0.2725013
      7248.0000         0.4029         0.3258         0.4672       -57.7915      -17.58215      0.3507438
      7248.5000         0.4268         0.3952         0.4512       -54.6605      -14.45013      0.4812446
      7249.0000         0.4507         0.4695         0.4365       -50.2255      -10.01411      0.6660787
      7249.5000         0.5214         0.5438         0.4218        -45.777       -5.56459      0.8514754
      7250.0000         0.5659          0.615         0.4071       -42.4227       -2.20927      0.9912804
      7250.5000          0.588          0.686         0.3979       -40.6327     -0.4182549              1
      7251.0000         0.5987         0.7756          0.391       -39.7258       0.489666              1
      7251.5000         0.5997         0.8684         0.3842       -38.9208       1.295685              1
