#------------------------------------------------------------------------------
# Created by    : vladimir.rabinovich
# Created on    : 09/19/2023 17:20:50
#------------------------------------------------------------------------------
~Version Information Section
VERS.           2.0     :   CWLS log ASCII Standard - VERSION 2.0
WRAP.           NO      :   One line per depth step
~Well Information Section
#MNEM       .UNIT                                         VALUE :DESCRIPTION
#------------------------------------------------------------------------------
STRT        .FT                                            2540 :START DEPTH
STOP        .FT                                            8943 :STOP DEPTH
STEP        .FT                                             0.5 :STEP      
NULL        .                                           -999.25 :NULL      
COMP        .                                 MECOM ENERGY CORP :COMPANY   
WELL        .                                          SL 00783 :WELL      
FLD         .                                           WILDCAT :FIELD     
LOC         .                                                   :LOCATION  
CNTY        .                                       SABINE PASS :LOCATION  
STAT        .                                         LOUISIANA :STATE     
CTRY        .                                     UNITED STATES :COUNTRY   
SRVC        .                                                   :SERVICE COMPANY
DATE        .                             9/13/2023 11:18:59 AM :LOG DATE  
API         .                                    17731000010000 :API NUMBER
UWI         .                                    17731000010000 :UNIQUE WELL ID
XCOORD      .                                  1377176.19909999 :SURFACE X 
YCOORD      .                                  10775304.6885056 :SURFACE Y 
LAT         .                                         29.687969 :LATITUDE  
LON         .                                        -93.829297 :LONGITUDE 
ELEV        .FT                                              11 :ELEVATION VALUE
ELEV_TYPE   .                                                KB :ELEVATION REFERENCE TYPE
~Curve Information Section
#MNEM       .UNIT                                      API CODE :CURVE DESCRIPTION
#------------------------------------------------------------------------------
DEPT        .FT                                                 :DEPTH     
ASN         .OHMM                                               :          
LAT         .OHMM                                               :          
LN          .OHMM                                               :          
SP          .MV                                                 :          
SP_NORM     .MV                                                 :SP Normalized
VSH_SP      .V/V                                                :Volume of Shale from SP
~A        DEPTH            ASN            LAT             LN             SP        SP_NORM         VSH_SP
# ...
      3376.0000         0.7826         0.9905          0.766        -55.134      -10.35136      0.5087438
      3376.5000         0.7704         0.9669         0.7617       -56.4209      -11.63931      0.4329821
      3377.0000         0.7594         0.9434         0.7574        -57.701      -12.92045      0.3576205
      3377.5000         0.7459         0.9168          0.753        -58.936       -14.1565      0.2849117
      3378.0000         0.7297         0.8875         0.7487       -60.1124      -15.33395      0.2156502
      3378.5000         0.7135         0.8582         0.7443       -61.0447       -16.2673      0.1607473
      3379.0000         0.7124         0.8283         0.7392       -61.8538      -17.07744      0.1130916
      3379.5000         0.7225         0.7783         0.7342       -62.2379      -17.46259     0.09043592
      3380.0000         0.7326         0.7283         0.7292       -61.9098      -17.13554      0.1096743
      3380.5000         0.7427         0.6817         0.7216       -61.5816      -16.80838      0.1289186
      3381.0000         0.7526         0.6423         0.7035       -61.2189      -16.44673      0.1501923
      3381.5000         0.7614         0.6366         0.6854       -60.8181      -16.04698      0.1737072
      3382.0000         0.7664         0.6309         0.6672       -60.4173      -15.64723      0.1972219
      3382.5000         0.7741         0.6251          0.651       -60.0165      -15.24747       0.220737
      3383.0000         0.7833         0.6405         0.6391       -59.6158      -14.84782      0.2442459
      3383.5000         0.7925         0.6605         0.6272       -59.3452      -14.57827       0.260102
      3384.0000         0.7853         0.6804         0.6153       -59.1337      -14.36782      0.2724814
      3384.5000         0.7761         0.7064         0.6063       -58.9221      -14.15726       0.284867
      3385.0000         0.7668         0.7521         0.6097       -58.7104      -13.94661      0.2972583
      3385.5000         0.7529           0.79         0.6131       -58.6542      -13.89146      0.3005025
      3386.0000         0.7377         0.8169         0.6165       -58.6603      -13.89861       0.300082
      3386.5000         0.7286         0.8217         0.6198       -58.6664      -13.90575      0.2996618
      3387.0000         0.7206         0.8214         0.6232       -58.6725       -13.9129      0.2992412
      3387.5000         0.7127         0.8063         0.6277       -58.6786      -13.92004      0.2988209
      3388.0000         0.7045         0.7883         0.6345       -58.7893      -14.03179      0.2922475
      3388.5000         0.6958         0.7704         0.6413       -58.9324      -14.17594      0.2837684
      3389.0000         0.7108         0.7525         0.6481       -59.0755      -14.32009       0.275289
      3389.5000         0.7233         0.7373         0.6549       -59.2186      -14.46424      0.2668096
      3390.0000         0.7179         0.7223         0.6609       -59.3638      -14.61048       0.258207
      3390.5000         0.7125         0.7073         0.6641       -59.6179      -14.86563      0.2431982
      3391.0000         0.7073         0.6923         0.6672       -59.8719      -15.12067      0.2281956
      3391.5000         0.7027         0.6773         0.6704       -60.1259      -15.37572      0.2131927
      3392.0000         0.7014         0.6636         0.6735       -60.3799      -15.63077      0.1981899
      3392.5000         0.7069          0.654         0.6767        -60.634      -15.88592      0.1831813
      3393.0000         0.7121         0.6443         0.6798       -60.8881      -16.14106      0.1681727
      3393.5000         0.7169         0.6346         0.6781       -61.1635      -16.41751      0.1519109
      3394.0000         0.7183          0.625          0.676       -61.4408      -16.69586      0.1355378
      3394.5000         0.7145         0.6153          0.674       -61.7181      -16.97421      0.1191642
      3395.0000         0.7105         0.6057          0.672       -61.9955      -17.25265      0.1027852
      3395.5000         0.7058          0.596         0.6699       -62.2728        -17.531     0.08641165
      3396.0000         0.7011         0.5863         0.6679       -62.6063      -17.86555     0.06673252
      3396.5000         0.7002         0.5767         0.6641       -62.9792      -18.23949     0.04473563
      3397.0000         0.7009          0.567         0.6583       -63.3521      -18.61344     0.02273874
      3397.5000         0.6983         0.5573         0.6525       -63.7275      -18.98989    0.000594644
      3398.0000         0.6946         0.5477         0.6468       -64.1531      -19.41654              0
      3398.5000         0.6909          0.538          0.641       -64.5789      -19.84339              0
      3399.0000         0.6872         0.5311         0.6353       -64.9323      -20.19783              0
      3399.5000         0.6834         0.5309         0.6285       -65.1147      -20.38128              0
      3400.0000         0.6797         0.5307         0.6202       -65.2972      -20.56483              0
      3400.5000          0.676         0.5305         0.6119       -65.4797      -20.74837              0
      3401.0000         0.6701         0.5303         0.6036       -65.3004      -20.57012              0
      3401.5000         0.6636         0.5301         0.5953       -64.9374      -20.20817              0
      3402.0000         0.6546         0.5342          0.587       -64.5747      -19.84652              0
      3402.5000         0.6423         0.5387         0.5798       -64.0527      -19.32556              0
      3403.0000         0.6314         0.5431         0.5761        -63.509      -18.78291     0.01277004
      3403.5000         0.6265         0.5475         0.5725       -62.9654      -18.24036     0.04468492
      3404.0000         0.6393          0.552         0.5689       -62.5347       -17.8107     0.06995863
      3404.5000         0.6502         0.5564         0.5653       -62.1537      -17.43075     0.09230871
      3405.0000         0.6567         0.5608         0.5619       -61.7729        -17.051      0.1146471
      3405.5000         0.6632         0.5725         0.5592       -61.3919      -16.67105      0.1369972
      3406.0000         0.6693         0.5869         0.5565       -61.1105      -16.39069      0.1534886
      3406.5000         0.6749         0.6012         0.5538       -60.8684      -16.14964      0.1676681
      3407.0000         0.6815         0.6121         0.5495       -60.6263      -15.90859      0.1818477
      3407.5000         0.6905         0.6215         0.5418       -60.3842      -15.66754      0.1960272
      3408.0000         0.6981         0.6309          0.534       -60.2742      -15.55858      0.2024363
      3408.5000         0.7013         0.6403         0.5262       -60.2742      -15.55963      0.2023746
      3409.0000         0.7003         0.6433         0.5184       -60.2742      -15.56068      0.2023131
      3409.5000         0.6971         0.6456         0.5106        -60.543      -15.83052      0.1864397
      3410.0000         0.6939          0.648         0.5028       -60.8216      -16.11017      0.1699899
      3410.5000         0.6803         0.6503          0.495       -61.1002      -16.38982        0.15354
      3411.0000         0.6621         0.6526         0.4873       -61.2958      -16.58646      0.1419727
      3411.5000         0.6482         0.6549         0.4795       -61.4357      -16.72741      0.1336816
      3412.0000         0.6356         0.6524         0.4963       -61.5676      -16.86036      0.1258612
      3412.5000         0.6234         0.6495         0.5134       -61.3134      -16.60721      0.1407524
      3413.0000         0.6256         0.6466         0.5305       -61.0644      -16.35925      0.1553381
      3413.5000         0.6374         0.6437         0.5343       -60.9653       -16.2612      0.1611057
