#------------------------------------------------------------------------------
# Created by    : vladimir.rabinovich
# Created on    : 09/19/2023 17:20:50
#------------------------------------------------------------------------------
~Version Information Section
VERS.           2.0     :   CWLS log ASCII Standard - VERSION 2.0
WRAP.           NO      :   One line per depth step
~Well Information Section
#MNEM       .UNIT                                         VALUE :DESCRIPTION
#------------------------------------------------------------------------------
STRT        .FT                                            2540 :START DEPTH
STOP        .FT                                            8943 :STOP DEPTH
STEP        .FT                                             0.5 :STEP      
NULL        .                                           -999.25 :NULL      
COMP        .                                 MECOM ENERGY CORP :COMPANY   
WELL        .                                          SL 00783 :WELL      
FLD         .                                           WILDCAT :FIELD     
LOC         .                                                   :LOCATION  
CNTY        .                                       SABINE PASS :LOCATION  
STAT        .                                         LOUISIANA :STATE     
CTRY        .                                     UNITED STATES :COUNTRY   
SRVC        .                                                   :SERVICE COMPANY
DATE        .                             9/13/2023 11:18:59 AM :LOG DATE  
API         .                                    17731000010000 :API NUMBER
UWI         .                                    17731000010000 :UNIQUE WELL ID
XCOORD      .                                  1377176.19909999 :SURFACE X 
YCOORD      .                                  10775304.6885056 :SURFACE Y 
LAT         .                                         29.687969 :LATITUDE  
LON         .                                        -93.829297 :LONGITUDE 
ELEV        .FT                                              11 :ELEVATION VALUE
ELEV_TYPE   .                                                KB :ELEVATION REFERENCE TYPE
~Curve Information Section
#MNEM       .UNIT                                      API CODE :CURVE DESCRIPTION
#------------------------------------------------------------------------------
DEPT        .FT                                                 :DEPTH     
ASN         .OHMM                                               :          
LAT         .OHMM                                               :          
LN          .OHMM                                               :          
SP          .MV                                                 :          
SP_NORM     .MV                                                 :SP Normalized
VSH_SP      .V/V                                                :Volume of Shale from SP
~A        DEPTH            ASN            LAT             LN             SP        SP_NORM         VSH_SP
# ...
      6796.0000         0.2122         0.2556         0.2944       -62.4312      -23.14287      0.1190472
      6796.5000         0.2089         0.2576         0.2903       -61.9896      -22.70025      0.1374895
      6797.0000         0.2057         0.2598         0.2862        -61.548      -22.25763      0.1559319
      6797.5000         0.2024         0.2673         0.2821       -61.3426      -22.05122      0.1645327
      6798.0000         0.2001          0.275          0.278       -61.4315       -22.1391       0.160871
      6798.5000         0.1993         0.2826         0.2739       -61.5205      -22.22707      0.1572053
      6799.0000         0.1986         0.2903         0.2698       -61.7561      -22.46165      0.1474311
      6799.5000         0.1993          0.298         0.2657       -62.1763      -22.88084      0.1299651
      6800.0000         0.2022         0.3018         0.2618       -62.5964      -23.29992      0.1125034
      6800.5000         0.2023         0.3038         0.2578       -63.0165        -23.719     0.09504175
      6801.0000         0.2006         0.3058         0.2539       -63.4282      -24.12968     0.07792997
      6801.5000         0.1988         0.3078         0.2522       -63.8394      -24.53986     0.06083902
      6802.0000         0.1968         0.3098         0.2517       -64.2505      -24.94995     0.04375219
      6802.5000         0.1948         0.3118         0.2512       -64.4558      -25.15423     0.03524049
      6803.0000         0.1928         0.3122         0.2506       -64.4192       -25.1166     0.03680817
      6803.5000         0.1948         0.3111         0.2479       -64.3826      -25.07899     0.03837554
      6804.0000         0.1982           0.31         0.2451       -64.3479      -25.04327     0.03986375
      6804.5000         0.2017         0.3089         0.2454       -64.3134      -25.00775     0.04134385
      6805.0000         0.2051         0.3077         0.2464       -64.3016      -24.99493     0.04187806
      6805.5000         0.2079         0.3066         0.2473       -64.4146      -25.10691     0.03721221
      6806.0000         0.2106         0.3055         0.2483       -64.5276      -25.21889     0.03254604
      6806.5000         0.2133         0.3044         0.2493       -64.6405      -25.33078     0.02788433
      6807.0000          0.216         0.3025         0.2502       -64.7675      -25.45676     0.02263514
      6807.5000         0.2147            0.3         0.2512       -64.9044      -25.59264     0.01697334
      6808.0000         0.2127         0.2975         0.2522       -65.0415      -25.72871     0.01130358
      6808.5000         0.2107          0.295         0.2531       -65.1786       -25.8648    0.005633513
      6809.0000         0.2087         0.2925         0.2541       -65.3154      -26.00058              0
      6809.5000         0.2073           0.29         0.2551       -65.4161      -26.10026              0
      6810.0000         0.2058         0.2875         0.2561       -65.4937      -26.17684              0
      6810.5000         0.2044          0.285          0.257       -65.5712      -26.25332              0
      6811.0000          0.203         0.2825          0.258       -65.5391       -26.2202              0
      6811.5000         0.2015         0.2811          0.259       -65.1748      -25.85488    0.006046613
      6812.0000         0.2006         0.2818         0.2599       -64.8104      -25.48947     0.02127218
      6812.5000         0.2007         0.2824         0.2609       -64.4456      -25.12365      0.0365146
      6813.0000         0.2008          0.283         0.2619       -63.8884      -24.56543     0.05977376
      6813.5000         0.2009         0.2836         0.2628       -63.2026      -23.87861      0.0883913
      6814.0000          0.201         0.2842         0.2638       -62.5163      -23.19129      0.1170295
      6814.5000         0.2011         0.2848         0.2648       -62.0691      -22.74307      0.1357053
      6815.0000         0.2012         0.2855         0.2658       -61.9755      -22.64845      0.1396478
      6815.5000         0.2014         0.2861         0.2667        -61.882      -22.55394       0.143586
      6816.0000         0.2023         0.2867         0.2677       -62.1982      -22.86912      0.1304534
      6816.5000         0.2031         0.2873         0.2687       -62.5806       -23.2505      0.1145625
      6817.0000         0.2039         0.2879         0.2696       -62.9635      -23.63238     0.09865093
      6817.5000         0.2047         0.2886         0.2706       -63.3464      -24.01426      0.0827392
      6818.0000         0.2056         0.2892         0.2716       -63.4791      -24.14594     0.07725254
      6818.5000         0.2064         0.2898         0.2726       -63.4541      -24.11992     0.07833656
      6819.0000         0.2073         0.2904         0.2735       -63.4291       -24.0939     0.07942072
      6819.5000         0.2083         0.2911         0.2745       -63.4041      -24.06788     0.08050489
      6820.0000         0.2094         0.2917         0.2756       -63.2658      -23.92857     0.08630975
      6820.5000         0.2104         0.2923         0.2771       -62.8474      -23.50915      0.1037855
      6821.0000         0.2115         0.2929         0.2787       -62.4289      -23.08963      0.1212654
      6821.5000         0.2125         0.2909         0.2803        -62.011      -22.67071      0.1387203
      6822.0000         0.2135         0.2877         0.2819       -61.5925      -22.25119      0.1562004
      6822.5000         0.2146         0.2844         0.2834       -61.3726      -22.03027      0.1654053
      6823.0000         0.2156         0.2811          0.285       -61.1783      -21.83495      0.1735436
      6823.5000         0.2167         0.2779         0.2866       -60.9843      -21.63993      0.1816695
      6824.0000         0.2177         0.2746         0.2882       -60.9753      -21.62991      0.1820869
      6824.5000         0.2188         0.2754         0.2897       -61.2581      -21.91169      0.1703461
      6825.0000         0.2198         0.2804         0.2913        -61.541      -22.19358       0.158601
      6825.5000         0.2215         0.2854         0.2929       -61.8238      -22.47536      0.1468601
      6826.0000         0.2234         0.2904         0.2945       -62.1593      -22.80984      0.1329233
      6826.5000         0.2252         0.2953          0.296       -62.7492      -23.39872      0.1083867
      6827.0000         0.2271         0.3003         0.2976       -63.3391       -23.9876     0.08384991
      6827.5000          0.229         0.3036         0.2992       -63.9285      -24.57598     0.05933396
      6828.0000         0.2308         0.3038         0.3008       -64.4758      -25.12226      0.0365723
      6828.5000         0.2318         0.3041         0.3023       -64.4266      -25.07204     0.03866482
      6829.0000         0.2327         0.3041         0.3039       -64.3776      -25.02203     0.04074876
      6829.5000         0.2337         0.3032         0.3055       -64.3284      -24.97181     0.04284143
      6830.0000         0.2346         0.3022         0.3071       -64.2792      -24.92159     0.04493396
      6830.5000         0.2356         0.3012         0.3086         -64.23      -24.87137     0.04702616
      6831.0000         0.2354         0.3002         0.3102       -64.0618      -24.70215     0.05407715
      6831.5000          0.235         0.2992         0.3118        -63.858      -24.49733      0.0626111
      6832.0000         0.2345         0.2982         0.3134       -63.6538      -24.29211      0.0711619
      6832.5000         0.2341         0.2972         0.3149         -63.45       -24.0873     0.07969602
      6833.0000         0.2337         0.2963         0.3165       -63.2458      -23.88208     0.08824682
      6833.5000          0.233         0.2952         0.3181       -63.0419      -23.67716     0.09678507
