#------------------------------------------------------------------------------
# Created by    : vladimir.rabinovich
# Created on    : 09/19/2023 17:20:50
#------------------------------------------------------------------------------
~Version Information Section
VERS.           2.0     :   CWLS log ASCII Standard - VERSION 2.0
WRAP.           NO      :   One line per depth step
~Well Information Section
#MNEM       .UNIT                                         VALUE :DESCRIPTION
#------------------------------------------------------------------------------
STRT        .FT                                            2540 :START DEPTH
STOP        .FT                                            8943 :STOP DEPTH
STEP        .FT                                             0.5 :STEP      
NULL        .                                           -999.25 :NULL      
COMP        .                                 MECOM ENERGY CORP :COMPANY   
WELL        .                                          SL 00783 :WELL      
FLD         .                                           WILDCAT :FIELD     
LOC         .                                                   :LOCATION  
CNTY        .                                       SABINE PASS :LOCATION  
STAT        .                                         LOUISIANA :STATE     
CTRY        .                                     UNITED STATES :COUNTRY   
SRVC        .                                                   :SERVICE COMPANY
DATE        .                             9/13/2023 11:18:59 AM :LOG DATE  
API         .                                    17731000010000 :API NUMBER
UWI         .                                    17731000010000 :UNIQUE WELL ID
XCOORD      .                                  1377176.19909999 :SURFACE X 
YCOORD      .                                  10775304.6885056 :SURFACE Y 
LAT         .                                         29.687969 :LATITUDE  
LON         .                                        -93.829297 :LONGITUDE 
ELEV        .FT                                              11 :ELEVATION VALUE
ELEV_TYPE   .                                                KB :ELEVATION REFERENCE TYPE
~Curve Information Section
#MNEM       .UNIT                                      API CODE :CURVE DESCRIPTION
#------------------------------------------------------------------------------
DEPT        .FT                                                 :DEPTH     
ASN         .OHMM                                               :          
LAT         .OHMM                                               :          
LN          .OHMM                                               :          
SP          .MV                                                 :          
SP_NORM     .MV                                                 :SP Normalized
VSH_SP      .V/V                                                :Volume of Shale from SP
~A        DEPTH            ASN            LAT             LN             SP        SP_NORM         VSH_SP
# ...
      7632.0000         0.6452         0.7284         0.5013        -45.547        -4.5508      0.8937166
      7632.5000         0.6312         0.6995         0.4968       -47.2162      -6.218975      0.8242094
      7633.0000         0.6172         0.6668         0.4922       -48.8878      -7.889542      0.7546024
      7633.5000         0.6032         0.6342         0.4876       -51.0917      -10.09242      0.6628159
      7634.0000         0.5659         0.6016          0.483       -53.7175      -12.71719      0.5534504
      7634.5000         0.4966         0.5693         0.4784       -57.1509      -16.14957      0.4104347
      7635.0000         0.4703          0.539         0.4739       -59.7405      -18.73814      0.3025775
      7635.5000         0.4438         0.5087         0.4705       -61.3489      -20.34551      0.2356036
      7636.0000         0.4133         0.4785         0.4709       -62.0865      -21.08208      0.2049133
      7636.5000          0.397         0.4482         0.4714       -62.7351      -21.72966       0.177931
      7637.0000         0.3826          0.418         0.4718       -63.1666      -22.16013      0.1599946
      7637.5000          0.374         0.3877         0.4722        -62.976      -21.96851      0.1679789
      7638.0000         0.3859         0.3574         0.4726       -62.7856      -21.77708      0.1759551
      7638.5000         0.3993         0.3272          0.473        -62.595      -21.58545      0.1839396
      7639.0000         0.4128         0.2969         0.4735       -62.5386      -21.52802      0.1863324
      7639.5000         0.4196         0.2666         0.4739       -62.7577       -21.7461      0.1772459
      7640.0000         0.4262         0.2639         0.4743       -62.9765      -21.96387       0.168172
      7640.5000         0.4373         0.2962          0.476       -63.0024      -21.98874      0.1671357
      7641.0000         0.4584         0.3285         0.4828       -61.7415      -20.72681      0.2197161
      7641.5000         0.4796         0.3607         0.4897       -60.4241      -19.40839      0.2746506
      7642.0000         0.4976          0.393         0.4965       -58.2855      -17.26876      0.3638016
      7642.5000         0.5155         0.4241         0.5034       -56.0861      -15.06834       0.455486
      7643.0000          0.533         0.4515         0.5104       -52.8919      -11.87311      0.5886205
      7643.5000           0.55         0.4788         0.5192       -51.0988      -10.07898      0.6633759
      7644.0000         0.5685         0.5062         0.5279       -51.3921      -10.37125      0.6511977
      7644.5000         0.6033         0.5203         0.5367       -52.5716      -11.54973      0.6020947
      7645.0000         0.5854         0.5109         0.5454       -53.8506       -12.8277      0.5488458
      7645.5000         0.5642         0.5015         0.5542       -55.1319      -14.10798       0.495501
      7646.0000         0.5531         0.5049         0.5629       -55.8781      -14.85315      0.4644523
      7646.5000         0.5419         0.5126         0.5717       -56.4515      -15.42552      0.4406034
      7647.0000         0.5309         0.5203         0.5768       -57.0251      -15.99809      0.4167461
      7647.5000         0.5202          0.528         0.5802       -57.5986      -16.57056      0.3928932
      7648.0000         0.5096         0.5357         0.5835       -57.3144      -16.28534      0.4047775
      7648.5000         0.5111         0.5434         0.5869       -56.9371      -15.90701      0.4205413
      7649.0000         0.5249         0.5511         0.5902       -56.3906      -15.35948      0.4433549
      7649.5000         0.5386         0.5588         0.5935       -55.0349      -14.00276      0.4998851
      7650.0000         0.5523         0.5666         0.5969       -53.6792      -12.64603      0.5564154
      7650.5000         0.5661         0.5743         0.6014       -52.3257       -11.2915       0.612854
      7651.0000         0.5798          0.582         0.6109       -51.1763      -10.14108      0.6607884
      7651.5000         0.5937         0.5897         0.6203       -50.3068       -9.27055      0.6970604
      7652.0000         0.6127         0.5974         0.6297        -49.436      -8.398724      0.7333865
      7652.5000         0.6253         0.6084         0.6391       -48.5652      -7.526897      0.7697126
      7653.0000         0.6291          0.643         0.6485       -47.8896      -6.850269      0.7979054
      7653.5000         0.6294         0.6776         0.6571       -47.4926      -6.452244      0.8144898
      7654.0000         0.6291         0.7122         0.6648       -47.0956      -6.054214      0.8310744
      7654.5000         0.6379         0.7199         0.6726       -46.6985       -5.65609      0.8476629
      7655.0000         0.6476          0.723         0.6803       -46.1279      -5.084461      0.8714808
      7655.5000         0.6558         0.7205          0.688       -45.4872      -4.442738      0.8982193
      7656.0000         0.6597         0.7029         0.6958       -44.8477      -3.802208       0.924908
      7656.5000         0.6641         0.6853         0.7037        -44.207       -3.16048      0.9516466
      7657.0000         0.6872         0.6677         0.7134       -43.5675      -2.519955      0.9783352
      7657.5000          0.716         0.6501         0.7232       -43.0148      -1.966228              1
      7658.0000         0.7405         0.6301         0.7329       -42.5005      -1.450901              1
      7658.5000         0.7576         0.6096         0.7427       -41.9856     -0.9349747              1
      7659.0000         0.7571          0.589         0.7524       -41.4707     -0.4190445              1
      7659.5000         0.7544         0.5685         0.7626       -41.0342     0.01848221              1
      7660.0000         0.7557          0.548         0.7731       -40.7015      0.3522072              1
      7660.5000          0.767         0.5275         0.7837       -40.3688      0.6859322              1
      7661.0000         0.7825         0.5164         0.7942       -40.0891      0.9666595              1
      7661.5000         0.7896         0.5089         0.8047       -40.2432       0.813591              1
      7662.0000         0.7877         0.5014         0.8036       -40.3972       0.660614              1
      7662.5000         0.7858          0.494         0.8014       -40.5513      0.5075417              1
      7663.0000         0.7952         0.4953         0.7992       -40.5978      0.4620667              1
      7663.5000         0.7883         0.5051          0.797       -40.5453      0.5155945              1
      7664.0000         0.7812         0.5149         0.7842       -40.4929      0.5690193              1
      7664.5000         0.7736         0.5248         0.7682       -40.4403      0.6226501              1
      7665.0000         0.7625         0.5346         0.7522       -40.3878       0.676178              1
      7665.5000         0.7514         0.5504         0.7362       -40.3353       0.729702              1
      7666.0000         0.7479         0.5705         0.7174       -40.2952      0.7708282              1
      7666.5000         0.7745         0.5907         0.6963       -40.3057      0.7613564              1
      7667.0000         0.8021         0.6108         0.6752       -40.3162      0.7518845              1
      7667.5000         0.8187          0.631         0.6541       -40.3267      0.7424126              1
      7668.0000         0.8147         0.6512         0.6332        -40.362      0.7081375              1
      7668.5000         0.7804         0.6713          0.613       -41.0342     0.03696442              1
      7669.0000         0.7402         0.6915         0.5928       -41.7065     -0.6343117              1
      7669.5000         0.7001         0.7116         0.5725       -43.2641       -2.19088      0.9920467
