#------------------------------------------------------------------------------
# Created by    : vladimir.rabinovich
# Created on    : 09/19/2023 17:20:50
#------------------------------------------------------------------------------
~Version Information Section
VERS.           2.0     :   CWLS log ASCII Standard - VERSION 2.0
WRAP.           NO      :   One line per depth step
~Well Information Section
#MNEM       .UNIT                                         VALUE :DESCRIPTION
#------------------------------------------------------------------------------
STRT        .FT                                            2540 :START DEPTH
STOP        .FT                                            8943 :STOP DEPTH
STEP        .FT                                             0.5 :STEP      
NULL        .                                           -999.25 :NULL      
COMP        .                                 MECOM ENERGY CORP :COMPANY   
WELL        .                                          SL 00783 :WELL      
FLD         .                                           WILDCAT :FIELD     
LOC         .                                                   :LOCATION  
CNTY        .                                       SABINE PASS :LOCATION  
STAT        .                                         LOUISIANA :STATE     
CTRY        .                                     UNITED STATES :COUNTRY   
SRVC        .                                                   :SERVICE COMPANY
DATE        .                             9/13/2023 11:18:59 AM :LOG DATE  
API         .                                    17731000010000 :API NUMBER
UWI         .                                    17731000010000 :UNIQUE WELL ID
XCOORD      .                                  1377176.19909999 :SURFACE X 
YCOORD      .                                  10775304.6885056 :SURFACE Y 
LAT         .                                         29.687969 :LATITUDE  
LON         .                                        -93.829297 :LONGITUDE 
ELEV        .FT                                              11 :ELEVATION VALUE
ELEV_TYPE   .                                                KB :ELEVATION REFERENCE TYPE
~Curve Information Section
#MNEM       .UNIT                                      API CODE :CURVE DESCRIPTION
#------------------------------------------------------------------------------
DEPT        .FT                                                 :DEPTH     
ASN         .OHMM                                               :          
LAT         .OHMM                                               :          
LN          .OHMM                                               :          
SP          .MV                                                 :          
SP_NORM     .MV                                                 :SP Normalized
VSH_SP      .V/V                                                :Volume of Shale from SP
~A        DEPTH            ASN            LAT             LN             SP        SP_NORM         VSH_SP
# ...
      3832.0000         0.4256         0.4179         0.5218       -57.8509      -14.02335      0.2927441
      3832.5000         0.4301         0.4134         0.5336       -57.4761       -13.6496      0.3147296
      3833.0000         0.4347         0.4096         0.5455        -57.079      -13.25354      0.3380268
      3833.5000         0.4393         0.4061         0.5565       -56.6819      -12.85749      0.3613239
      3834.0000         0.4441         0.4026         0.5658        -56.285      -12.46164      0.3846095
      3834.5000         0.4532         0.3991         0.5752       -55.5624      -11.74009      0.4270536
      3835.0000         0.4623         0.3956         0.5845       -54.8201      -10.99883      0.4706569
      3835.5000         0.4715         0.3947         0.5939       -54.0777      -10.25748      0.5142656
      3836.0000         0.4833         0.4053         0.6032       -53.1916      -9.372429      0.5663277
      3836.5000         0.4997         0.4159         0.6126       -52.1905      -8.372375      0.6251544
      3837.0000          0.516         0.4265         0.6248       -51.1895      -7.372421      0.6839752
      3837.5000         0.5401         0.4372         0.6439       -50.1303       -6.31427      0.7462194
      3838.0000         0.5652         0.4554         0.6629       -49.0531      -5.238117      0.8095225
      3838.5000         0.5945         0.4753         0.6819        -48.049      -4.235065      0.8685256
      3839.0000         0.6187         0.4953         0.7031       -47.4475      -3.634609      0.9038465
      3839.5000         0.6364         0.5152         0.7301       -46.8461       -3.03426      0.9391612
      3840.0000         0.6541         0.5332         0.7572       -46.3049      -2.494106      0.9709349
      3840.5000         0.6729         0.5512         0.7842        -46.053      -2.243256      0.9856908
      3841.0000          0.692         0.5693         0.8037        -45.897      -2.088299      0.9948059
      3841.5000         0.7083          0.572         0.8187       -46.1371      -2.329449      0.9806207
      3842.0000          0.723         0.5718         0.8336       -46.3772      -2.570599      0.9664354
      3842.5000         0.7369         0.5716         0.8486       -46.6293      -2.823742      0.9515446
      3843.0000          0.746         0.5714         0.8635       -46.8958      -3.091293      0.9358063
      3843.5000         0.7552         0.5713         0.8667       -47.1623      -3.358837      0.9200684
      3844.0000         0.7645         0.5721         0.8699       -47.4289      -3.626488      0.9043242
      3844.5000         0.7739         0.5728         0.8731       -47.5875      -3.786133      0.8949333
      3845.0000         0.7832         0.5736         0.8603       -47.5301      -3.729782      0.8982481
      3845.5000         0.7889         0.5744         0.8375       -47.4727      -3.673424      0.9015633
      3846.0000         0.7946         0.5751         0.8154       -47.4153      -3.617073      0.9048781
      3846.5000         0.7927         0.5759         0.8055       -47.0129      -3.215721       0.928487
      3847.0000         0.7862         0.5767         0.7956       -46.5163      -2.720169      0.9576371
      3847.5000         0.7734         0.5855         0.7857         -46.02      -2.224915      0.9867697
      3848.0000         0.7606         0.5995         0.7759       -45.3312      -1.537163              1
      3848.5000         0.7472         0.6136          0.766       -44.5206     -0.7276077              1
      3849.0000         0.7338         0.6276         0.7634       -43.8484    -0.05645752              1
      3849.5000         0.7205         0.6416         0.7682       -43.6693      0.1215935              1
      3850.0000         0.7072         0.6541          0.773       -43.7482     0.04164886              1
      3850.5000         0.6964         0.6617         0.7778       -43.9725     -0.1837006              1
      3851.0000         0.7076         0.6694         0.7826       -44.1968     -0.4090462              1
      3851.5000         0.7188         0.6771         0.7874       -44.4211     -0.6343956              1
      3852.0000         0.7314         0.6834         0.7921       -44.5891     -0.8034401              1
      3852.5000         0.7493         0.6753         0.7969       -44.7349     -0.9502907              1
      3853.0000         0.7672         0.6671         0.8151       -44.8807      -1.097134              1
      3853.5000         0.7851          0.659         0.8348       -45.0264      -1.243885              1
      3854.0000         0.8024         0.6509         0.8545       -45.1723      -1.390827              1
      3854.5000         0.8196         0.6428         0.8742       -45.3181      -1.537678              1
      3855.0000          0.836          0.634         0.8988       -45.3348      -1.555424              1
      3855.5000         0.8486         0.6248         0.9371       -45.2747      -1.496372              1
      3856.0000         0.8611         0.6157         0.9754       -45.2147      -1.437416              1
      3856.5000         0.8751         0.6065         1.0128       -45.1546      -1.378365              1
      3857.0000         0.8901         0.5973         1.0476       -45.0788      -1.303612              1
      3857.5000         0.8812         0.5881         1.0823       -44.8542      -1.080059              1
      3858.0000         0.8724         0.5798         1.1127       -44.6294      -0.856308              1
      3858.5000          0.857         0.5778         1.1221       -44.4048     -0.6327553              1
      3859.0000         0.8388         0.5759         1.1316       -44.1802     -0.4092026              1
      3859.5000         0.8245          0.574          1.141       -43.9609     -0.1909485              1
      3860.0000         0.8156          0.572         1.1504       -43.7515     0.01740265              1
      3860.5000         0.8068         0.5701         1.1598       -43.5419       0.225956              1
      3861.0000         0.8034         0.5682         1.1629       -43.3325      0.4343071              1
      3861.5000         0.8025         0.5698         1.1639        -43.123      0.6427612              1
      3862.0000         0.8017         0.5723         1.1649       -42.9182      0.8465118              1
      3862.5000         0.8018         0.5749          1.166       -42.7164       1.047268              1
      3863.0000         0.8041         0.5774          1.167       -42.5145       1.248119              1
      3863.5000         0.8065         0.5799          1.168       -42.3621       1.399475              1
      3864.0000         0.8089         0.5884          1.169       -42.2694       1.491123              1
      3864.5000         0.8113         0.6036         1.1714       -42.1766       1.582878              1
      3865.0000         0.8142         0.6188          1.174        -42.084       1.674431              1
      3865.5000         0.8231         0.6339         1.1767       -42.0137       1.743687              1
      3866.0000          0.832         0.6592         1.1794       -41.9527       1.803635              1
      3866.5000         0.8419         0.6889         1.1821       -41.8917       1.863586              1
      3867.0000         0.8548         0.7186         1.1827       -41.8913       1.862942              1
      3867.5000         0.8676         0.7483         1.1801       -41.9999       1.753292              1
      3868.0000         0.8879         0.7853         1.1775       -42.1084       1.643749              1
      3868.5000         0.9228         0.8257         1.1748       -42.3488       1.402298              1
      3869.0000         0.9512         0.8661         1.1722       -42.6749       1.075153              1
      3869.5000         0.9774         0.9101         1.1696       -43.0007      0.7483025              1
