#------------------------------------------------------------------------------
# Created by    : vladimir.rabinovich
# Created on    : 09/19/2023 17:20:49
#------------------------------------------------------------------------------
~Version Information Section
VERS.           2.0     :   CWLS log ASCII Standard - VERSION 2.0
WRAP.           NO      :   One line per depth step
~Well Information Section
#MNEM       .UNIT                                         VALUE :DESCRIPTION
#------------------------------------------------------------------------------
STRT        .FT                                            1700 :START DEPTH
STOP        .FT                                         12339.5 :STOP DEPTH
STEP        .FT                                             0.5 :STEP      
NULL        .                                           -999.25 :NULL      
COMP        .                            CONQUEST PETROLEUM INC :COMPANY   
WELL        .                                          ST TR 20 :WELL      
FLD         .                                   ALLIGATOR POINT :FIELD     
LOC         .                                                   :LOCATION  
CNTY        .                                          BRAZORIA :LOCATION  
STAT        .                                             TEXAS :STATE     
CTRY        .                                     UNITED STATES :COUNTRY   
SRVC        .                                                   :SERVICE COMPANY
DATE        .                             9/13/2023 11:18:59 AM :LOG DATE  
API         .                                    42039319440000 :API NUMBER
UWI         .                                    42039319440000 :UNIQUE WELL ID
XCOORD      .                                   960684.54934625 :SURFACE X 
YCOORD      .                                  10591984.7936865 :SURFACE Y 
LAT         .                                        29.1692948 :LATITUDE  
LON         .                                        -95.130314 :LONGITUDE 
ELEV        .FT                                              45 :ELEVATION VALUE
ELEV_TYPE   .                                                KB :ELEVATION REFERENCE TYPE
~Curve Information Section
#MNEM       .UNIT                                      API CODE :CURVE DESCRIPTION
#------------------------------------------------------------------------------
DEPT        .FT                                                 :DEPTH     
ASN         .OHMM                                               :          
CILD        .MMHO                                               :          
ILD         .OHMM                                               :          
SP          .MV                                                 :          
SP_NORM     .MV                                                 :SP Normalized
VSH_SP      .V/V                                                :Volume of Shale from SP
~A        DEPTH            ASN           CILD            ILD             SP        SP_NORM         VSH_SP
# ...
      5234.0000         0.9401       1098.004         0.8985           2.64       4.129448              1
      5234.5000         0.9441       1067.703          0.924           2.24       3.728582              1
      5235.0000          0.952       1037.402         0.9496           1.76       3.247716              1
      5235.5000         0.9659         1007.1         0.9751           1.36       2.846849              1
      5236.0000         0.9798       975.1707         1.0007           0.96       2.445983              1
      5236.5000         0.9997       979.1384         1.0262           0.48       1.965117              1
      5237.0000         1.0479       965.9369         1.0517           0.08       1.564251              1
      5237.5000         1.0791       952.7355         1.0783           -0.4       1.083385              1
      5238.0000         1.1009        939.534         1.0684           -0.8      0.6825184              1
      5238.5000         1.0724       927.5166          1.035          -1.28      0.2016522              1
      5239.0000         1.0439        955.302         1.0017          -1.68      -0.199214              1
      5239.5000         1.0155       1129.958         0.9683          -2.16     -0.6800804              1
      5240.0000          0.987       1133.926         0.9349          -2.56      -1.080946       0.998628
      5240.5000         0.9585       1098.197         0.9016          -3.04      -1.561813      0.9904777
      5241.0000         0.9301       1053.562         0.8682           -3.6      -2.122679      0.9809716
      5241.5000         0.9361       1008.926         0.9912           -3.6      -2.123545      0.9809569
      5242.0000         1.0333       964.2903          1.037          -3.12      -1.644411      0.9890777
      5242.5000         1.1304       919.6546         1.0874          -2.64      -1.165278      0.9971987
      5243.0000         1.2275        875.019         1.1428          -2.16      -0.686144              1
      5243.5000         1.3246       830.3834         1.2043          -1.68       -0.20701              1
      5244.0000          1.476       768.6855         1.3009           -1.2      0.2721237              1
      5244.5000           1.47       776.6229         1.2876           -0.8      0.6712574              1
      5245.0000         1.3793       855.2081         1.1693           -0.8      0.6703913              1
      5245.5000         1.2886       933.7933         1.0709           -0.8       0.669525              1
      5246.0000         1.0056       1012.378         0.9878           -1.2      0.2686588              1
      5246.5000         0.9778       1090.964         0.9166           -1.2      0.2677926              1
      5247.0000          0.958       1169.549          0.855           -1.2      0.2669263              1
      5247.5000         0.9103       1248.134         0.8012          -0.96      0.5060602              1
      5248.0000         0.8825        1399.84         0.7144          -0.56      0.9051939              1
      5248.5000         0.8627       1379.996         0.7246          -0.16       1.304328              1
      5249.0000         0.8627       1341.578         0.7454           0.24       1.703462              1
      5249.5000         0.8916       1303.169         0.7674           0.64       2.102595              1
      5250.0000         0.9205        1264.76         0.7907          -0.24       1.221729              1
      5250.5000         0.9494       1233.095          0.811          -1.12      0.3408628              1
      5251.0000          0.956       1229.123         0.8136          -1.92     -0.4600034              1
      5251.5000         0.9421        1229.12         0.8136           -2.8       -1.34087      0.9942225
      5252.0000         0.9287       1229.115         0.8136           -3.6      -2.141736      0.9806485
      5252.5000         0.9153       1228.068         0.8143          -3.68      -2.222602      0.9792779
      5253.0000         0.9019       1227.021          0.815          -3.68      -2.223468      0.9792632
      5253.5000         0.8885       1225.974         0.8157          -3.68      -2.224335      0.9792486
      5254.0000         0.8751       1225.131         0.8162          -3.68      -2.225201      0.9792339
      5254.5000         0.8666        1221.16         0.8189          -3.68      -2.226067      0.9792192
      5255.0000         0.8785       1221.156         0.8189          -3.84      -2.386933      0.9764926
      5255.5000         0.8904       1221.151         0.8189          -3.84      -2.387799       0.976478
      5256.0000         0.9063       1209.238          0.827          -4.08      -2.628665      0.9723955
      5256.5000         0.9083       1171.465         0.8536          -4.24      -2.789532      0.9696689
      5257.0000         0.9083       1133.692         0.8821          -4.48      -3.030398      0.9655865
      5257.5000         0.9083       1054.406         0.9125          -4.64      -3.191264      0.9628599
      5258.0000         0.9063       1018.674         0.9451          -5.04      -3.592131      0.9560656
      5258.5000         0.9143        998.821           0.98          -5.44      -3.992997      0.9492713
      5259.0000         0.9401       971.0286         1.0177          -5.84      -4.393863      0.9424769
      5259.5000         0.9653       951.1757         1.0584          -6.64      -5.194729      0.9289029
      5260.0000         0.9906       931.3228         1.0924          -7.44      -5.995595      0.9153289
      5260.5000         1.0159       923.3793          1.083          -8.24      -6.796462      0.9017549
      5261.0000         1.0411       970.7105         1.0302          -10.4      -8.957328        0.86513
      5261.5000         1.0664       1046.437         0.9556            -14      -12.55819      0.8040984
      5262.0000          1.083        1125.83         0.8882          -18.8      -17.35906      0.7227278
      5262.5000          1.079       1264.771         0.7907         -21.52      -20.07993      0.6766114
      5263.0000         1.0014       1348.135         0.7418         -22.96      -21.52079        0.65219
      5263.5000         0.9238        1403.71         0.7124         -26.32      -24.88166      0.5952261
      5264.0000         0.8463       1495.014         0.6689         -30.32      -28.88252      0.5274149
      5264.5000         0.7574       1629.986         0.6135         -34.24      -32.80339      0.4609594
      5265.0000         0.6482        2368.23         0.4223         -38.24      -36.80426      0.3931481
      5265.5000         0.6046       3106.473         0.3219         -42.24      -40.80513      0.3253368
      5266.0000         0.5711       3984.121          0.251         -54.16      -52.72599      0.1232883
      5266.5000         0.5376        3996.03         0.2502         -60.08      -58.64686     0.02293461
      5267.0000         0.4994        3996.03         0.2502         -60.32      -58.88772     0.01885217
      5267.5000         0.4875       4919.354         0.2033         -60.32      -58.88859     0.01883749
      5268.0000         0.4745        5014.63         0.1994         -59.92      -58.48945      0.0256025
      5268.5000         0.4597       6237.358         0.1603         -59.12      -57.69032     0.03914713
      5269.0000         0.4597       6241.327         0.1602         -57.92      -56.49118     0.05947145
      5269.5000         0.4597       6197.656         0.1614         -57.12      -55.69205     0.07301608
      5270.0000         0.4656       5720.338         0.1748         -55.52      -54.09292        0.10012
      5270.5000         0.5014       5243.021         0.1907         -53.52      -52.09379      0.1340036
      5271.0000         0.5371       3984.121          0.251         -48.96      -47.53465      0.2112771
      5271.5000         0.5729       3709.907         0.2695         -46.16      -44.73552        0.25872
