#------------------------------------------------------------------------------
# Created by    : vladimir.rabinovich
# Created on    : 09/19/2023 17:20:50
#------------------------------------------------------------------------------
~Version Information Section
VERS.           2.0     :   CWLS log ASCII Standard - VERSION 2.0
WRAP.           NO      :   One line per depth step
~Well Information Section
#MNEM       .UNIT                                         VALUE :DESCRIPTION
#------------------------------------------------------------------------------
STRT        .FT                                            1116 :START DEPTH
STOP        .FT                                            6700 :STOP DEPTH
STEP        .FT                                             0.5 :STEP      
NULL        .                                           -999.25 :NULL      
COMP        .                               BRAZOS OIL & GAS CO :COMPANY   
WELL        .                                    STATE OF TEXAS :WELL      
FLD         .                                   ALLIGATOR POINT :FIELD     
LOC         .                                                   :LOCATION  
CNTY        .                                          BRAZORIA :LOCATION  
STAT        .                                             TEXAS :STATE     
CTRY        .                                     UNITED STATES :COUNTRY   
SRVC        .                                                   :SERVICE COMPANY
DATE        .                             9/13/2023 11:18:59 AM :LOG DATE  
API         .                                    42039045100000 :API NUMBER
UWI         .                                    42039045100000 :UNIQUE WELL ID
XCOORD      .                                  970513.493421445 :SURFACE X 
YCOORD      .                                   10588404.291611 :SURFACE Y 
LAT         .                                        29.1599373 :LATITUDE  
LON         .                                       -95.0993265 :LONGITUDE 
ELEV        .FT                                              22 :ELEVATION VALUE
ELEV_TYPE   .                                                KB :ELEVATION REFERENCE TYPE
~Curve Information Section
#MNEM       .UNIT                                      API CODE :CURVE DESCRIPTION
#------------------------------------------------------------------------------
DEPT        .FT                                                 :DEPTH     
ASN         .OHMM                                               :          
CILD        .MMHO                                               :          
ILD         .OHMM                                               :          
LAT         .OHMM                                               :          
SP          .MV                                                 :          
SP_NORM     .MV                                                 :SP Normalized
VSH_SP      .V/V                                                :Volume of Shale from SP
~A        DEPTH            ASN           CILD            ILD            LAT             SP        SP_NORM         VSH_SP
# ...
      4834.5000         1.2622        -999.25        -999.25         0.5774      -131.2293      -89.73124     0.05605065
      4835.0000         1.2623        -999.25        -999.25         0.5864      -129.0587      -87.56438     0.07910237
      4835.5000          1.257        -999.25        -999.25         0.5954       -126.888      -85.39742      0.1021552
      4836.0000         1.1566        -999.25        -999.25         0.6044      -124.1873      -82.70045      0.1308463
      4836.5000         1.0562        -999.25        -999.25         0.6046      -126.1204      -84.63728      0.1102417
      4837.0000         0.9559        -999.25        -999.25         0.6047        -126.95      -85.47061      0.1013765
      4837.5000         0.8555        -999.25        -999.25         0.6049      -127.8695      -86.39384     0.09155484
      4838.0000         0.7412        -999.25        -999.25         0.6051       -122.328      -80.85609      0.1504672
      4838.5000         0.7061        -999.25        -999.25         0.6141      -116.7865      -75.31831      0.2093796
      4839.0000         0.7061        -999.25        -999.25          0.623       -111.245      -69.78056       0.268292
      4839.5000         0.8364        -999.25        -999.25         0.6232      -105.7035      -64.24278      0.3272044
      4840.0000         0.8961        -999.25        -999.25         0.6322       -101.594      -60.13702      0.3708827
      4840.5000         0.9558        -999.25        -999.25         0.6412      -105.0363      -63.58305      0.3342228
      4841.0000         1.0154        -999.25        -999.25         0.6414      -108.4785      -67.02899      0.2975639
      4841.5000         1.0937        -999.25        -999.25         0.6415      -111.9207      -70.47492      0.2609051
      4842.0000          1.106        -999.25        -999.25         0.6329      -115.3629      -73.92085      0.2242462
      4842.5000         1.1078        -999.25        -999.25         0.5979      -118.8052      -77.36689      0.1875863
      4843.0000          1.031        -999.25        -999.25         0.5716      -122.2474      -80.81282      0.1509274
      4843.5000         0.9542        -999.25        -999.25         0.5454      -125.6896      -84.25876      0.1142685
      4844.0000         0.8773        -999.25        -999.25         0.5192      -129.1319      -87.70479     0.07760864
      4844.5000         0.8333        -999.25        -999.25         0.5017      -132.5741      -91.15073     0.04094972
      4845.0000         0.8016        -999.25        -999.25         0.4931       -135.019      -93.59937     0.01490037
      4845.5000         0.7858        -999.25        -999.25         0.4845      -135.3662      -93.95029     0.01116716
      4846.0000         0.7788        -999.25        -999.25         0.4758       -134.128      -92.71584     0.02429962
      4846.5000         0.7753        -999.25        -999.25          0.574      -127.2486      -85.84016     0.09744506
      4847.0000         0.7718        -999.25        -999.25         0.6723      -117.9253       -76.5206      0.1965894
      4847.5000          0.705        -999.25        -999.25         0.7706      -108.6019      -67.20093      0.2957348
      4848.0000         0.6838        -999.25        -999.25         0.8287       -99.2786      -57.88137       0.394879
      4848.5000         0.6803        -999.25        -999.25         0.8553       -89.9553       -48.5618      0.4940234
      4849.0000         0.6822        -999.25        -999.25         0.8731        -80.632      -39.24224      0.5931677
      4849.5000         0.6857        -999.25        -999.25          0.882        -53.068      -11.68197       0.886362
      4850.0000         0.7051        -999.25        -999.25         0.8646       -53.0653      -11.68301       0.886351
      4850.5000         0.7192        -999.25        -999.25         0.8384       -55.3518      -13.97324      0.8619869
      4851.0000         0.7686        -999.25        -999.25         0.7945        -58.872      -17.49717      0.8244982
      4851.5000         0.7809        -999.25        -999.25         0.7595       -60.6292      -19.25811      0.8057649
      4852.0000         0.8162        -999.25        -999.25         0.7245       -61.8581      -20.49074      0.7926517
      4852.5000          0.855        -999.25        -999.25         0.6894        -63.439      -22.07537      0.7757939
      4853.0000         0.8796        -999.25        -999.25         0.6808       -65.3721      -24.01221      0.7551892
      4853.5000         1.0945        -999.25        -999.25         0.6281       -69.4181      -28.06194       0.712107
      4854.0000         1.1406        -999.25        -999.25         0.5931      -104.9378      -63.58538      0.3341981
      4854.5000         1.2055        -999.25        -999.25         0.5581      -112.5526      -71.20391      0.2531499
      4855.0000         1.3239        -999.25        -999.25         0.5406      -112.7239      -71.37895      0.2512878
      4855.5000         1.4422        -999.25        -999.25         0.6729      -112.1934      -70.85217      0.2568918
      4856.0000         1.5605        -999.25        -999.25         0.7787       -98.0487      -56.71121      0.4073275
      4856.5000         1.8783        -999.25        -999.25         0.9109       -87.3547      -46.02095      0.5210537
      4857.0000         1.8889        -999.25        -999.25          0.964       -92.8587      -51.52869      0.4624608
      4857.5000          1.889        -999.25        -999.25         1.0522       -98.3627      -57.03642      0.4038679
      4858.0000         1.8872        -999.25        -999.25          0.948      -103.8667      -62.54415       0.345275
      4858.5000         1.0826        -999.25        -999.25         0.8438      -109.3706      -68.05179      0.2866831
      4859.0000         1.0491        -999.25        -999.25         0.7397      -114.8746      -73.55952      0.2280902
      4859.5000         1.0315        -999.25        -999.25         0.6355      -120.3786      -79.06726      0.1694972
      4860.0000         1.0316        -999.25        -999.25         0.5313      -127.8143      -86.50669     0.09035435
      4860.5000         1.1003        -999.25        -999.25          0.393      -128.3424      -87.03853     0.08469651
      4861.0000         1.1691        -999.25        -999.25         0.4167      -120.7145      -79.41435      0.1658048
      4861.5000         1.2378        -999.25        -999.25         0.4404      -113.0866      -71.79019      0.2469129
      4862.0000         1.3066        -999.25        -999.25         0.4642      -105.4587      -64.16603       0.328021
      4862.5000         1.3945        -999.25        -999.25         0.4879       -97.8308      -56.54186      0.4091291
      4863.0000          1.398        -999.25        -999.25         0.5116       -90.2029       -48.9177      0.4902373
      4863.5000         1.3133        -999.25        -999.25         0.5353        -82.575      -41.29353      0.5713454
      4864.0000         1.2285        -999.25        -999.25         0.5614       -74.9471      -33.66936      0.6524536
      4864.5000         1.1438        -999.25        -999.25         0.5527       -67.3192       -26.0452      0.7335618
      4865.0000          1.059        -999.25        -999.25          0.553       -59.6913      -18.42103      0.8146698
      4865.5000         0.9742        -999.25        -999.25         0.5707       -52.0635      -10.79696       0.895777
      4866.0000         0.8946        -999.25        -999.25         0.5885       -43.9716      -2.708797      0.9818213
      4866.5000          0.863        -999.25        -999.25         0.5975       -42.2081     -0.9490318              1
      4867.0000         0.8437        -999.25        -999.25         0.5801       -41.8527     -0.5973663              1
      4867.5000         0.8402        -999.25        -999.25         0.5626       -39.7374       1.514198              1
