#------------------------------------------------------------------------------
# Created by    : vladimir.rabinovich
# Created on    : 09/19/2023 17:20:50
#------------------------------------------------------------------------------
~Version Information Section
VERS.           2.0     :   CWLS log ASCII Standard - VERSION 2.0
WRAP.           NO      :   One line per depth step
~Well Information Section
#MNEM       .UNIT                                         VALUE :DESCRIPTION
#------------------------------------------------------------------------------
STRT        .FT                                            1116 :START DEPTH
STOP        .FT                                            6700 :STOP DEPTH
STEP        .FT                                             0.5 :STEP      
NULL        .                                           -999.25 :NULL      
COMP        .                               BRAZOS OIL & GAS CO :COMPANY   
WELL        .                                    STATE OF TEXAS :WELL      
FLD         .                                   ALLIGATOR POINT :FIELD     
LOC         .                                                   :LOCATION  
CNTY        .                                          BRAZORIA :LOCATION  
STAT        .                                             TEXAS :STATE     
CTRY        .                                     UNITED STATES :COUNTRY   
SRVC        .                                                   :SERVICE COMPANY
DATE        .                             9/13/2023 11:18:59 AM :LOG DATE  
API         .                                    42039045100000 :API NUMBER
UWI         .                                    42039045100000 :UNIQUE WELL ID
XCOORD      .                                  970513.493421445 :SURFACE X 
YCOORD      .                                   10588404.291611 :SURFACE Y 
LAT         .                                        29.1599373 :LATITUDE  
LON         .                                       -95.0993265 :LONGITUDE 
ELEV        .FT                                              22 :ELEVATION VALUE
ELEV_TYPE   .                                                KB :ELEVATION REFERENCE TYPE
~Curve Information Section
#MNEM       .UNIT                                      API CODE :CURVE DESCRIPTION
#------------------------------------------------------------------------------
DEPT        .FT                                                 :DEPTH     
ASN         .OHMM                                               :          
CILD        .MMHO                                               :          
ILD         .OHMM                                               :          
LAT         .OHMM                                               :          
SP          .MV                                                 :          
SP_NORM     .MV                                                 :SP Normalized
VSH_SP      .V/V                                                :Volume of Shale from SP
~A        DEPTH            ASN           CILD            ILD            LAT             SP        SP_NORM         VSH_SP
# ...
      2590.0000         0.6761        -999.25        -999.25         0.7432      -100.5376      -48.16121      0.4104849
      2590.5000         0.6603        -999.25        -999.25         0.7434       -84.6348      -32.24252      0.6094686
      2591.0000         0.6604        -999.25        -999.25         0.7435       -83.5719      -31.16371      0.6229536
      2591.5000         0.6674        -999.25        -999.25         0.7437       -81.9806      -29.55651      0.6430436
      2592.0000         0.6903        -999.25        -999.25         0.7527       -78.0899      -25.64991      0.6918761
      2592.5000         0.7421        -999.25        -999.25         0.7616       -77.9117      -25.45581      0.6943024
      2593.0000          0.794        -999.25        -999.25         0.7618       -86.2843      -33.81251      0.5898436
      2593.5000         0.8379        -999.25        -999.25         0.7444       -94.6569      -42.16921      0.4853849
      2594.0000          1.046        -999.25        -999.25         0.7095      -103.0295      -50.52591      0.3809261
      2594.5000         1.3086        -999.25        -999.25         0.6745      -111.4021      -58.88261      0.2764674
      2595.0000         1.3438        -999.25        -999.25         0.6308      -119.7747       -67.2393      0.1720087
      2595.5000         1.3455        -999.25        -999.25         0.5959      -129.1198       -76.5685      0.0553937
      2596.0000          1.342        -999.25        -999.25         0.5785       -129.648       -77.0808     0.04898996
      2596.5000         1.2813        -999.25        -999.25         0.5611      -130.7029       -78.1198     0.03600245
      2597.0000         1.2205        -999.25        -999.25         0.5525      -130.7013      -78.10229     0.03622131
      2597.5000         1.1598        -999.25        -999.25         0.5527      -130.8763       -78.2614     0.03423252
      2598.0000          1.099        -999.25        -999.25         0.5529      -127.9077       -75.2769     0.07153873
      2598.5000         1.0383        -999.25        -999.25         0.5618       -123.623       -70.9763      0.1252962
      2599.0000         0.9775        -999.25        -999.25         0.5707      -123.4463      -70.78371      0.1277037
      2599.5000         0.9168        -999.25        -999.25         0.5885       -111.141       -58.4625      0.2817187
      2600.0000          0.856        -999.25        -999.25         0.6062       -98.8357       -46.1413      0.4357337
      2600.5000         0.7953        -999.25        -999.25         0.6301       -86.5303         -33.82        0.58975
      2601.0000         0.7577        -999.25        -999.25         0.6505       -74.1397      -21.41351      0.7448312
      2601.5000         0.7577        -999.25        -999.25          0.677       -61.7492      -9.007099      0.8999113
      2602.0000         0.7839        -999.25        -999.25         0.6947       -57.1765      -4.418499      0.9572688
      2602.5000         0.8101        -999.25        -999.25         0.7124       -55.9345       -3.18784       0.972652
      2603.0000         0.8363        -999.25        -999.25         0.7389       -54.8663      -2.136635       0.985792
      2603.5000         0.8625        -999.25        -999.25         0.7654       -54.3336       -1.62093      0.9922384
      2604.0000         0.8773        -999.25        -999.25         0.7655        -55.266      -2.570328      0.9803709
      2604.5000         0.8878        -999.25        -999.25         0.7657       -56.1983      -3.519627      0.9685047
      2605.0000         0.9019        -999.25        -999.25         0.7658       -57.1306      -4.468922      0.9566385
      2605.5000         0.9107        -999.25        -999.25         0.7747       -57.8437       -5.19902      0.9475123
      2606.0000         0.9195        -999.25        -999.25         0.7837       -58.3708      -5.743118       0.940711
      2606.5000         0.9284        -999.25        -999.25         0.7926         -56.35      -3.739311      0.9657586
      2607.0000         0.9459        -999.25        -999.25         0.8103       -54.3291      -1.735413      0.9908074
      2607.5000         0.9635        -999.25        -999.25         0.8192       -52.3083      0.2683907              1
      2608.0000         0.9706        -999.25        -999.25         0.8282       -50.3939       2.165791              1
      2608.5000           0.99        -999.25        -999.25         0.8547       -50.3883       2.154396              1
      2609.0000          0.997        -999.25        -999.25         0.8811       -50.0293       2.496399              1
      2609.5000          1.004        -999.25        -999.25         0.8988       -51.5258      0.9829025              1
      2610.0000         1.0439        -999.25        -999.25         0.9165       -53.0223     -0.5305939              1
      2610.5000         1.0766        -999.25        -999.25          0.943       -54.5189      -2.044193      0.9869476
      2611.0000         1.0937        -999.25        -999.25         0.9695       -56.0128      -3.555088      0.9680614
      2611.5000         1.1043        -999.25        -999.25         0.9784       -56.0072      -3.566483       0.967919
      2612.0000         1.1131        -999.25        -999.25         0.9962       -56.0016      -3.577881      0.9677765
      2612.5000         1.1219        -999.25        -999.25         0.9963        -55.996      -3.589279       0.967634
      2613.0000         1.1325        -999.25        -999.25         0.9965       -56.3437      -3.953976      0.9630753
      2613.5000         1.1448        -999.25        -999.25         0.9966       -56.5203      -4.147575      0.9606553
      2614.0000         1.1624        -999.25        -999.25          0.988       -58.3582      -6.002472      0.9374691
      2614.5000         1.1782        -999.25        -999.25         0.9793       -60.1961      -7.857365      0.9142829
      2615.0000          1.187        -999.25        -999.25         0.9619       -62.3279      -10.00616      0.8874229
      2615.5000         1.1906        -999.25        -999.25         0.9445       -67.0882      -14.78347      0.8277067
      2616.0000         1.1941        -999.25        -999.25         0.9183       -71.8485      -19.56076      0.7679905
      2616.5000         1.1977        -999.25        -999.25         0.8834       -76.6089      -24.33816      0.7082731
      2617.0000         1.2082        -999.25        -999.25         0.8747       -81.3692      -29.11546      0.6485568
      2617.5000         1.2293        -999.25        -999.25         0.8573       -86.1296      -33.89285      0.5888394
      2618.0000         1.2961        -999.25        -999.25         0.8487       -90.8899      -38.67015      0.5291232
      2618.5000         1.2944        -999.25        -999.25         0.8225       -95.6503      -43.44754      0.4694057
      2619.0000         1.2926        -999.25        -999.25         0.8139      -100.4106      -48.22484      0.4096895
      2619.5000         1.2553        -999.25        -999.25         0.7877       -105.171      -53.00224      0.3499721
      2620.0000         1.2181        -999.25        -999.25         0.7703      -109.9313      -57.77953      0.2902558
      2620.5000         1.1663        -999.25        -999.25         0.7529      -114.6917      -62.55694      0.2305383
      2621.0000         1.1576        -999.25        -999.25         0.7179       -119.452      -67.33423      0.1708221
      2621.5000         1.1524        -999.25        -999.25         0.7005      -124.2124      -72.11163      0.1111046
      2622.0000         1.1647        -999.25        -999.25         0.6743      -127.1093      -75.02553      0.0746809
      2622.5000         1.1629        -999.25        -999.25         0.6569      -128.5179      -76.45112     0.05686102
      2623.0000         1.1612        -999.25        -999.25         0.6308      -129.3965      -77.34672     0.04566603
