#------------------------------------------------------------------------------
# Created by    : vladimir.rabinovich
# Created on    : 09/19/2023 17:20:49
#------------------------------------------------------------------------------
~Version Information Section
VERS.           2.0     :   CWLS log ASCII Standard - VERSION 2.0
WRAP.           NO      :   One line per depth step
~Well Information Section
#MNEM       .UNIT                                         VALUE :DESCRIPTION
#------------------------------------------------------------------------------
STRT        .FT                                            1700 :START DEPTH
STOP        .FT                                         12339.5 :STOP DEPTH
STEP        .FT                                             0.5 :STEP      
NULL        .                                           -999.25 :NULL      
COMP        .                            CONQUEST PETROLEUM INC :COMPANY   
WELL        .                                          ST TR 20 :WELL      
FLD         .                                   ALLIGATOR POINT :FIELD     
LOC         .                                                   :LOCATION  
CNTY        .                                          BRAZORIA :LOCATION  
STAT        .                                             TEXAS :STATE     
CTRY        .                                     UNITED STATES :COUNTRY   
SRVC        .                                                   :SERVICE COMPANY
DATE        .                             9/13/2023 11:18:59 AM :LOG DATE  
API         .                                    42039319440000 :API NUMBER
UWI         .                                    42039319440000 :UNIQUE WELL ID
XCOORD      .                                   960684.54934625 :SURFACE X 
YCOORD      .                                  10591984.7936865 :SURFACE Y 
LAT         .                                        29.1692948 :LATITUDE  
LON         .                                        -95.130314 :LONGITUDE 
ELEV        .FT                                              45 :ELEVATION VALUE
ELEV_TYPE   .                                                KB :ELEVATION REFERENCE TYPE
~Curve Information Section
#MNEM       .UNIT                                      API CODE :CURVE DESCRIPTION
#------------------------------------------------------------------------------
DEPT        .FT                                                 :DEPTH     
ASN         .OHMM                                               :          
CILD        .MMHO                                               :          
ILD         .OHMM                                               :          
SP          .MV                                                 :          
SP_NORM     .MV                                                 :SP Normalized
VSH_SP      .V/V                                                :Volume of Shale from SP
~A        DEPTH            ASN           CILD            ILD             SP        SP_NORM         VSH_SP
# ...
     10174.0000         0.4497       2096.753         0.4769          -10.4      0.6429453              1
     10174.5000         0.4516       2080.983         0.4805         -10.44      0.6029453              1
     10175.0000         0.4556       2069.165         0.4833         -10.44      0.6029453              1
     10175.5000         0.4595       2057.347         0.4861         -10.48      0.5629454              1
     10176.0000         0.4595       2049.482         0.4879         -10.48      0.5629454              1
     10176.5000         0.4614       2029.759         0.4927         -10.52      0.5229445              1
     10177.0000         0.4594       2037.703         0.4907         -10.52      0.5229445              1
     10177.5000         0.4574       2061.438         0.4851         -10.56      0.4829445              1
     10178.0000         0.4515       2104.401         0.4752         -10.56      0.4829445              1
     10178.5000         0.4458       2147.364         0.4657          -10.6      0.4429445              1
     10179.0000         0.4401       2190.327         0.4566          -10.6      0.4429445              1
     10179.5000         0.4344        2233.29         0.4478         -10.64      0.4029446              1
     10180.0000         0.4287       2276.253         0.4393         -10.64      0.4029446              1
     10180.5000          0.423       2319.216         0.4312         -10.68      0.3629446              1
     10181.0000         0.4173       2362.179         0.4233         -10.72      0.3229446              1
     10181.5000         0.4116       2405.142         0.4158         -10.72      0.3229446              1
     10182.0000         0.4039       2453.127         0.4076         -10.76      0.2829447              1
     10182.5000         0.4019       2465.004         0.4057         -10.76      0.2829447              1
     10183.0000         0.3999       2480.854         0.4031          -10.8      0.2429447              1
     10183.5000         0.3979       2488.798         0.4018          -10.8      0.2429447              1
     10184.0000         0.3979        2492.79         0.4012         -10.84      0.2029448              1
     10184.5000         0.3979       2496.782         0.4005         -10.84      0.2029448              1
     10185.0000         0.3998       2496.822         0.4005         -10.88      0.1629448              1
     10185.5000         0.4018       2481.052         0.4031         -10.88      0.1629448              1
     10186.0000         0.4057       2445.519         0.4089         -10.88      0.1629448              1
     10186.5000         0.4097       2417.891         0.4136         -10.88      0.1629448              1
     10187.0000         0.4136       2338.882         0.4276         -10.76      0.2829447              1
     10187.5000         0.4274       2259.872         0.4425          -10.6      0.4429445              1
     10188.0000         0.4353       2200.625         0.4544         -10.48      0.5629454              1
     10188.5000         0.4392       2165.092         0.4619          -10.4      0.6429453              1
     10189.0000         0.4431       2121.654         0.4713         -10.28      0.7629452              1
     10189.5000         0.4471        2050.55         0.4877         -10.28      0.7629452              1
     10190.0000         0.4609       2018.969         0.4953         -10.28      0.7629452              1
     10190.5000         0.4589       2011.104         0.4972         -10.28      0.7629452              1
     10191.0000         0.4589       2011.144         0.4972         -10.36      0.6829453              1
     10191.5000         0.4569       2023.041         0.4943          -10.4      0.6429453              1
     10192.0000         0.4529       2034.938         0.4914         -10.48      0.5629454              1
     10192.5000         0.4509       2078.454         0.4811         -10.56      0.4829445              1
     10193.0000         0.4469       2110.114         0.4739          -10.6      0.4429445              1
     10193.5000         0.4449       2133.868         0.4686         -10.68      0.3629446              1
     10194.0000          0.441        2153.67         0.4643         -10.68      0.3629446              1
     10194.5000          0.439       2177.424         0.4593         -10.68      0.3629446              1
     10195.0000          0.437       2197.226         0.4551         -10.68      0.3629446              1
     10195.5000          0.437       2217.028         0.4511         -10.64      0.4029446              1
     10196.0000          0.433       2228.925         0.4486          -10.6      0.4429445              1
     10196.5000          0.431       2240.822         0.4463         -10.52      0.5229445              1
     10197.0000          0.429       2256.671         0.4431         -10.48      0.5629454              1
     10197.5000          0.427       2280.425         0.4385          -10.4      0.6429453              1
     10198.0000          0.427       2284.437          0.437         -10.36      0.6829453              1
     10198.5000          0.425       2296.314         0.4355         -10.32      0.7229452              1
     10199.0000          0.421       2308.211         0.4281         -10.32      0.7229452              1
     10199.5000          0.417       2320.108         0.4288         -10.32      0.7229452              1
     10200.0000          0.417       2328.053         0.4303          -10.2      0.8429451              1
     10200.5000          0.417        2324.14         0.4338          -10.2      0.8429451              1
     10201.0000         0.4209       2312.322         0.4374         -10.24      0.8029451              1
     10201.5000         0.4248       2296.552         0.4411         -10.24      0.8029451              1
     10202.0000         0.4288       2280.781         0.4448         -10.28      0.7629452              1
     10202.5000         0.4327       2265.011         0.4486         -10.32      0.7229452              1
     10203.0000         0.4327       2249.241         0.4517         -10.32      0.7229452              1
     10203.5000         0.4327       2229.518         0.4517         -10.32      0.7229452              1
     10204.0000         0.4307       2213.748         0.4525         -10.32      0.7229452              1
     10204.5000         0.4287       2205.882         0.4515         -10.32      0.7229452              1
     10205.0000         0.4287       2219.859         0.4505         -10.16      0.8829451              1
     10205.5000         0.4267       2224.891         0.4495         -10.04       1.002945              1
     10206.0000         0.4247       2229.923         0.4484          -9.92       1.122945              1
     10206.5000         0.4246       2234.955         0.4474          -9.76       1.282945              1
     10207.0000         0.4226       2239.987         0.4464          -9.64       1.402945              1
     10207.5000         0.4226       2245.019         0.4454          -9.52       1.522944              1
     10208.0000         0.4226       2250.051         0.4444          -9.52       1.522944              1
     10208.5000         0.4206       2255.083         0.4434          -9.72       1.322945              1
     10209.0000         0.4226       2261.593         0.4422          -9.92       1.122945              1
     10209.5000         0.4226       2259.427         0.4426          -10.2      0.8429451              1
     10210.0000         0.4225       2257.699         0.4429         -10.32      0.7229452              1
     10210.5000         0.4245       2257.739         0.4429         -10.52      0.5229445              1
     10211.0000         0.4264       2238.016         0.4468         -10.72      0.3229446              1
     10211.5000         0.4304       2230.151         0.4484         -10.84      0.2029448              1
