#------------------------------------------------------------------------------
# Created by    : vladimir.rabinovich
# Created on    : 09/19/2023 17:20:50
#------------------------------------------------------------------------------
~Version Information Section
VERS.           2.0     :   CWLS log ASCII Standard - VERSION 2.0
WRAP.           NO      :   One line per depth step
~Well Information Section
#MNEM       .UNIT                                         VALUE :DESCRIPTION
#------------------------------------------------------------------------------
STRT        .FT                                            1116 :START DEPTH
STOP        .FT                                            6700 :STOP DEPTH
STEP        .FT                                             0.5 :STEP      
NULL        .                                           -999.25 :NULL      
COMP        .                               BRAZOS OIL & GAS CO :COMPANY   
WELL        .                                    STATE OF TEXAS :WELL      
FLD         .                                   ALLIGATOR POINT :FIELD     
LOC         .                                                   :LOCATION  
CNTY        .                                          BRAZORIA :LOCATION  
STAT        .                                             TEXAS :STATE     
CTRY        .                                     UNITED STATES :COUNTRY   
SRVC        .                                                   :SERVICE COMPANY
DATE        .                             9/13/2023 11:18:59 AM :LOG DATE  
API         .                                    42039045100000 :API NUMBER
UWI         .                                    42039045100000 :UNIQUE WELL ID
XCOORD      .                                  970513.493421445 :SURFACE X 
YCOORD      .                                   10588404.291611 :SURFACE Y 
LAT         .                                        29.1599373 :LATITUDE  
LON         .                                       -95.0993265 :LONGITUDE 
ELEV        .FT                                              22 :ELEVATION VALUE
ELEV_TYPE   .                                                KB :ELEVATION REFERENCE TYPE
~Curve Information Section
#MNEM       .UNIT                                      API CODE :CURVE DESCRIPTION
#------------------------------------------------------------------------------
DEPT        .FT                                                 :DEPTH     
ASN         .OHMM                                               :          
CILD        .MMHO                                               :          
ILD         .OHMM                                               :          
LAT         .OHMM                                               :          
SP          .MV                                                 :          
SP_NORM     .MV                                                 :SP Normalized
VSH_SP      .V/V                                                :Volume of Shale from SP
~A        DEPTH            ASN           CILD            ILD            LAT             SP        SP_NORM         VSH_SP
# ...
      1484.5000         2.9228        -999.25        -999.25         1.5588       -95.1417      -39.06267      0.1349393
      1485.0000         2.5978        -999.25        -999.25         1.4007       -95.6367      -39.56075      0.1236194
      1485.5000         2.4924        -999.25        -999.25         1.2777       -96.3071      -40.23421      0.1083134
      1486.0000         2.0131        -999.25        -999.25         1.1548       -96.3073      -40.23748      0.1082392
      1486.5000         1.9998        -999.25        -999.25         1.1021       -94.7088      -38.64205      0.1444988
      1487.0000         1.9867        -999.25        -999.25         1.0494       -93.1103      -37.04662      0.1807587
      1487.5000         1.9867        -999.25        -999.25         1.0231       -91.5119      -35.45129      0.2170161
      1488.0000         1.9868        -999.25        -999.25          0.988        -88.188      -32.13046      0.2924896
      1488.5000          1.992        -999.25        -999.25          0.988       -87.8354      -31.78093      0.3004334
      1489.0000         1.9973        -999.25        -999.25         1.0304       -87.4828       -31.4314      0.3083773
      1489.5000         2.0026        -999.25        -999.25         1.0727       -88.3659      -32.31756      0.2882372
      1490.0000         2.3614        -999.25        -999.25          1.115       -93.2902      -37.24493      0.1762515
      1490.5000         2.6074        -999.25        -999.25         1.1573        -95.576       -39.5338      0.1242319
      1491.0000         2.5987        -999.25        -999.25         1.1997       -97.8618      -41.82267     0.07221196
      1491.5000         2.5812        -999.25        -999.25         1.2255      -100.1476      -44.11154     0.02019223
      1492.0000         2.5286        -999.25        -999.25         1.2518      -102.3127      -46.27971              0
      1492.5000         2.2124        -999.25        -999.25         1.2607      -103.3721      -47.34218              0
      1493.0000         1.8905        -999.25        -999.25         1.2164      -103.3722      -47.34535              0
      1493.5000         1.8557        -999.25        -999.25         1.1721      -103.1959      -47.17212              0
      1494.0000         1.8084        -999.25        -999.25         1.1278      -101.1594      -45.13869              0
      1494.5000         1.7979        -999.25        -999.25         1.0763        -99.123      -43.10536     0.04306004
      1495.0000         1.7997        -999.25        -999.25         1.0412       -97.0866      -41.07203     0.08927207
      1495.5000         1.8049        -999.25        -999.25         1.0325       -95.4311      -39.41959      0.1268274
      1496.0000         1.8453        -999.25        -999.25         1.0238       -95.7845      -39.77607      0.1187258
      1496.5000         1.7973        -999.25        -999.25         1.0238       -95.9611      -39.95573      0.1146425
      1497.0000         1.7493        -999.25        -999.25         1.0628       -96.4911       -40.4888      0.1025273
      1497.5000         1.6855        -999.25        -999.25         1.1018       -96.4914      -40.49217      0.1024506
      1498.0000         1.6802        -999.25        -999.25         1.1408       -96.4918      -40.49564      0.1023718
      1498.5000         1.7333        -999.25        -999.25         1.1798       -93.7693      -37.77621      0.1641769
      1499.0000         1.7863        -999.25        -999.25         1.2188       -91.0468      -35.05678      0.2259823
      1499.5000         1.8243        -999.25        -999.25         1.2578       -88.3243      -32.33735      0.2877874
      1500.0000         1.8279        -999.25        -999.25         1.2968       -85.6018      -29.61792      0.3495928
      1500.5000         1.8314        -999.25        -999.25         1.3358       -82.8793      -26.89849      0.4113979
      1501.0000         1.8296        -999.25        -999.25         1.3491       -81.0955      -25.11775      0.4518693
      1501.5000         1.6638        -999.25        -999.25         1.3316       -79.8968      -23.92212      0.4790426
      1502.0000         1.4979        -999.25        -999.25         1.3228       -79.8952       -23.9236      0.4790091
      1502.5000         1.3321        -999.25        -999.25         1.2965       -77.1774      -21.20886      0.5407076
      1503.0000         1.1251        -999.25        -999.25         1.2702       -74.4596      -18.49414       0.602406
      1503.5000         1.1198        -999.25        -999.25         1.2526       -71.7418       -15.7794      0.6641045
      1504.0000         1.1005        -999.25        -999.25         1.2263        -69.024      -13.06467      0.7258028
      1504.5000         1.1128        -999.25        -999.25         1.1825       -66.3062      -10.34994      0.7875014
      1505.0000         1.2832        -999.25        -999.25         1.1561       -63.4611      -7.507912      0.8520929
      1505.5000         1.4536        -999.25        -999.25          1.121       -63.6375      -7.687382      0.8662524
      1506.0000         1.5714        -999.25        -999.25         1.0947       -68.4799      -12.53284      0.7693431
      1506.5000         1.9983        -999.25        -999.25         1.0772       -73.3222      -17.37822      0.6724357
      1507.0000         2.0001        -999.25        -999.25         1.0684       -78.1645      -22.22358      0.5755283
      1507.5000         2.0462        -999.25        -999.25         1.0685       -83.0069      -27.06905      0.4786189
      1508.0000         2.0989        -999.25        -999.25         1.0773       -87.8492      -31.91442      0.3817115
      1508.5000         2.1604        -999.25        -999.25         1.0861       -92.6915      -36.75979      0.2848042
      1509.0000         2.2219        -999.25        -999.25         1.1037       -97.5339      -41.60526      0.1878947
      1509.5000         2.3712        -999.25        -999.25         1.1125       -104.554      -48.62843     0.04743133
      1510.0000         2.4737        -999.25        -999.25         1.1213      -104.3729      -48.45041      0.0509919
      1510.5000         2.5762        -999.25        -999.25         1.1389      -105.2538      -49.33437     0.03331261
      1511.0000         2.7049        -999.25        -999.25         1.1477      -105.7803      -49.86394     0.02272125
      1511.5000         2.7313        -999.25        -999.25         1.1478      -105.9537      -50.04041     0.01919182
      1512.0000         2.7313        -999.25        -999.25         1.1478      -105.9507      -50.04048     0.01919045
      1512.5000          2.665        -999.25        -999.25         1.1478      -105.9477      -50.04055     0.01918899
      1513.0000         2.5987        -999.25        -999.25         1.1039      -105.9447      -50.04062     0.01918762
      1513.5000         2.5324        -999.25        -999.25         1.0513      -105.9417      -50.04069     0.01918617
      1514.0000         2.4662        -999.25        -999.25         0.9986      -105.9386      -50.04065     0.01918694
      1514.5000         2.4148        -999.25        -999.25         0.9547      -105.9356      -50.04073     0.01918549
      1515.0000         2.3885        -999.25        -999.25         0.9371      -105.9311       -50.0393      0.0192141
      1515.5000         2.3796        -999.25        -999.25         0.9196      -105.9287      -50.03997     0.01920067
      1516.0000         2.3796        -999.25        -999.25          0.946      -105.9262      -50.04053      0.0191893
      1516.5000         2.3796        -999.25        -999.25          0.946      -105.9235       -50.0409     0.01918198
      1517.0000          2.362        -999.25        -999.25         0.9636      -105.9205      -50.04097     0.01918053
      1517.5000         2.3532        -999.25        -999.25         0.9812      -105.9175      -50.04104     0.01917915
