#------------------------------------------------------------------------------
# Created by    : vladimir.rabinovich
# Created on    : 09/19/2023 17:20:50
#------------------------------------------------------------------------------
~Version Information Section
VERS.           2.0     :   CWLS log ASCII Standard - VERSION 2.0
WRAP.           NO      :   One line per depth step
~Well Information Section
#MNEM       .UNIT                                         VALUE :DESCRIPTION
#------------------------------------------------------------------------------
STRT        .FT                                            1116 :START DEPTH
STOP        .FT                                            6700 :STOP DEPTH
STEP        .FT                                             0.5 :STEP      
NULL        .                                           -999.25 :NULL      
COMP        .                               BRAZOS OIL & GAS CO :COMPANY   
WELL        .                                    STATE OF TEXAS :WELL      
FLD         .                                   ALLIGATOR POINT :FIELD     
LOC         .                                                   :LOCATION  
CNTY        .                                          BRAZORIA :LOCATION  
STAT        .                                             TEXAS :STATE     
CTRY        .                                     UNITED STATES :COUNTRY   
SRVC        .                                                   :SERVICE COMPANY
DATE        .                             9/13/2023 11:18:59 AM :LOG DATE  
API         .                                    42039045100000 :API NUMBER
UWI         .                                    42039045100000 :UNIQUE WELL ID
XCOORD      .                                  970513.493421445 :SURFACE X 
YCOORD      .                                   10588404.291611 :SURFACE Y 
LAT         .                                        29.1599373 :LATITUDE  
LON         .                                       -95.0993265 :LONGITUDE 
ELEV        .FT                                              22 :ELEVATION VALUE
ELEV_TYPE   .                                                KB :ELEVATION REFERENCE TYPE
~Curve Information Section
#MNEM       .UNIT                                      API CODE :CURVE DESCRIPTION
#------------------------------------------------------------------------------
DEPT        .FT                                                 :DEPTH     
ASN         .OHMM                                               :          
CILD        .MMHO                                               :          
ILD         .OHMM                                               :          
LAT         .OHMM                                               :          
SP          .MV                                                 :          
SP_NORM     .MV                                                 :SP Normalized
VSH_SP      .V/V                                                :Volume of Shale from SP
~A        DEPTH            ASN           CILD            ILD            LAT             SP        SP_NORM         VSH_SP
# ...
      3327.0000         0.8726        -999.25        -999.25         0.7602       -70.3906      -23.53644      0.7467815
      3327.5000         0.8761        -999.25        -999.25         0.7428       -57.1704      -10.34718      0.8949755
      3328.0000         0.8595        -999.25        -999.25         0.7255       -54.1713      -7.379009      0.9283257
      3328.5000          0.843        -999.25        -999.25         0.7169       -51.7007      -4.939346      0.9557377
      3329.0000         0.8264        -999.25        -999.25         0.7084       -50.9901      -4.259686      0.9633743
      3329.5000         0.8099        -999.25        -999.25         0.6998       -50.4577      -3.758221      0.9690087
      3330.0000         0.7991        -999.25        -999.25            0.7         -50.63      -3.961456      0.9667252
      3330.5000         0.7974        -999.25        -999.25         0.7002       -50.9786      -4.340992      0.9624608
      3331.0000         0.7974        -999.25        -999.25         0.6916       -51.3272      -4.720531      0.9581963
      3331.5000         0.7974        -999.25        -999.25         0.6918       -52.2044      -5.628666      0.9479925
      3332.0000         0.8045        -999.25        -999.25          0.692       -52.5678      -6.022999      0.9435618
      3332.5000         0.8063        -999.25        -999.25         0.6922       -53.0777      -6.563839       0.937485
      3333.0000         0.8133        -999.25        -999.25         0.6924       -53.6026      -7.119675      0.9312396
      3333.5000         0.8257        -999.25        -999.25         0.6838       -54.1274      -7.675407      0.9249954
      3334.0000         0.8362        -999.25        -999.25         0.6753       -54.6522      -8.231144      0.9187512
      3334.5000         0.8555        -999.25        -999.25         0.6755       -55.3533      -8.963181       0.910526
      3335.0000         0.8696        -999.25        -999.25         0.6757       -55.7019       -9.34272      0.9062616
      3335.5000         0.8872        -999.25        -999.25         0.6846       -56.0506      -9.722351      0.9019961
      3336.0000          0.917        -999.25        -999.25         0.6936       -56.5754      -10.27809      0.8957518
      3336.5000         0.9487        -999.25        -999.25         0.7113       -56.9241      -10.65773      0.8914862
      3337.0000         0.9767        -999.25        -999.25         0.7203       -52.8671       -6.63166      0.9367229
      3337.5000         1.0189        -999.25        -999.25         0.7469       -50.5722      -4.367699      0.9621607
      3338.0000         1.0786        -999.25        -999.25         0.7559       -47.0418     -0.8682365              1
      3338.5000         1.0891        -999.25        -999.25         0.7474       -45.6281      0.5145264              1
      3339.0000         1.1032        -999.25        -999.25         0.7563        -44.743       1.368694              1
      3339.5000         1.1137        -999.25        -999.25         0.8091       -43.5054       2.575356              1
      3340.0000         1.1225        -999.25        -999.25         0.8443       -42.2679       3.781921              1
      3340.5000         1.1226        -999.25        -999.25         0.8796       -41.7352       4.283688              1
      3341.0000         1.1226        -999.25        -999.25         0.9324       -41.7313       4.256649              1
      3341.5000         1.1227        -999.25        -999.25         0.9852       -41.5511        4.40591              1
      3342.0000         1.1192        -999.25        -999.25         1.0117       -41.3709       4.555176              1
      3342.5000         1.1157        -999.25        -999.25         1.0558        -41.367       4.528141              1
      3343.0000         1.1105        -999.25        -999.25          1.091        -41.363       4.501205              1
      3343.5000         1.1035        -999.25        -999.25         1.1263       -41.8878       3.945469              1
      3344.0000            1.1        -999.25        -999.25         1.1353       -42.2364       3.565929              1
      3344.5000         1.0931        -999.25        -999.25         1.1618       -42.4087       3.362698              1
      3345.0000         1.0878        -999.25        -999.25         1.2147       -42.7573       2.983158              1
      3345.5000         1.0826        -999.25        -999.25         1.2588       -42.9316       2.777924              1
      3346.0000         1.0739        -999.25        -999.25         1.2765       -43.4545       2.224091              1
      3346.5000         1.0687        -999.25        -999.25         1.2942       -47.6808       -2.03315      0.9883916
      3347.0000         1.0634        -999.25        -999.25         1.3032       -51.3784      -5.761684      0.9464979
      3347.5000         1.0547        -999.25        -999.25         1.3034       -52.2578      -6.672024      0.9362694
      3348.0000          1.046        -999.25        -999.25         1.3036       -54.7217      -9.166855      0.9082376
      3348.5000          1.039        -999.25        -999.25         1.3038        -56.128      -10.60409      0.8920888
      3349.0000         1.0303        -999.25        -999.25         1.2689       -58.0632      -12.57023      0.8699974
      3349.5000         1.0198        -999.25        -999.25         1.2428       -59.4696      -14.00756      0.8538476
      3350.0000         1.0694        -999.25        -999.25         1.2167       -60.1728       -14.7417      0.8455989
      3350.5000         1.1374        -999.25        -999.25         1.1818       -68.1286      -22.72844      0.7558602
      3351.0000         1.1427        -999.25        -999.25         1.1119       -76.0844      -30.71517      0.6661217
      3351.5000          1.141        -999.25        -999.25         1.0594       -84.0403      -38.70201      0.5763819
      3352.0000         1.0591        -999.25        -999.25         0.9982       -91.9961      -46.68875      0.4866433
      3352.5000         0.9772        -999.25        -999.25         0.9721       -99.9519      -54.67548      0.3969047
      3353.0000         0.8954        -999.25        -999.25         0.9547      -111.2747      -66.02922      0.2693346
      3353.5000         0.8135        -999.25        -999.25         0.9111      -111.6273      -66.41275      0.2650253
      3354.0000         0.7605        -999.25        -999.25         0.8236      -114.4447      -69.26109      0.2330214
      3354.5000         0.7588        -999.25        -999.25         0.7887      -115.8518      -70.69913      0.2168637
      3355.0000         0.7764        -999.25        -999.25         0.7538      -116.5537      -71.43196      0.2086297
      3355.5000         0.8349        -999.25        -999.25         0.7277       -118.666       -73.5752      0.1845484
      3356.0000         0.8935        -999.25        -999.25         0.7016      -118.8392      -73.77934      0.1822546
      3356.5000         0.9537        -999.25        -999.25         0.6843      -119.3649      -74.33597      0.1760004
      3357.0000         0.9186        -999.25        -999.25         0.6669      -120.4179      -75.41991      0.1638213
      3357.5000         0.8941        -999.25        -999.25         0.6584      -120.9452      -75.97814       0.157549
      3358.0000         0.8836        -999.25        -999.25         0.6586      -121.1183      -76.18218      0.1552564
      3358.5000         0.8766        -999.25        -999.25         0.6588      -118.5927      -73.68752      0.1832863
      3359.0000         0.8942        -999.25        -999.25         0.6765      -116.0671      -71.19286      0.2113162
      3359.5000         0.9828        -999.25        -999.25         0.6855       -112.819      -67.97569      0.2474641
      3360.0000         1.0784        -999.25        -999.25         0.7383      -111.7579      -66.94553       0.259039
