#------------------------------------------------------------------------------
# Created by    : vladimir.rabinovich
# Created on    : 09/19/2023 17:20:49
#------------------------------------------------------------------------------
~Version Information Section
VERS.           2.0     :   CWLS log ASCII Standard - VERSION 2.0
WRAP.           NO      :   One line per depth step
~Well Information Section
#MNEM       .UNIT                                         VALUE :DESCRIPTION
#------------------------------------------------------------------------------
STRT        .FT                                            1700 :START DEPTH
STOP        .FT                                         12339.5 :STOP DEPTH
STEP        .FT                                             0.5 :STEP      
NULL        .                                           -999.25 :NULL      
COMP        .                            CONQUEST PETROLEUM INC :COMPANY   
WELL        .                                          ST TR 20 :WELL      
FLD         .                                   ALLIGATOR POINT :FIELD     
LOC         .                                                   :LOCATION  
CNTY        .                                          BRAZORIA :LOCATION  
STAT        .                                             TEXAS :STATE     
CTRY        .                                     UNITED STATES :COUNTRY   
SRVC        .                                                   :SERVICE COMPANY
DATE        .                             9/13/2023 11:18:59 AM :LOG DATE  
API         .                                    42039319440000 :API NUMBER
UWI         .                                    42039319440000 :UNIQUE WELL ID
XCOORD      .                                   960684.54934625 :SURFACE X 
YCOORD      .                                  10591984.7936865 :SURFACE Y 
LAT         .                                        29.1692948 :LATITUDE  
LON         .                                        -95.130314 :LONGITUDE 
ELEV        .FT                                              45 :ELEVATION VALUE
ELEV_TYPE   .                                                KB :ELEVATION REFERENCE TYPE
~Curve Information Section
#MNEM       .UNIT                                      API CODE :CURVE DESCRIPTION
#------------------------------------------------------------------------------
DEPT        .FT                                                 :DEPTH     
ASN         .OHMM                                               :          
CILD        .MMHO                                               :          
ILD         .OHMM                                               :          
SP          .MV                                                 :          
SP_NORM     .MV                                                 :SP Normalized
VSH_SP      .V/V                                                :Volume of Shale from SP
~A        DEPTH            ASN           CILD            ILD             SP        SP_NORM         VSH_SP
# ...
      3828.0000         0.9053       1122.595          0.895          -2.72      0.9609816              1
      3828.5000         0.9076       1126.529         0.8693          -3.12      0.5609818              1
      3829.0000         0.9098       1130.428          0.868           -3.6     0.08098173              1
      3829.5000         0.9128       1138.296         0.8667          -4.08     -0.3990183              1
      3830.0000         0.9108       1142.196         0.8606          -4.48     -0.7990184              1
      3830.5000         0.8878       1162.004         0.8606          -5.04      -1.359018      0.9926731
      3831.0000         0.8652        1141.24         0.8762          -5.04      -1.359018      0.9926731
      3831.5000         0.8896       1120.475         0.8925          -5.04      -1.359018      0.9926731
      3832.0000         0.9141       1099.711         0.9093          -4.96      -1.279018      0.9943057
      3832.5000         0.9385       1078.947         0.9268          -4.96      -1.279018      0.9943057
      3833.0000          0.963       1058.183          0.945          -4.88      -1.199018      0.9959384
      3833.5000         0.9874       1037.418         0.9639           -4.8      -1.119019      0.9975711
      3834.0000           1.02       1016.654         0.9836          -4.72      -1.039018      0.9992037
      3834.5000           1.02       995.8901         1.0041          -4.64     -0.9590182              1
      3835.0000           1.02       975.1259         1.0255          -5.28      -1.599019      0.9877751
      3835.5000         1.0161       958.8659         1.0429          -8.64      -4.959019      0.9192037
      3836.0000         1.0181       970.7375         1.0301         -12.08      -8.399018      0.8489996
      3836.5000          1.026       1026.132         0.9745         -15.52      -11.83902      0.7787955
      3837.0000         1.0419       1081.526         0.9246         -18.96      -15.27902      0.7085915
      3837.5000         1.0685       1136.921         0.8796         -22.32      -18.63902        0.64002
      3838.0000         1.0951       1307.765         0.8387         -25.76      -22.07902       0.569816
      3838.5000         1.1217       1339.518         0.8015          -29.2      -25.51902      0.4996118
      3839.0000         1.1571       1363.267         0.7674         -31.04      -27.35902      0.4620608
      3839.5000         1.1571       1390.985         0.7361         -25.04      -21.35902      0.5845098
      3840.0000         1.1491       1410.765         0.7049         -19.12      -15.43902      0.7053261
      3840.5000          1.068        1402.76         0.7029         -19.44      -15.75902      0.6987956
      3841.0000         0.9868       1382.847         0.7241          -8.08      -4.399018      0.9306323
      3841.5000         0.9056       1362.933         0.7465          -5.52      -1.839018      0.9828772
      3842.0000         0.8244       1331.111         0.7603          -4.16     -0.4790182              1
      3842.5000         0.7661       1299.288         0.7581          -2.88      0.8009815              1
      3843.0000         0.7622       1315.099         0.7507           -1.6       2.080982              1
      3843.5000         0.7761        1330.91         0.7425          -0.96       2.720982              1
      3844.0000         0.8128       1342.752         0.7469          -0.56       3.120982              1
      3844.5000         0.8495       1293.797         0.7729              0       3.680982              1
      3845.0000         0.8862       1248.811         0.8008            0.4       4.080982              1
      3845.5000         0.9229       1203.825         0.8307           1.04       4.720982              1
      3846.0000         0.9597        1158.84         0.8629            1.2       4.880981              1
      3846.5000         0.9826       1113.855         0.8978           1.52       5.200982              1
      3847.0000         0.9826       1068.869         0.9356           1.92       5.600982              1
      3847.5000         0.9908       1023.884         0.9767           1.92       5.600982              1
      3848.0000         0.9991        992.862         1.0072           2.08       5.760982              1
      3848.5000         1.0044       996.7967         1.0032           2.56       6.240982              1
      3849.0000         1.0005       1012.949         0.9872           2.72       6.400982              1
      3849.5000         0.9906         1029.1         0.9717           2.96       6.640982              1
      3850.0000         0.9741       1048.127         0.9541           2.56       6.240982              1
      3850.5000         0.9577       1048.092         0.9541           2.16       5.840981              1
      3851.0000          0.937       1048.022         0.9542           1.52       5.200982              1
      3851.5000          0.943       1044.264         0.9576           0.72       4.400982              1
      3852.0000         0.9647       1040.506         0.9611          -0.24       3.440982              1
      3852.5000         0.9864       1035.866         0.9654          -3.68   0.0009815693              1
      3853.0000         1.0081       1039.802         0.9617          -4.96      -1.279018      0.9943057
      3853.5000         1.0298       1052.037         0.9505          -6.16      -2.479018       0.969816
      3854.0000         1.0515       1064.273         0.9396          -7.44      -3.759018      0.9436935
      3854.5000          1.078       1076.509         0.9289          -8.56      -4.879019      0.9208363
      3855.0000           1.08       1088.745         0.9185          -7.92      -4.239018      0.9338976
      3855.5000         1.0464        1100.98         0.9083          -7.12      -3.439018      0.9502241
      3856.0000         1.0128       1113.216         0.8983          -5.76      -2.079019      0.9779792
      3856.5000         0.9792       1125.452         0.8885          -4.32     -0.6390185              1
      3857.0000         0.9456       1142.445         0.8753          -2.88      0.8009815              1
      3857.5000         0.8974       1146.381         0.8723          -1.44       2.240982              1
      3858.0000         0.8994       1142.342         0.8754              0       3.680982              1
      3858.5000         0.9034       1136.235         0.8801              0       3.680982              1
      3859.0000          0.909       1130.128         0.8849           0.16       3.840982              1
      3859.5000         0.9173       1124.021         0.8897              0       3.680982              1
      3860.0000         0.9133        1118.24         0.8943           0.16       3.840982              1
      3860.5000         0.9041       1118.137         0.8943            0.4       4.080982              1
      3861.0000          0.895       1118.102          0.886            0.8       4.480982              1
      3861.5000         0.8856       1125.975         0.8779            1.2       4.880981              1
      3862.0000         0.8843       1129.911         0.8699           1.52       5.200982              1
      3862.5000         0.8836       1137.785         0.8621           1.92       5.600982              1
      3863.0000         0.8836       1145.658          0.858           2.24       5.920981              1
      3863.5000         0.8969       1153.531          0.858           2.64       6.320982              1
      3864.0000         0.9103       1150.339         0.8693           2.96       6.640982              1
      3864.5000         0.9236       1135.198         0.8809           2.96       6.640982              1
      3865.0000         0.9369       1120.057         0.8928           2.88       6.560982              1
      3865.5000         0.9503       1104.917          0.905            2.8       6.480982              1
