#------------------------------------------------------------------------------
# Created by    : vladimir.rabinovich
# Created on    : 09/19/2023 17:20:49
#------------------------------------------------------------------------------
~Version Information Section
VERS.           2.0     :   CWLS log ASCII Standard - VERSION 2.0
WRAP.           NO      :   One line per depth step
~Well Information Section
#MNEM       .UNIT                                         VALUE :DESCRIPTION
#------------------------------------------------------------------------------
STRT        .FT                                            1700 :START DEPTH
STOP        .FT                                         12339.5 :STOP DEPTH
STEP        .FT                                             0.5 :STEP      
NULL        .                                           -999.25 :NULL      
COMP        .                            CONQUEST PETROLEUM INC :COMPANY   
WELL        .                                          ST TR 20 :WELL      
FLD         .                                   ALLIGATOR POINT :FIELD     
LOC         .                                                   :LOCATION  
CNTY        .                                          BRAZORIA :LOCATION  
STAT        .                                             TEXAS :STATE     
CTRY        .                                     UNITED STATES :COUNTRY   
SRVC        .                                                   :SERVICE COMPANY
DATE        .                             9/13/2023 11:18:59 AM :LOG DATE  
API         .                                    42039319440000 :API NUMBER
UWI         .                                    42039319440000 :UNIQUE WELL ID
XCOORD      .                                   960684.54934625 :SURFACE X 
YCOORD      .                                  10591984.7936865 :SURFACE Y 
LAT         .                                        29.1692948 :LATITUDE  
LON         .                                        -95.130314 :LONGITUDE 
ELEV        .FT                                              45 :ELEVATION VALUE
ELEV_TYPE   .                                                KB :ELEVATION REFERENCE TYPE
~Curve Information Section
#MNEM       .UNIT                                      API CODE :CURVE DESCRIPTION
#------------------------------------------------------------------------------
DEPT        .FT                                                 :DEPTH     
ASN         .OHMM                                               :          
CILD        .MMHO                                               :          
ILD         .OHMM                                               :          
SP          .MV                                                 :          
SP_NORM     .MV                                                 :SP Normalized
VSH_SP      .V/V                                                :Volume of Shale from SP
~A        DEPTH            ASN           CILD            ILD             SP        SP_NORM         VSH_SP
# ...
      7362.0000         0.7269        1548.65         0.6376          -2.64      -1.413006      0.9932294
      7362.5000         0.7289       1556.533          0.636          -2.64      -1.413006      0.9932294
      7363.0000         0.7309       1564.415          0.636          -2.64      -1.413006      0.9932294
      7363.5000         0.7349       1568.332         0.6392          -2.56      -1.333006      0.9945409
      7364.0000         0.7449       1556.384         0.6461          -2.48      -1.253006      0.9958524
      7364.5000         0.7548       1531.021         0.6532          -2.48      -1.253006      0.9958524
      7365.0000         0.7647       1514.349         0.6603           -2.4      -1.173006      0.9971638
      7365.5000         0.7826       1497.677         0.6677           -2.4      -1.173006      0.9971638
      7366.0000         0.7866       1481.005         0.6752          -2.32      -1.093006      0.9984753
      7366.5000         0.7906       1464.333         0.6829          -2.32      -1.093006      0.9984753
      7367.0000         0.7906       1452.966         0.6882          -2.24      -1.013006      0.9997868
      7367.5000         0.7906        1448.95         0.6902          -2.16     -0.9330062              1
      7368.0000         0.7907       1444.934         0.6921          -2.16     -0.9330062              1
      7368.5000         0.7907       1455.475         0.6871           -2.4      -1.173006      0.9971638
      7369.0000         0.7887       1466.017         0.6821           -2.4      -1.173006      0.9971638
      7369.5000         0.7828       1476.559         0.6773          -2.56      -1.333006      0.9945409
      7370.0000         0.7789         1487.1         0.6724          -2.64      -1.413006      0.9932294
      7370.5000          0.769       1497.642         0.6677           -2.8      -1.573006      0.9906065
      7371.0000          0.765       1508.183          0.663          -2.96      -1.733006      0.9879835
      7371.5000         0.7611       1518.725         0.6584          -2.96      -1.733006      0.9879835
      7372.0000         0.7572       1529.267         0.6539          -2.96      -1.733006      0.9879835
      7372.5000         0.7532       1539.808         0.6494          -2.96      -1.733006      0.9879835
      7373.0000         0.7513        1550.35          0.645          -2.96      -1.733006      0.9879835
      7373.5000         0.7493       1560.891         0.6407          -2.96      -1.733006      0.9879835
      7374.0000         0.7473       1571.433         0.6364          -2.96      -1.733006      0.9879835
      7374.5000         0.7474       1581.975         0.6321          -2.96      -1.733006      0.9879835
      7375.0000         0.7494       1590.984         0.6285          -2.96      -1.733006      0.9879835
      7375.5000         0.7514       1590.934         0.6286          -3.04      -1.813006       0.986672
      7376.0000         0.7574       1586.943         0.6301          -3.04      -1.813006       0.986672
      7376.5000         0.7633       1568.585         0.6375          -3.12      -1.893006      0.9853606
      7377.0000         0.7792       1550.228         0.6451          -3.12      -1.893006      0.9853606
      7377.5000         0.7852        1531.87         0.6528          -3.12      -1.893006      0.9853606
      7378.0000         0.7753       1513.512         0.6607          -3.12      -1.893006      0.9853606
      7378.5000         0.7872       1495.154         0.6688          -2.96      -1.733006      0.9879835
      7379.0000         0.7991       1476.796         0.6771           -2.8      -1.573006      0.9906065
      7379.5000         0.8038       1458.438         0.6857          -2.64      -1.413006      0.9932294
      7380.0000         0.8084       1440.081         0.6944          -2.48      -1.253006      0.9958524
      7380.5000          0.813       1421.723         0.7034          -2.32      -1.093006      0.9984753
      7381.0000         0.8176       1407.945         0.7103          -2.32      -1.093006      0.9984753
      7381.5000         0.8223       1395.997         0.7163          -2.32      -1.093006      0.9984753
      7382.0000         0.8269       1391.981         0.7184          -2.48      -1.253006      0.9958524
      7382.5000         0.8315       1387.965         0.7205          -2.64      -1.413006      0.9932294
      7383.0000          0.835       1387.905         0.7205          -2.88      -1.653006       0.989295
      7383.5000         0.8351       1387.865         0.7205          -3.04      -1.813006       0.986672
      7384.0000         0.8234       1411.613         0.7084           -3.2      -1.973006      0.9840491
      7384.5000         0.8117       1427.427         0.7006          -3.36      -2.133006      0.9814261
      7385.0000            0.8       1451.174         0.6891          -3.52      -2.293006      0.9788032
      7385.5000         0.7883       1482.854         0.6744          -3.68      -2.453006      0.9761802
      7386.0000         0.7766         1506.6         0.6637          -3.44      -2.213006      0.9801146
      7386.5000         0.7649       1534.314         0.6518          -3.04      -1.813006       0.986672
      7387.0000         0.7532       1562.027         0.6402           -2.8      -1.573006      0.9906065
      7387.5000         0.7361       1581.808         0.6322          -2.64      -1.413006      0.9932294
      7388.0000         0.7424       1585.724         0.6306           -2.4      -1.173006      0.9971638
      7388.5000         0.7486       1585.674         0.6306          -2.24      -1.013006      0.9997868
      7389.0000         0.7548       1585.624         0.6307           -1.2     0.02699387              1
      7389.5000         0.7611       1585.575         0.6307          -1.44     -0.2130061              1
      7390.0000           0.77       1585.525         0.6307          -2.24      -1.013006      0.9997868
      7390.5000         0.7482       1593.407         0.6276           -2.4      -1.173006      0.9971638
      7391.0000         0.7363       1597.324          0.626           -2.4      -1.173006      0.9971638
      7391.5000         0.7304       1609.172         0.6214          -2.56      -1.333006      0.9945409
      7392.0000         0.7185       1613.114         0.6199           -2.8      -1.573006      0.9906065
      7392.5000         0.7145       1620.996         0.6169          -2.96      -1.733006      0.9879835
      7393.0000         0.7146       1624.912         0.6154          -2.96      -1.733006      0.9879835
      7393.5000         0.7166       1636.761          0.611           -3.2      -1.973006      0.9840491
      7394.0000         0.7265       1624.813         0.6155           -3.2      -1.973006      0.9840491
      7394.5000         0.7503       1597.025         0.6262           -3.2      -1.973006      0.9840491
      7395.0000         0.7762       1564.562         0.6392           -3.2      -1.973006      0.9840491
      7395.5000          0.792       1532.098         0.6527          -2.96      -1.733006      0.9879835
      7396.0000          0.804       1499.635         0.6668          -2.96      -1.733006      0.9879835
      7396.5000          0.806       1453.971         0.6878          -2.96      -1.733006      0.9879835
      7397.0000         0.8159       1453.946         0.6878           -2.8      -1.573006      0.9906065
      7397.5000         0.8117       1453.896         0.6878           -2.8      -1.573006      0.9906065
      7398.0000          0.806       1457.838         0.6859           -2.8      -1.573006      0.9906065
      7398.5000         0.7981       1475.744         0.6776           -2.8      -1.573006      0.9906065
      7399.0000         0.7912       1493.651         0.6695           -2.8      -1.573006      0.9906065
      7399.5000         0.7843       1511.558         0.6616          -2.96      -1.733006      0.9879835
