#------------------------------------------------------------------------------
# Created by    : vladimir.rabinovich
# Created on    : 09/19/2023 17:20:50
#------------------------------------------------------------------------------
~Version Information Section
VERS.           2.0     :   CWLS log ASCII Standard - VERSION 2.0
WRAP.           NO      :   One line per depth step
~Well Information Section
#MNEM       .UNIT                                         VALUE :DESCRIPTION
#------------------------------------------------------------------------------
STRT        .FT                                            1116 :START DEPTH
STOP        .FT                                            6700 :STOP DEPTH
STEP        .FT                                             0.5 :STEP      
NULL        .                                           -999.25 :NULL      
COMP        .                               BRAZOS OIL & GAS CO :COMPANY   
WELL        .                                    STATE OF TEXAS :WELL      
FLD         .                                   ALLIGATOR POINT :FIELD     
LOC         .                                                   :LOCATION  
CNTY        .                                          BRAZORIA :LOCATION  
STAT        .                                             TEXAS :STATE     
CTRY        .                                     UNITED STATES :COUNTRY   
SRVC        .                                                   :SERVICE COMPANY
DATE        .                             9/13/2023 11:18:59 AM :LOG DATE  
API         .                                    42039045100000 :API NUMBER
UWI         .                                    42039045100000 :UNIQUE WELL ID
XCOORD      .                                  970513.493421445 :SURFACE X 
YCOORD      .                                   10588404.291611 :SURFACE Y 
LAT         .                                        29.1599373 :LATITUDE  
LON         .                                       -95.0993265 :LONGITUDE 
ELEV        .FT                                              22 :ELEVATION VALUE
ELEV_TYPE   .                                                KB :ELEVATION REFERENCE TYPE
~Curve Information Section
#MNEM       .UNIT                                      API CODE :CURVE DESCRIPTION
#------------------------------------------------------------------------------
DEPT        .FT                                                 :DEPTH     
ASN         .OHMM                                               :          
CILD        .MMHO                                               :          
ILD         .OHMM                                               :          
LAT         .OHMM                                               :          
SP          .MV                                                 :          
SP_NORM     .MV                                                 :SP Normalized
VSH_SP      .V/V                                                :Volume of Shale from SP
~A        DEPTH            ASN           CILD            ILD            LAT             SP        SP_NORM         VSH_SP
# ...
      5940.0000         0.8463        -999.25        -999.25         0.6984       -47.9838      -5.259159      0.9546898
      5940.5000         0.8269        -999.25        -999.25          0.713       -45.2222      -2.504128      0.9839987
      5941.0000          0.827        -999.25        -999.25         0.7307       -45.0413      -2.329803      0.9858531
      5941.5000         0.8252        -999.25        -999.25         0.7485       -44.6848      -1.979874      0.9895758
      5942.0000         0.8182        -999.25        -999.25         0.7751       -44.5038      -1.805447      0.9914314
      5942.5000          0.813        -999.25        -999.25         0.8194       -43.9717      -1.279919      0.9970222
      5943.0000         0.8095        -999.25        -999.25         0.8465       -43.6151     -0.9298935              1
      5943.5000          0.806        -999.25        -999.25         0.8736       -42.7113    -0.03266525              1
      5944.0000         0.8025        -999.25        -999.25         0.9007       -41.8074      0.8646622              1
      5944.5000         0.8008        -999.25        -999.25         0.9279       -40.9036       1.761894              1
      5945.0000         0.7872        -999.25        -999.25          0.955       -39.9027       2.756222              1
      5945.5000         0.7736        -999.25        -999.25         0.9821       -38.8463       3.806049              1
      5946.0000           0.76        -999.25        -999.25         1.0093        -39.192       3.453773              1
      5946.5000         0.7464        -999.25        -999.25         1.0323       -39.8889       2.750301              1
      5947.0000         0.7305        -999.25        -999.25         1.0413       -40.7614       1.871231              1
      5947.5000         0.7235        -999.25        -999.25         1.0415       -41.8097      0.8163567              1
      5948.0000          0.694        -999.25        -999.25         1.0416        -42.858     -0.2385139              1
      5948.5000         0.6646        -999.25        -999.25         1.0418       -43.5578     -0.9448853              1
      5949.0000         0.6352        -999.25        -999.25         1.0331       -44.7792      -2.172859      0.9875228
      5949.5000         0.6057        -999.25        -999.25         1.0087       -45.8277      -3.227932      0.9762986
      5950.0000         0.5763        -999.25        -999.25         0.9894       -56.1075       -13.5143      0.8668692
      5950.5000         0.5469        -999.25        -999.25         0.9719        -60.453      -17.86637      0.8205705
      5951.0000         0.5175        -999.25        -999.25         0.9544       -64.7985      -22.21845      0.7742718
      5951.5000         0.5017        -999.25        -999.25          0.937        -69.144      -26.57051      0.7279732
      5952.0000         0.4999        -999.25        -999.25         0.9107       -71.9808      -29.41389      0.6977246
      5952.5000         0.5052        -999.25        -999.25         0.8716       -62.6813      -20.12096      0.7965855
      5953.0000         0.5104        -999.25        -999.25         0.8405       -51.4099      -8.856136      0.9164241
      5953.5000         0.5178        -999.25        -999.25         0.8269       -57.3358      -14.78861      0.8533127
      5954.0000         0.5231        -999.25        -999.25         0.8055       -63.2618      -20.72118      0.7902002
      5954.5000         0.5143        -999.25        -999.25         0.7969       -71.9583      -29.42425      0.6976144
      5955.0000         0.5012        -999.25        -999.25         0.7882       -61.9253      -19.39783      0.8042784
      5955.5000          0.488        -999.25        -999.25         0.7708       -51.8922      -9.371296      0.9109437
      5956.0000         0.4757        -999.25        -999.25         0.7533       -46.8121      -4.297768      0.9649174
      5956.5000         0.5196        -999.25        -999.25         0.7358       -57.5669      -15.05914      0.8504347
      5957.0000         0.5636        -999.25        -999.25         0.7449       -68.3217      -25.82051       0.735952
      5957.5000         0.6076        -999.25        -999.25         0.7626       -79.0766      -36.58199      0.6214682
      5958.0000         0.6515        -999.25        -999.25          0.798       -89.8314      -47.34336      0.5069855
      5958.5000         0.6955        -999.25        -999.25         0.8334      -100.5862      -58.10473      0.3925029
      5959.0000         0.7395        -999.25        -999.25         0.8689      -108.8365       -66.3616      0.3046638
      5959.5000         0.7834        -999.25        -999.25         0.9043      -109.1864      -66.71808      0.3008715
      5960.0000         0.8274        -999.25        -999.25         0.9133       -90.4372      -47.97545      0.5002612
      5960.5000         0.8713        -999.25        -999.25          0.931       -71.6879      -29.23272       0.699652
      5961.0000         0.8993        -999.25        -999.25         0.9312       -46.7535      -4.304893      0.9648415
      5961.5000          0.901        -999.25        -999.25         0.9226       -45.3445      -2.902466       0.979761
      5962.0000         0.8968        -999.25        -999.25          0.905       -44.6359      -2.200436      0.9872294
      5962.5000         0.8924        -999.25        -999.25         0.8788        -43.224     -0.7951088              1
      5963.0000         0.8878        -999.25        -999.25         0.8525       -42.2064      0.2159195              1
      5963.5000         0.8854        -999.25        -999.25         0.8262       -41.4549      0.9608498              1
      5964.0000         0.8854        -999.25        -999.25         0.8088       -41.0978       1.311375              1
      5964.5000         0.9627        -999.25        -999.25         0.8089       -41.0923       1.310303              1
      5965.0000         1.0142        -999.25        -999.25         0.9093       -41.2598        1.13623              1
      5965.5000         1.0107        -999.25        -999.25         1.0096       -41.7843      0.6051559              1
      5966.0000         0.9696        -999.25        -999.25         1.1099       -43.4529      -1.070015      0.9992552
      5966.5000         0.9285        -999.25        -999.25         1.2102       -45.2876      -2.911285      0.9796672
      5967.0000         0.8874        -999.25        -999.25         1.3105       -45.8125      -3.442757      0.9740132
      5967.5000         0.8464        -999.25        -999.25         1.3476       -46.1589      -3.795731      0.9702582
      5968.0000         0.8053        -999.25        -999.25         1.4006        -45.582      -3.225403      0.9763255
      5968.5000         0.7554        -999.25        -999.25          1.392       -45.2688      -2.918774      0.9795875
      5969.0000         0.7501        -999.25        -999.25         1.2397       -45.2634      -2.919949       0.979575
      5969.5000         0.7431        -999.25        -999.25         1.0873       -66.1074      -23.77052      0.7577604
      5970.0000         0.7538        -999.25        -999.25          0.935       -86.9513      -44.62099      0.5359468
      5970.5000         0.7573        -999.25        -999.25         0.7827      -101.1951      -58.87136      0.3843472
      5971.0000         0.7644        -999.25        -999.25         0.6304       -86.3007      -43.98353      0.5427284
      5971.5000         0.7645        -999.25        -999.25         0.4764       -71.4063      -29.09571      0.7011095
      5972.0000         0.7152        -999.25        -999.25         0.4677       -57.7216      -15.41758      0.8466215
      5972.5000          0.666        -999.25        -999.25          0.459       -57.7141      -15.41665      0.8466313
      5973.0000         0.6168        -999.25        -999.25         0.5385       -57.8901      -15.59922      0.8446891
