#------------------------------------------------------------------------------
# Created by    : vladimir.rabinovich
# Created on    : 09/19/2023 17:20:49
#------------------------------------------------------------------------------
~Version Information Section
VERS.           2.0     :   CWLS log ASCII Standard - VERSION 2.0
WRAP.           NO      :   One line per depth step
~Well Information Section
#MNEM       .UNIT                                         VALUE :DESCRIPTION
#------------------------------------------------------------------------------
STRT        .FT                                            1700 :START DEPTH
STOP        .FT                                         12339.5 :STOP DEPTH
STEP        .FT                                             0.5 :STEP      
NULL        .                                           -999.25 :NULL      
COMP        .                            CONQUEST PETROLEUM INC :COMPANY   
WELL        .                                          ST TR 20 :WELL      
FLD         .                                   ALLIGATOR POINT :FIELD     
LOC         .                                                   :LOCATION  
CNTY        .                                          BRAZORIA :LOCATION  
STAT        .                                             TEXAS :STATE     
CTRY        .                                     UNITED STATES :COUNTRY   
SRVC        .                                                   :SERVICE COMPANY
DATE        .                             9/13/2023 11:18:59 AM :LOG DATE  
API         .                                    42039319440000 :API NUMBER
UWI         .                                    42039319440000 :UNIQUE WELL ID
XCOORD      .                                   960684.54934625 :SURFACE X 
YCOORD      .                                  10591984.7936865 :SURFACE Y 
LAT         .                                        29.1692948 :LATITUDE  
LON         .                                        -95.130314 :LONGITUDE 
ELEV        .FT                                              45 :ELEVATION VALUE
ELEV_TYPE   .                                                KB :ELEVATION REFERENCE TYPE
~Curve Information Section
#MNEM       .UNIT                                      API CODE :CURVE DESCRIPTION
#------------------------------------------------------------------------------
DEPT        .FT                                                 :DEPTH     
ASN         .OHMM                                               :          
CILD        .MMHO                                               :          
ILD         .OHMM                                               :          
SP          .MV                                                 :          
SP_NORM     .MV                                                 :SP Normalized
VSH_SP      .V/V                                                :Volume of Shale from SP
~A        DEPTH            ASN           CILD            ILD             SP        SP_NORM         VSH_SP
# ...
      5956.0000         0.5449       6167.906         0.1621         -72.88      -69.35532    0.009343244
      5956.5000         0.5306       6300.497         0.1587         -72.72      -69.19809     0.01162189
      5957.0000         0.5162       6433.088         0.1554         -72.08      -68.56085     0.02085722
      5957.5000         0.5019       6603.895         0.1514         -70.08      -66.56362     0.04980259
      5958.0000         0.4906       6603.892         0.1514         -68.48      -64.96639     0.07295083
      5958.5000         0.5263       6584.036         0.1519          -60.8      -57.28915      0.1842152
      5959.0000           0.57       5929.694         0.1686         -58.96      -55.45192      0.2108417
      5959.5000         0.6137       5275.353         0.1896            -50      -46.49469      0.3406567
      5960.0000         0.6574        3989.48         0.2507         -40.96      -37.45745      0.4716311
      5960.5000         0.7804       3989.475         0.2507         -31.92      -28.42022      0.6026055
      5961.0000         0.7805       1827.059         0.5473         -19.28      -15.78299      0.7857538
      5961.5000         0.7745       1635.123         0.6116          -14.4      -10.90575      0.8564383
      5962.0000         0.7659       1583.505         0.6315         -13.36      -9.868521      0.8714707
      5962.5000         0.7547       1380.552         0.7243         -10.24      -6.751287       0.916648
      5963.0000         0.7547       1177.599         0.8492            -10      -6.514054      0.9200861
      5963.5000         0.7566       1031.629         0.9693          -11.6      -8.116821      0.8968577
      5964.0000         0.8171       1142.581         0.8752         -13.28      -9.799587      0.8724697
      5964.5000         0.8775       1253.533         0.7977         -14.88      -11.40236      0.8492413
      5965.0000         0.9379       1364.485         0.7329         -16.48      -13.00512      0.8260127
      5965.5000         0.9983       1475.438         0.6778         -17.76      -14.28789      0.8074219
      5966.0000         1.0524        1586.39         0.6304          -16.4      -12.93065       0.827092
      5966.5000         1.0584       1734.326         0.5766          -13.2      -9.733421      0.8734287
      5967.0000         1.0544       1766.083         0.5753          -12.4      -8.936188      0.8849828
      5967.5000          0.939       1730.348         0.5806          -11.2      -7.738955       0.902334
      5968.0000           0.84       1690.276         0.5893         -10.24      -6.781721       0.916207
      5968.5000         0.7737       1650.204         0.6171          -9.44      -5.984488      0.9277611
      5969.0000         0.6395       1610.133         0.5873          -8.24      -4.787254      0.9451122
      5969.5000         0.6475       1570.061         0.5411          -6.64      -3.190022      0.9682606
      5970.0000         0.6625       1515.929         0.4948          -5.84      -2.392788      0.9798146
      5970.5000         0.6776       1726.351         0.4486         -27.68      -24.23556      0.6632528
      5971.0000         0.6926        2113.81         0.4023         -32.48      -29.03832      0.5936475
      5971.5000          0.713        2501.27         0.3561          -38.4      -34.96109      0.5078103
      5972.0000         0.6793       4005.241         0.3098         -44.24      -40.80386      0.4231325
      5972.5000         0.6376       4005.239         0.2636         -50.16      -46.72662      0.3372953
      5973.0000          0.582       4005.234         0.2173         -56.32      -52.88939      0.2479799
      5973.5000         0.5423       4005.227         0.1711         -56.32      -52.89215      0.2479398
      5974.0000         0.4947        5134.75         0.1309         -56.32      -52.89492      0.2478997
      5974.5000         0.4828       5516.673         0.1813         -54.16      -50.73769      0.2791639
      5975.0000         0.4828       5898.595         0.1695            -52      -48.58046      0.3104282
      5975.5000         0.4847       6425.055         0.1556         -50.72      -47.30322      0.3289388
      5976.0000         0.4887       6425.053         0.1556         -50.56      -47.14599      0.3312176
      5976.5000         0.4986        6413.14         0.1559         -50.56      -47.14876      0.3311774
      5977.0000         0.5125       5999.257         0.1667         -50.72      -47.31152      0.3288185
      5977.5000         0.5245       5585.374          0.179         -50.16      -46.75429      0.3368944
      5978.0000         0.5384       5171.491         0.1934         -47.52      -44.11706      0.3751151
      5978.5000         0.5602       4011.811         0.2493            -40      -36.59982      0.4840605
      5979.0000          0.588       3294.499         0.3035          -32.4      -29.00259      0.5941654
      5979.5000         0.6158       3159.512         0.3165         -24.88      -21.48536      0.7031108
      5980.0000         0.6614       2735.209         0.3656         -13.76      -10.36812      0.8642301
      5980.5000          0.727       2310.906         0.4327         -13.76      -10.37089        0.86419
      5981.0000         0.7508        2024.01         0.5833         -14.16      -10.77366      0.8583528
      5981.5000         0.7647        1845.22         0.5833         -14.96      -11.57642      0.8467185
      5982.0000         0.7825       1682.561         0.5833         -16.16      -12.77919      0.8292871
      5982.5000         0.7845       1694.467          0.586         -17.28      -13.90196      0.8130151
      5983.0000         0.7945       1702.402         0.5929         -18.96      -15.58472      0.7886272
      5983.5000         0.8143       1702.397         0.5986         -18.16      -14.78749      0.8001813
      5984.0000         0.8381       1702.392         0.6366          -16.4      -13.03026      0.8256485
      5984.5000         0.8818       1424.469         0.6797         -14.64      -11.27302      0.8511156
      5985.0000         0.9453       1371.395         0.7292         -12.88      -9.515789      0.8765827
      5985.5000         0.9731       1271.647         0.7864         -10.64      -7.278556      0.9090064
      5986.0000         1.0349       1171.899         0.8533         -10.24      -6.881323      0.9147635
      5986.5000         1.0968       1072.151         0.9327            -10       -6.64409      0.9182016
      5987.0000         1.1855        972.403         1.0284          -9.84      -6.486856      0.9204804
      5987.5000         1.1855        828.906         1.2064         -12.64      -9.289623      0.8798605
      5988.0000         1.1677       832.8737         1.2007            -16      -12.65239      0.8311248
      5988.5000         1.0687       852.7224         1.1727          -21.6      -18.25516      0.7499253
      5989.0000         0.9697       892.4171         1.1206          -27.2      -23.85792      0.6687257
      5989.5000         0.8707       2019.953         0.4951          -32.8      -29.46069      0.5875263
      5990.0000         0.6019       4007.532         0.2495         -38.48      -35.14346      0.5051673
      5990.5000         0.5821       4610.519         0.2169         -44.08      -40.74622      0.4239678
      5991.0000         0.5543       4897.947         0.2042         -49.68      -46.34899      0.3427683
      5991.5000         0.5444       5317.204         0.1881         -52.88      -49.55176      0.2963513
      5992.0000         0.5146       5317.201         0.1881         -51.68      -48.35452      0.3137026
      5992.5000         0.5106       5313.226         0.1882         -45.76      -42.43729      0.3994596
      5993.0000         0.5027       5317.191         0.1881         -39.84      -36.52006      0.4852166
      5993.5000          0.595        4006.23         0.2496         -33.92      -30.60282      0.5709736
