#------------------------------------------------------------------------------
# Created by    : vladimir.rabinovich
# Created on    : 09/19/2023 17:20:49
#------------------------------------------------------------------------------
~Version Information Section
VERS.           2.0     :   CWLS log ASCII Standard - VERSION 2.0
WRAP.           NO      :   One line per depth step
~Well Information Section
#MNEM       .UNIT                                         VALUE :DESCRIPTION
#------------------------------------------------------------------------------
STRT        .FT                                            1700 :START DEPTH
STOP        .FT                                         12339.5 :STOP DEPTH
STEP        .FT                                             0.5 :STEP      
NULL        .                                           -999.25 :NULL      
COMP        .                            CONQUEST PETROLEUM INC :COMPANY   
WELL        .                                          ST TR 20 :WELL      
FLD         .                                   ALLIGATOR POINT :FIELD     
LOC         .                                                   :LOCATION  
CNTY        .                                          BRAZORIA :LOCATION  
STAT        .                                             TEXAS :STATE     
CTRY        .                                     UNITED STATES :COUNTRY   
SRVC        .                                                   :SERVICE COMPANY
DATE        .                             9/13/2023 11:18:59 AM :LOG DATE  
API         .                                    42039319440000 :API NUMBER
UWI         .                                    42039319440000 :UNIQUE WELL ID
XCOORD      .                                   960684.54934625 :SURFACE X 
YCOORD      .                                  10591984.7936865 :SURFACE Y 
LAT         .                                        29.1692948 :LATITUDE  
LON         .                                        -95.130314 :LONGITUDE 
ELEV        .FT                                              45 :ELEVATION VALUE
ELEV_TYPE   .                                                KB :ELEVATION REFERENCE TYPE
~Curve Information Section
#MNEM       .UNIT                                      API CODE :CURVE DESCRIPTION
#------------------------------------------------------------------------------
DEPT        .FT                                                 :DEPTH     
ASN         .OHMM                                               :          
CILD        .MMHO                                               :          
ILD         .OHMM                                               :          
SP          .MV                                                 :          
SP_NORM     .MV                                                 :SP Normalized
VSH_SP      .V/V                                                :Volume of Shale from SP
~A        DEPTH            ASN           CILD            ILD             SP        SP_NORM         VSH_SP
# ...
      3106.0000         1.1132       1358.234         0.7592         -31.36       -27.0889      0.4675734
      3106.5000         1.1187       1318.417         0.7886         -28.56      -24.28616      0.5247722
      3107.0000         1.1253        1246.81         0.8203         -25.76      -21.48342       0.581971
      3107.5000         1.0933       1169.925         0.8548         -22.88      -18.60068      0.6408026
      3108.0000         1.0612       1120.831         0.8922         -20.08      -15.79793      0.6980014
      3108.5000         1.0292       1071.737         0.9331          -17.2      -12.91519      0.7568328
      3109.0000         0.9972       1031.868         0.9691         -13.68       -9.39245      0.8287255
      3109.5000         0.9652       1166.897          0.857         -14.64      -10.34971      0.8091896
      3110.0000         0.9332       1190.699         0.8398         -15.44      -11.14697      0.7929191
      3110.5000         0.9012       1250.226         0.7999         -15.84      -11.54422      0.7848117
      3111.0000         0.8692       1297.832         0.7705          -16.4      -12.10148      0.7734392
      3111.5000         0.8395       1317.621         0.7589          -17.6      -13.29874      0.7490053
      3112.0000         0.8415       1325.489         0.7544         -18.16        -13.856      0.7376327
      3112.5000         0.8435       1337.331         0.7478         -18.56      -14.25325      0.7295254
      3113.0000         0.9427        1357.12         0.7369         -24.64      -20.33051      0.6054997
      3113.5000         1.0761       1368.962         0.7305         -27.04      -22.72777      0.5565761
      3114.0000          1.084       1380.804         0.7242         -29.36      -25.04503      0.5092852
      3114.5000         1.2172       1384.698         0.7222         -31.76      -27.44229      0.4603615
      3115.0000         1.1855       1388.592         0.7202         -34.64      -30.31954       0.401642
      3115.5000         1.1421       1408.342         0.7161          -34.4      -30.07681      0.4065958
      3116.0000         1.0987       1420.223         0.7101         -33.44      -29.11406      0.4262437
      3116.5000         1.0553       1424.157         0.7042         -31.52      -27.19132      0.4654833
      3117.0000         1.0119       1435.959         0.7122         -29.68      -25.34858      0.5030903
      3117.5000         1.0048        1435.88         0.6964            -30      -25.66583      0.4966156
      3118.0000          0.989       1443.787         0.6814         -32.72      -28.38309      0.4411614
      3118.5000         0.9811       1511.782         0.6615         -35.44      -31.10035      0.3857071
      3119.0000         0.9692       1555.975         0.6427         -38.16      -33.81761      0.3302529
      3119.5000         0.9573       1649.744         0.6062         -40.88      -36.53487      0.2747986
      3120.0000         0.9454       1716.777         0.5825          -43.6      -39.25212      0.2193445
      3120.5000         0.9057        1783.81         0.5606         -46.32      -41.96938      0.1638901
      3121.0000         0.8303       1850.844         0.5403         -47.84      -43.48664      0.1329257
      3121.5000         0.8204       1917.877         0.5214         -47.28       -42.9239      0.1444103
      3122.0000         0.7926       1987.558         0.5031          -45.6      -41.24115       0.178752
      3122.5000         0.7767       2252.357          0.444         -44.24      -39.87841       0.206563
      3123.0000         0.7589       2517.156         0.3973         -45.92      -41.55567      0.1723332
      3123.5000          0.751       2781.955         0.3595         -47.12      -42.75293      0.1478994
      3124.0000         0.7391       3046.754         0.3282         -48.48      -44.11019      0.1202003
      3124.5000         0.7332       3311.553          0.302         -50.32      -45.94744     0.08270521
      3125.0000         0.7292       3576.352         0.2796         -52.24       -47.8647     0.04357747
      3125.5000         0.7293       3841.151         0.2603         -54.08      -49.70196    0.006082418
      3126.0000         0.7313       3819.029         0.2618          -55.2      -50.81922              0
      3126.5000         0.7373       4099.141          0.244         -56.24      -51.85648              0
      3127.0000         0.7453       4166.575           0.24            -58      -53.61374              0
      3127.5000         0.7493       4170.509         0.2398          -58.4      -54.01099              0
      3128.0000         0.7653       4153.163         0.2408          -58.4      -54.00825              0
      3128.5000         0.7653       4135.817         0.2418          -58.4      -54.00551              0
      3129.0000         0.7673       4118.471         0.2428         -58.16      -53.76277              0
      3129.5000         0.7157       4101.125         0.2438         -57.36      -52.96003              0
      3130.0000         0.6899       4083.778         0.2449         -56.56      -52.15728              0
      3130.5000          0.676       4066.432         0.2459          -54.8      -50.39454              0
      3131.0000         0.6582       4046.725         0.2471         -53.84       -49.4318     0.01159598
      3131.5000         0.6463        3993.04         0.2504         -53.44      -49.02905     0.01981525
      3132.0000         0.6424       3973.091         0.2517          -53.2      -48.78632     0.02476906
      3132.5000         0.6424       3925.287         0.2548          -53.2      -48.78357     0.02482504
      3133.0000         0.6425       3869.574         0.2584         -52.96      -48.54083     0.02977901
      3133.5000         0.6485       3833.731         0.2608          -52.8      -48.37809     0.03310028
      3134.0000         0.6545       3825.704         0.2614          -52.8      -48.37534     0.03315626
      3134.5000         0.6605       3825.624         0.2614         -52.08      -47.65261     0.04790598
      3135.0000         0.6824       3920.915          0.255         -52.96      -48.52986     0.03000283
      3135.5000         0.6824       3924.849         0.2548         -53.76      -49.32712     0.01373229
      3136.0000         0.6685        3956.56         0.2527         -54.56      -50.12438              0
      3136.5000         0.6546       3992.244         0.2505         -55.44      -51.00163              0
      3137.0000         0.6378        4161.01         0.2403         -56.24       -51.7989              0
      3137.5000          0.621       4180.879         0.2392         -57.04      -52.59615              0
      3138.0000         0.6041       4265.188         0.2345         -58.24      -53.79341              0
      3138.5000         0.5873       4349.499         0.2299         -58.24      -53.79067              0
      3139.0000         0.5893       4433.808         0.2255         -58.08      -53.62793              0
      3139.5000         0.6052       4518.118         0.2213            -58      -53.54518              0
      3140.0000         0.6211       4602.428         0.2173          -56.4      -51.94244              0
      3140.5000         0.6371       4686.737         0.2134          -56.4       -51.9397              0
      3141.0000         0.6351       4771.047         0.2096          -57.2      -52.73696              0
      3141.5000         0.6252       4871.679         0.2053         -58.56      -54.09422              0
      3142.0000         0.5984       4823.993         0.2073         -58.56      -54.09147              0
      3142.5000         0.5715       4574.583         0.2186            -58      -53.52873              0
      3143.0000         0.5446       4325.172         0.2312          -55.2      -50.72599              0
      3143.5000         0.5178       4132.199          0.242         -52.48      -48.00325     0.04075008
