#------------------------------------------------------------------------------
# Created by    : vladimir.rabinovich
# Created on    : 09/19/2023 17:20:50
#------------------------------------------------------------------------------
~Version Information Section
VERS.           2.0     :   CWLS log ASCII Standard - VERSION 2.0
WRAP.           NO      :   One line per depth step
~Well Information Section
#MNEM       .UNIT                                         VALUE :DESCRIPTION
#------------------------------------------------------------------------------
STRT        .FT                                            1116 :START DEPTH
STOP        .FT                                            6700 :STOP DEPTH
STEP        .FT                                             0.5 :STEP      
NULL        .                                           -999.25 :NULL      
COMP        .                               BRAZOS OIL & GAS CO :COMPANY   
WELL        .                                    STATE OF TEXAS :WELL      
FLD         .                                   ALLIGATOR POINT :FIELD     
LOC         .                                                   :LOCATION  
CNTY        .                                          BRAZORIA :LOCATION  
STAT        .                                             TEXAS :STATE     
CTRY        .                                     UNITED STATES :COUNTRY   
SRVC        .                                                   :SERVICE COMPANY
DATE        .                             9/13/2023 11:18:59 AM :LOG DATE  
API         .                                    42039045100000 :API NUMBER
UWI         .                                    42039045100000 :UNIQUE WELL ID
XCOORD      .                                  970513.493421445 :SURFACE X 
YCOORD      .                                   10588404.291611 :SURFACE Y 
LAT         .                                        29.1599373 :LATITUDE  
LON         .                                       -95.0993265 :LONGITUDE 
ELEV        .FT                                              22 :ELEVATION VALUE
ELEV_TYPE   .                                                KB :ELEVATION REFERENCE TYPE
~Curve Information Section
#MNEM       .UNIT                                      API CODE :CURVE DESCRIPTION
#------------------------------------------------------------------------------
DEPT        .FT                                                 :DEPTH     
ASN         .OHMM                                               :          
CILD        .MMHO                                               :          
ILD         .OHMM                                               :          
LAT         .OHMM                                               :          
SP          .MV                                                 :          
SP_NORM     .MV                                                 :SP Normalized
VSH_SP      .V/V                                                :Volume of Shale from SP
~A        DEPTH            ASN           CILD            ILD            LAT             SP        SP_NORM         VSH_SP
# ...
      6677.0000         1.0957       985.5663         1.0248        -999.25        -40.154      0.3367996              1
      6677.5000         1.0904       992.5864         1.0072        -999.25       -40.6425     -0.1517029              1
      6678.0000         1.0869       997.8462         1.0026        -999.25       -41.1311     -0.6403008              1
      6678.5000         1.0816       1001.346         0.9946        -999.25       -41.6196      -1.128799      0.9986298
      6679.0000         1.0781       1004.846         0.9946        -999.25       -41.9103      -1.419502      0.9955372
      6679.5000         1.0746       994.2627         0.9946        -999.25         -41.06     -0.5692024              1
      6680.0000         1.0764       980.1591         0.9946        -999.25       -40.1328      0.3579979              1
      6680.5000         1.0841        974.857         0.9946        -999.25       -39.5729      0.9179001              1
      6681.0000         1.0917       973.0755         1.0034        -999.25       -39.2431         1.2477              1
      6681.5000         1.0994       973.0544         1.0123        -999.25       -39.7374      0.7533989              1
      6682.0000         1.1071        976.554         1.0299        -999.25       -40.2316      0.2591972              1
      6682.5000         1.1169       980.0536         1.0299        -999.25       -40.7259     -0.2350998              1
      6683.0000         1.1116       985.3138         1.0299        -999.25       -41.2202     -0.7294006              1
      6683.5000         1.0984       988.8135         1.0299        -999.25       -42.0569      -1.566101      0.9939777
      6684.0000         1.0852        990.553         1.0211        -999.25       -42.0553      -1.564503      0.9939947
      6684.5000          1.072       997.5737         1.0035        -999.25       -41.8751        -1.3843      0.9959117
      6685.0000         1.0465       1001.074         0.9947        -999.25       -41.4019     -0.9111023              1
      6685.5000           1.05       1006.334         0.9947        -999.25       -41.3394     -0.8486023              1
      6686.0000         1.0518       1008.074         0.9947        -999.25       -40.9805     -0.4897003              1
      6686.5000         1.0553       1002.771         0.9947        -999.25       -40.4462     0.04459763              1
      6687.0000         1.1178       999.2399         0.9947        -999.25        -40.266      0.2248001              1
      6687.5000         1.1416       977.0579         1.0035        -999.25         -39.73      0.7607994              1
      6688.0000         1.1654       954.8759         1.0123        -999.25       -39.7284      0.7623978              1
      6688.5000         1.1891       932.6939         1.0564        -999.25       -39.7251      0.7656975              1
      6689.0000         1.2129        910.512         1.0828        -999.25       -39.7235      0.7672997              1
      6689.5000         1.2367         888.33         1.1004        -999.25       -40.1537      0.3370972              1
      6690.0000         1.2605       868.8213         1.1268        -999.25        -40.584    -0.09320068              1
      6690.5000         1.2737       861.7571         1.1356        -999.25       -41.0142     -0.5233994              1
      6691.0000         1.2737       861.7352         1.1356        -999.25       -41.3023     -0.8115005              1
      6691.5000         1.2494       870.5163         1.1268        -999.25       -41.4762     -0.9854012              1
      6692.0000          1.225       879.2975          1.118        -999.25        -41.473     -0.9822006              1
      6692.5000         1.2007       891.6002         1.1092        -999.25       -41.4697     -0.9789009              1
      6693.0000         1.1764       900.3817         1.1092        -999.25       -41.1229     -0.6320992              1
      6693.5000          1.152       919.7273         1.0916        -999.25       -40.7762     -0.2854004              1
      6694.0000         1.1259       932.0305         1.0829        -999.25       -40.4294     0.06139755              1
      6694.5000         1.1259       949.6159         1.0653        -999.25       -40.0826      0.4081993              1
      6695.0000         1.1514       960.1587         1.0565        -999.25       -39.7358      0.7549973              1
      6695.5000         1.1734       970.7018         1.0477        -999.25       -39.3234         1.1674              1
      6696.0000         1.1734       979.4842         1.0477        -999.25       -38.9914       1.499397              1
      6696.5000         1.1473       968.8987         1.0389        -999.25       -38.6594       1.831398              1
      6697.0000         1.1212       963.5953         1.0389        -999.25       -38.4296       2.061199              1
      6697.5000         1.0951       963.5741         1.0301        -999.25       -38.4263       2.064499              1
      6698.0000          1.072       972.3568         1.0301        -999.25       -38.6001       1.890697              1
      6698.5000          1.052       982.9003         1.0301        -999.25       -38.7428       1.747997              1
      6699.0000         1.0312       1011.052         1.0213        -999.25       -38.7706         1.7202              1
      6699.5000         1.0104       1014.553         1.0125        -999.25       -39.0582       1.432598              1
      6700.0000         0.9896       1003.967         0.9811        -999.25       -39.2955       1.195297              1
