#------------------------------------------------------------------------------
# Created by    : vladimir.rabinovich
# Created on    : 09/19/2023 17:20:50
#------------------------------------------------------------------------------
~Version Information Section
VERS.           2.0     :   CWLS log ASCII Standard - VERSION 2.0
WRAP.           NO      :   One line per depth step
~Well Information Section
#MNEM       .UNIT                                         VALUE :DESCRIPTION
#------------------------------------------------------------------------------
STRT        .FT                                            1116 :START DEPTH
STOP        .FT                                            6700 :STOP DEPTH
STEP        .FT                                             0.5 :STEP      
NULL        .                                           -999.25 :NULL      
COMP        .                               BRAZOS OIL & GAS CO :COMPANY   
WELL        .                                    STATE OF TEXAS :WELL      
FLD         .                                   ALLIGATOR POINT :FIELD     
LOC         .                                                   :LOCATION  
CNTY        .                                          BRAZORIA :LOCATION  
STAT        .                                             TEXAS :STATE     
CTRY        .                                     UNITED STATES :COUNTRY   
SRVC        .                                                   :SERVICE COMPANY
DATE        .                             9/13/2023 11:18:59 AM :LOG DATE  
API         .                                    42039045100000 :API NUMBER
UWI         .                                    42039045100000 :UNIQUE WELL ID
XCOORD      .                                  970513.493421445 :SURFACE X 
YCOORD      .                                   10588404.291611 :SURFACE Y 
LAT         .                                        29.1599373 :LATITUDE  
LON         .                                       -95.0993265 :LONGITUDE 
ELEV        .FT                                              22 :ELEVATION VALUE
ELEV_TYPE   .                                                KB :ELEVATION REFERENCE TYPE
~Curve Information Section
#MNEM       .UNIT                                      API CODE :CURVE DESCRIPTION
#------------------------------------------------------------------------------
DEPT        .FT                                                 :DEPTH     
ASN         .OHMM                                               :          
CILD        .MMHO                                               :          
ILD         .OHMM                                               :          
LAT         .OHMM                                               :          
SP          .MV                                                 :          
SP_NORM     .MV                                                 :SP Normalized
VSH_SP      .V/V                                                :Volume of Shale from SP
~A        DEPTH            ASN           CILD            ILD            LAT             SP        SP_NORM         VSH_SP
# ...
      2958.5000         1.0543        -999.25        -999.25         0.7691      -118.0424      -66.34493      0.1831883
      2959.0000         1.0969        -999.25        -999.25         0.7606      -116.7454       -65.0667      0.1991663
      2959.5000          1.067        -999.25        -999.25         0.7433      -115.3728      -63.71287      0.2160891
      2960.0000          1.037        -999.25        -999.25         0.7435      -115.3696      -63.72843      0.2158946
      2960.5000         1.0076        -999.25        -999.25         0.7262       -115.268       -63.6456      0.2169301
      2961.0000          1.015        -999.25        -999.25         0.7177      -115.0007      -63.39707      0.2200367
      2961.5000         1.0223        -999.25        -999.25         0.7004       -115.347      -63.76213      0.2154734
      2962.0000         1.0288        -999.25        -999.25         0.6831      -116.0475       -64.4814      0.2064825
      2962.5000         1.0271        -999.25        -999.25         0.6746      -116.7481      -65.20076      0.1974905
      2963.0000         1.0219        -999.25        -999.25         0.6748      -117.4486      -65.92003      0.1884996
      2963.5000         0.9821        -999.25        -999.25         0.6663      -118.1492       -66.6394      0.1795075
      2964.0000         0.9343        -999.25        -999.25         0.6578      -118.8421      -67.35106      0.1706118
      2964.5000         0.9414        -999.25        -999.25         0.6493       -119.012      -67.53973      0.1682534
      2965.0000         0.9468        -999.25        -999.25         0.6407       -119.182      -67.72849      0.1658938
      2965.5000          0.952        -999.25        -999.25          0.641      -119.1756      -67.74086      0.1657393
      2966.0000          0.952        -999.25        -999.25         0.6325      -118.9927      -67.57672       0.167791
      2966.5000         0.9279        -999.25        -999.25         0.6327      -118.2808      -66.88359      0.1764551
      2967.0000         0.9038        -999.25        -999.25         0.6329       -116.417      -65.03856       0.199518
      2967.5000         0.8797        -999.25        -999.25         0.6507      -114.5533      -63.19362      0.2225798
      2968.0000         0.8556        -999.25        -999.25         0.6685      -112.2614      -60.92049      0.2509939
      2968.5000         0.8312        -999.25        -999.25           0.66       -91.3874      -40.06525      0.5116844
      2969.0000          0.833        -999.25        -999.25         0.7341       -70.5133      -19.20992      0.7723761
      2969.5000         0.8558        -999.25        -999.25         0.8081       -54.0269      -2.742287      0.9782214
      2970.0000         0.8785        -999.25        -999.25         0.8822       -52.0624     -0.7965508              1
      2970.5000         0.9013        -999.25        -999.25         0.9563       -50.0979       1.149185              1
      2971.0000         0.9241        -999.25        -999.25         1.0209       -48.5388       2.689518              1
      2971.5000         0.9469        -999.25        -999.25          1.021       -48.3556       2.853954              1
      2972.0000         0.9701        -999.25        -999.25         1.0014       -48.1724       3.018387              1
      2972.5000         0.9403        -999.25        -999.25         0.9818        -48.342       2.830021              1
      2973.0000         0.9281        -999.25        -999.25         0.9623       -49.0373       2.115955              1
      2973.5000         0.9106        -999.25        -999.25         0.9427       -49.7395       1.394989              1
      2974.0000         0.8931        -999.25        -999.25         0.9231       -51.1334    -0.01767731              1
      2974.5000         0.8756        -999.25        -999.25         0.9035       -52.5274      -1.430443      0.9946195
      2975.0000         0.8651        -999.25        -999.25         0.8839       -54.3018       -3.22361      0.9722049
      2975.5000         0.8564        -999.25        -999.25         0.8652       -54.9786      -3.919174      0.9635103
      2976.0000         0.8494        -999.25        -999.25         0.8567       -55.5264      -4.485741      0.9564282
      2976.5000         0.8425        -999.25        -999.25         0.8569       -55.8724      -4.850506      0.9518687
      2977.0000         0.8355        -999.25        -999.25         0.8484        -56.042      -5.038872      0.9495141
      2977.5000         0.8303        -999.25        -999.25         0.8486       -56.2116      -5.227238      0.9471595
      2978.0000         0.8321        -999.25        -999.25         0.8577       -53.8265      -2.860905      0.9767387
      2978.5000         0.8339        -999.25        -999.25         0.8754       -51.4414     -0.4945679              1
      2979.0000         0.8339        -999.25        -999.25         0.8583       -49.0563       1.871765              1
      2979.5000         0.8305        -999.25        -999.25         0.7884       -46.6557       4.253597              1
      2980.0000         0.8235        -999.25        -999.25         0.7708       -45.7669       5.123634              1
      2980.5000         0.8165        -999.25        -999.25          0.736       -45.5837       5.288071              1
      2981.0000         0.8078        -999.25        -999.25         0.7099       -45.3971       5.455902              1
      2981.5000         0.8078        -999.25        -999.25         0.6926       -45.3937       5.440536              1
      2982.0000         0.8061        -999.25        -999.25         0.6929       -45.9195       4.895973              1
      2982.5000         0.8062        -999.25        -999.25         0.6931       -46.8666       3.930103              1
      2983.0000          0.808        -999.25        -999.25         0.6933       -47.8429        2.93504              1
      2983.5000         0.8098        -999.25        -999.25         0.6936       -48.8425       1.916672              1
      2984.0000         0.8239        -999.25        -999.25         0.6851       -49.5967       1.143707              1
      2984.5000         0.8292        -999.25        -999.25         0.6853       -49.5899       1.131741              1
      2985.0000         0.8415        -999.25        -999.25         0.6943       -49.7595      0.9433746              1
      2985.5000         0.8485        -999.25        -999.25         0.7033       -49.7527      0.9314079              1
      2986.0000         0.8609        -999.25        -999.25         0.7299       -49.7459       0.919445              1
      2986.5000         0.8732        -999.25        -999.25         0.7478       -49.7425      0.9040756              1
      2987.0000         0.8873        -999.25        -999.25         0.7743       -49.2077       1.420113              1
      2987.5000         0.9013        -999.25        -999.25         0.8009        -48.673       1.936047              1
      2988.0000         0.9119        -999.25        -999.25         0.8275       -48.1276       2.462677              1
      2988.5000          0.919        -999.25        -999.25          0.854       -47.9466       2.624912              1
      2989.0000         0.9225        -999.25        -999.25         0.8981        -47.941       2.611748              1
      2989.5000         0.9243        -999.25        -999.25         0.9334        -48.114       2.419983              1
      2990.0000         0.9367        -999.25        -999.25         1.0126       -48.9859       1.529316              1
      2990.5000          0.935        -999.25        -999.25         0.9779       -50.3904      0.1060524              1
      2991.0000         0.9315        -999.25        -999.25         1.0219       -51.4913      -1.013615      0.9998298
      2991.5000         0.9298        -999.25        -999.25         1.0572       -52.5922      -2.133282       0.985834
