#------------------------------------------------------------------------------
# Created by    : vladimir.rabinovich
# Created on    : 09/19/2023 17:20:49
#------------------------------------------------------------------------------
~Version Information Section
VERS.           2.0     :   CWLS log ASCII Standard - VERSION 2.0
WRAP.           NO      :   One line per depth step
~Well Information Section
#MNEM       .UNIT                                         VALUE :DESCRIPTION
#------------------------------------------------------------------------------
STRT        .FT                                            1700 :START DEPTH
STOP        .FT                                         12339.5 :STOP DEPTH
STEP        .FT                                             0.5 :STEP      
NULL        .                                           -999.25 :NULL      
COMP        .                            CONQUEST PETROLEUM INC :COMPANY   
WELL        .                                          ST TR 20 :WELL      
FLD         .                                   ALLIGATOR POINT :FIELD     
LOC         .                                                   :LOCATION  
CNTY        .                                          BRAZORIA :LOCATION  
STAT        .                                             TEXAS :STATE     
CTRY        .                                     UNITED STATES :COUNTRY   
SRVC        .                                                   :SERVICE COMPANY
DATE        .                             9/13/2023 11:18:59 AM :LOG DATE  
API         .                                    42039319440000 :API NUMBER
UWI         .                                    42039319440000 :UNIQUE WELL ID
XCOORD      .                                   960684.54934625 :SURFACE X 
YCOORD      .                                  10591984.7936865 :SURFACE Y 
LAT         .                                        29.1692948 :LATITUDE  
LON         .                                        -95.130314 :LONGITUDE 
ELEV        .FT                                              45 :ELEVATION VALUE
ELEV_TYPE   .                                                KB :ELEVATION REFERENCE TYPE
~Curve Information Section
#MNEM       .UNIT                                      API CODE :CURVE DESCRIPTION
#------------------------------------------------------------------------------
DEPT        .FT                                                 :DEPTH     
ASN         .OHMM                                               :          
CILD        .MMHO                                               :          
ILD         .OHMM                                               :          
SP          .MV                                                 :          
SP_NORM     .MV                                                 :SP Normalized
VSH_SP      .V/V                                                :Volume of Shale from SP
~A        DEPTH            ASN           CILD            ILD             SP        SP_NORM         VSH_SP
# ...
      9490.0000         0.4411       2182.738         0.4581         -10.56      0.4829445              1
      9490.5000         0.4391         2168.6         0.4611         -11.24     -0.1970549              1
      9491.0000         0.4371       2154.462         0.4642         -11.92     -0.8770552              1
      9491.5000         0.4371       2140.323         0.4672         -12.64      -1.597055      0.9902122
      9492.0000         0.4371       2127.411         0.4701         -13.32      -2.277055      0.9790647
      9492.5000         0.4391       2131.369         0.4692            -14      -2.957055      0.9679171
      9493.0000         0.4391       2141.063         0.4671         -14.76      -3.717055      0.9554581
      9493.5000          0.441       2150.757          0.465         -14.84      -3.797055      0.9541466
      9494.0000          0.441       2160.452         0.4629         -14.96      -3.917055      0.9521794
      9494.5000          0.441       2170.146         0.4608         -13.92      -2.877055      0.9692286
      9495.0000          0.439        2179.84         0.4587         -12.88      -1.837055      0.9862778
      9495.5000         0.4371       2189.534         0.4567         -11.56     -0.5170555              1
      9496.0000         0.4351       2199.228         0.4547         -11.68     -0.6370554              1
      9496.5000         0.4331       2208.923         0.4527         -12.24      -1.197055      0.9967696
      9497.0000         0.4331       2218.617         0.4507         -12.84      -1.797055      0.9869335
      9497.5000         0.4331       2234.269         0.4476         -13.44      -2.397055      0.9770975
      9498.0000         0.4351       2238.228         0.4468         -14.04      -2.997055      0.9672614
      9498.5000          0.435       2234.281          0.446         -14.64      -3.597055      0.9574253
      9499.0000          0.437       2234.289          0.454         -15.28      -4.237055      0.9469335
      9499.5000          0.441       2226.387         0.4556         -14.68      -3.637055      0.9567696
      9500.0000         0.4449       2218.482         0.4615          -13.8      -2.757055      0.9711958
      9500.5000         0.4484       2189.128         0.4669         -12.92      -1.877055       0.985622
      9501.0000         0.4488       2158.457         0.4735         -13.04      -1.997055      0.9836549
      9501.5000         0.4528       2127.786         0.4798         -13.08      -2.037055      0.9829991
      9502.0000         0.4567       2097.115         0.4835         -13.56      -2.517056      0.9751303
      9502.5000         0.4626       2066.444         0.4853         -14.08      -3.037055      0.9666057
      9503.0000         0.4685        2060.52         0.4872         -13.48      -2.437055      0.9764417
      9503.5000         0.4685       2056.603         0.4844         -12.68      -1.637055      0.9895565
      9504.0000         0.4665       2052.687         0.4844         -12.16      -1.117055      0.9980811
      9504.5000         0.4645        2056.68         0.4825         -11.36     -0.3170547              1
      9505.0000         0.4606       2064.626         0.4761         -10.36      0.6829453              1
      9505.5000         0.4546       2080.482         0.4682         -10.76      0.2829447              1
      9506.0000         0.4526       2175.445         0.4597         -11.76     -0.7170553              1
      9506.5000         0.4506       2195.255         0.4555         -12.68      -1.637055      0.9895565
      9507.0000         0.4506       2199.247         0.4547         -13.48      -2.437055      0.9764417
      9507.5000         0.4506       2195.331         0.4555         -14.16      -3.117055      0.9652942
      9508.0000         0.4506       2183.506          0.458         -14.08      -3.037055      0.9666057
      9508.5000         0.4525       2155.863         0.4639         -13.56      -2.517056      0.9751303
      9509.0000         0.4565       2140.065         0.4673         -12.88      -1.837055      0.9862778
      9509.5000         0.4584       2053.107         0.4871         -12.56      -1.517056      0.9915237
      9510.0000         0.4584       1966.149         0.5086          -12.2      -1.157055      0.9974253
      9510.5000         0.4584       1898.963         0.5266          -11.8     -0.7570553              1
      9511.0000         0.5078       1887.138         0.5299            -11     0.04294491              1
      9511.5000         0.5196       1815.998         0.5507          -10.8      0.2429447              1
      9512.0000         0.5295       1764.629         0.5667         -10.68      0.3629446              1
      9512.5000         0.5374       1713.261         0.5837          -10.6      0.4429445              1
      9513.0000         0.5453       1681.664         0.5946         -10.28      0.7629452              1
      9513.5000         0.5492       1665.885         0.6003            -10       1.042945              1
      9514.0000         0.5512       1642.198         0.6089          -9.68       1.362945              1
      9514.5000         0.5512       1650.145          0.606          -9.68       1.362945              1
      9515.0000         0.5492       1669.955         0.5988          -9.68       1.362945              1
      9515.5000         0.5472       1703.683          0.587           -9.8       1.242945              1
      9516.0000         0.5412       1737.411         0.5756          -9.88       1.162945              1
      9516.5000         0.5333       1771.139         0.5646         -10.08       0.962945              1
      9517.0000         0.5234       1804.866         0.5541          -10.2      0.8429451              1
      9517.5000         0.5135       1838.594         0.5439         -10.28      0.7629452              1
      9518.0000         0.5056       1872.322         0.5341         -10.28      0.7629452              1
      9518.5000         0.4996        1906.05         0.5246          -10.4      0.6429453              1
      9519.0000         0.5075       1939.778         0.5155          -10.2      0.8429451              1
      9519.5000         0.4945       1973.506         0.5067            -10       1.042945              1
      9520.0000         0.4815       2085.846         0.4794          -10.2      0.8429451              1
      9520.5000         0.4685        2140.96         0.4671         -10.08       0.962945              1
      9521.0000          0.462        2160.77         0.4628            -10       1.042945              1
      9521.5000         0.4521       2184.534         0.4578          -9.88       1.162945              1
      9522.0000         0.4501       2216.207         0.4512          -9.88       1.162945              1
      9522.5000         0.4481       2247.879         0.4449          -9.88       1.162945              1
      9523.0000         0.4461       2267.689          0.441            -10       1.042945              1
      9523.5000         0.4441       2275.635         0.4394         -10.08       0.962945              1
      9524.0000         0.4421       2275.673         0.4394          -10.2      0.8429451              1
      9524.5000         0.4401       2271.757         0.4402         -10.32      0.7229452              1
      9525.0000         0.4401       2255.993         0.4433         -10.32      0.7229452              1
      9525.5000          0.444       2224.382         0.4496         -10.32      0.7229452              1
      9526.0000         0.4499       2184.877         0.4577          -10.2      0.8429451              1
      9526.5000         0.4578       2129.555         0.4696          -10.2      0.8429451              1
      9527.0000         0.4697       2038.644         0.4905          -10.6      0.4429445              1
      9527.5000         0.4855       1955.642         0.5113         -10.52      0.5229445              1
