#------------------------------------------------------------------------------
# Created by    : vladimir.rabinovich
# Created on    : 09/19/2023 17:20:50
#------------------------------------------------------------------------------
~Version Information Section
VERS.           2.0     :   CWLS log ASCII Standard - VERSION 2.0
WRAP.           NO      :   One line per depth step
~Well Information Section
#MNEM       .UNIT                                         VALUE :DESCRIPTION
#------------------------------------------------------------------------------
STRT        .FT                                            1116 :START DEPTH
STOP        .FT                                            6700 :STOP DEPTH
STEP        .FT                                             0.5 :STEP      
NULL        .                                           -999.25 :NULL      
COMP        .                               BRAZOS OIL & GAS CO :COMPANY   
WELL        .                                    STATE OF TEXAS :WELL      
FLD         .                                   ALLIGATOR POINT :FIELD     
LOC         .                                                   :LOCATION  
CNTY        .                                          BRAZORIA :LOCATION  
STAT        .                                             TEXAS :STATE     
CTRY        .                                     UNITED STATES :COUNTRY   
SRVC        .                                                   :SERVICE COMPANY
DATE        .                             9/13/2023 11:18:59 AM :LOG DATE  
API         .                                    42039045100000 :API NUMBER
UWI         .                                    42039045100000 :UNIQUE WELL ID
XCOORD      .                                  970513.493421445 :SURFACE X 
YCOORD      .                                   10588404.291611 :SURFACE Y 
LAT         .                                        29.1599373 :LATITUDE  
LON         .                                       -95.0993265 :LONGITUDE 
ELEV        .FT                                              22 :ELEVATION VALUE
ELEV_TYPE   .                                                KB :ELEVATION REFERENCE TYPE
~Curve Information Section
#MNEM       .UNIT                                      API CODE :CURVE DESCRIPTION
#------------------------------------------------------------------------------
DEPT        .FT                                                 :DEPTH     
ASN         .OHMM                                               :          
CILD        .MMHO                                               :          
ILD         .OHMM                                               :          
LAT         .OHMM                                               :          
SP          .MV                                                 :          
SP_NORM     .MV                                                 :SP Normalized
VSH_SP      .V/V                                                :Volume of Shale from SP
~A        DEPTH            ASN           CILD            ILD            LAT             SP        SP_NORM         VSH_SP
# ...
      4097.5000         1.1138        -999.25        -999.25         1.0441       -48.6858      -3.908714      0.9673178
      4098.0000         1.0963        -999.25        -999.25         1.0355       -48.1533      -3.379894      0.9732596
      4098.5000         1.0858        -999.25        -999.25         1.0269       -47.6208       -2.85107      0.9792014
      4099.0000         1.0789        -999.25        -999.25         1.0184       -45.1474     -0.3813515              1
      4099.5000         1.0683        -999.25        -999.25         1.0186       -44.7914    -0.02902985              1
      4100.0000          1.014        -999.25        -999.25          0.975        -44.259      0.4996948              1
      4100.5000         0.9789        -999.25        -999.25         0.9477       -43.8125      0.9425163              1
      4101.0000         0.9649        -999.25        -999.25         0.9142       -43.3669       1.384434              1
      4101.5000         0.9597        -999.25        -999.25         0.8972       -43.0088       1.738857              1
      4102.0000         0.9633        -999.25        -999.25         0.8974       -42.8271       1.916882              1
      4102.5000         0.9792        -999.25        -999.25          0.976       -42.6455       2.094799              1
      4103.0000         1.0304        -999.25        -999.25         1.0546       -42.4638       2.272823              1
      4103.5000         1.0815        -999.25        -999.25         1.1332       -42.9878       1.745144              1
      4104.0000         1.1327        -999.25        -999.25         1.2118       -43.5119       1.217361              1
      4104.5000         1.1838        -999.25        -999.25         1.2905       -49.6819      -4.956314       0.955547
      4105.0000         1.2271        -999.25        -999.25         1.3691       -53.2053      -8.483391       0.915917
      4105.5000         1.1699        -999.25        -999.25         1.4477       -55.3199      -10.60167      0.8921161
      4106.0000         1.1126        -999.25        -999.25         1.5412       -58.6669      -13.95235       0.854468
      4106.5000         1.0553        -999.25        -999.25         1.5678        -62.014      -17.30313      0.8168188
      4107.0000         0.9834        -999.25        -999.25         1.3311       -63.2438      -18.53661      0.8029595
      4107.5000         0.9781        -999.25        -999.25         1.2086       -64.8264      -20.12289      0.7851361
      4108.0000         0.9764        -999.25        -999.25         1.0595       -65.7034      -21.00356      0.7752408
      4108.5000         1.0141        -999.25        -999.25         1.0072       -57.8526      -13.15644      0.8634108
      4109.0000         1.0517        -999.25        -999.25         0.9812       -50.8698      -6.177319      0.9418279
      4109.5000         1.0855        -999.25        -999.25         0.9554       -50.5116        -5.8228      0.9458112
      4110.0000         1.0909        -999.25        -999.25         0.9797       -50.3326      -5.647476      0.9477811
      4110.5000         1.0909        -999.25        -999.25         1.0086       -49.9719      -5.290455      0.9517927
      4111.0000          1.026        -999.25        -999.25         1.0353       -47.6703      -2.992535       0.977612
      4111.5000         1.0015        -999.25        -999.25         1.0444        -46.962      -2.287914      0.9855291
      4112.0000         0.9735        -999.25        -999.25         1.0801       -47.1332      -2.462791      0.9835641
      4112.5000         0.9543        -999.25        -999.25         1.1067       -48.1866      -3.519867      0.9716869
      4113.0000         0.9438        -999.25        -999.25         1.1334       -50.8305       -6.16745      0.9419388
      4113.5000         0.9368        -999.25        -999.25         1.1689       -57.3752      -12.71582      0.8683615
      4114.0000         0.9422        -999.25        -999.25          1.178       -63.9199       -19.2642      0.7947842
      4114.5000         0.9001        -999.25        -999.25         1.1696       -70.0461      -25.39408      0.7259092
      4115.0000         0.8808        -999.25        -999.25         1.1436       -70.2199      -25.57156       0.723915
      4115.5000         0.8862        -999.25        -999.25            1.1       -68.1191      -23.47444      0.7474782
      4116.0000         0.8951        -999.25        -999.25         1.0739       -66.5017      -21.86072      0.7656099
      4116.5000         0.9074        -999.25        -999.25         0.9954       -66.4964       -21.8591      0.7656281
      4117.0000         1.0392        -999.25        -999.25         0.9693       -78.4888      -33.85518      0.6308407
      4117.5000         1.1894        -999.25        -999.25         0.9343       -78.6652      -34.03525      0.6288174
      4118.0000         1.3395        -999.25        -999.25         0.7856        -87.789      -43.16273      0.5262614
      4118.5000         1.4854        -999.25        -999.25         0.7333       -96.9127      -52.29011      0.4237067
      4119.0000         1.4908        -999.25        -999.25         0.6898      -106.0365      -61.41759      0.3211507
      4119.5000          1.382        -999.25        -999.25         0.5585      -115.1603      -70.54507      0.2185947
      4120.0000         1.2732        -999.25        -999.25         0.5149       -124.284      -79.67244        0.11604
      4120.5000         1.1644        -999.25        -999.25         0.5065      -132.9809      -88.37302     0.01828071
      4121.0000         1.1064        -999.25        -999.25         0.4981      -133.1547      -88.55049     0.01628661
      4121.5000         1.1118        -999.25        -999.25         0.4809      -133.3285      -88.72799     0.01429226
      4122.0000         1.1172        -999.25        -999.25         0.4724      -131.9065      -87.30965      0.0302286
      4122.5000         1.1207        -999.25        -999.25         0.4728      -131.9039      -87.31074     0.03021643
      4123.0000         1.1261        -999.25        -999.25         0.4643      -131.9013      -87.31183     0.03020417
      4123.5000         1.1261        -999.25        -999.25         0.4647      -132.6018      -88.01601     0.02229206
      4124.0000         1.1174        -999.25        -999.25          0.465      -133.1206      -88.53848     0.01642154
      4124.5000         1.0633        -999.25        -999.25         0.4654      -133.2944      -88.71596     0.01442744
      4125.0000         1.0091        -999.25        -999.25          0.457      -132.9337      -88.35893     0.01843896
      4125.5000         0.9549        -999.25        -999.25         0.4661      -132.5808       -88.0097     0.02236287
      4126.0000         0.9007        -999.25        -999.25          0.484      -125.6868      -81.11938     0.09978219
      4126.5000         0.8466        -999.25        -999.25         0.5019       -121.667      -77.10327      0.1449071
      4127.0000         0.7924        -999.25        -999.25         0.5286      -117.6473      -73.08725      0.1900309
      4127.5000         0.7382        -999.25        -999.25          0.564      -113.6276      -69.07123      0.2351547
      4128.0000          0.684        -999.25        -999.25         0.5907      -109.6079      -65.05521      0.2802786
      4128.5000         0.6334        -999.25        -999.25         0.6174      -105.5881      -61.03908      0.3254036
      4129.0000         0.7252        -999.25        -999.25         0.6353      -101.5684      -57.02306      0.3705274
      4129.5000          0.825        -999.25        -999.25         0.6971       -97.5487      -53.00703      0.4156513
      4130.0000         0.7928        -999.25        -999.25         0.6799       -94.7662      -50.22821       0.446874
      4130.5000         0.7607        -999.25        -999.25         0.6715      -118.2294       -73.6951      0.1832011
