#------------------------------------------------------------------------------
# Created by    : vladimir.rabinovich
# Created on    : 09/19/2023 17:20:49
#------------------------------------------------------------------------------
~Version Information Section
VERS.           2.0     :   CWLS log ASCII Standard - VERSION 2.0
WRAP.           NO      :   One line per depth step
~Well Information Section
#MNEM       .UNIT                                         VALUE :DESCRIPTION
#------------------------------------------------------------------------------
STRT        .FT                                            1700 :START DEPTH
STOP        .FT                                         12339.5 :STOP DEPTH
STEP        .FT                                             0.5 :STEP      
NULL        .                                           -999.25 :NULL      
COMP        .                            CONQUEST PETROLEUM INC :COMPANY   
WELL        .                                          ST TR 20 :WELL      
FLD         .                                   ALLIGATOR POINT :FIELD     
LOC         .                                                   :LOCATION  
CNTY        .                                          BRAZORIA :LOCATION  
STAT        .                                             TEXAS :STATE     
CTRY        .                                     UNITED STATES :COUNTRY   
SRVC        .                                                   :SERVICE COMPANY
DATE        .                             9/13/2023 11:18:59 AM :LOG DATE  
API         .                                    42039319440000 :API NUMBER
UWI         .                                    42039319440000 :UNIQUE WELL ID
XCOORD      .                                   960684.54934625 :SURFACE X 
YCOORD      .                                  10591984.7936865 :SURFACE Y 
LAT         .                                        29.1692948 :LATITUDE  
LON         .                                        -95.130314 :LONGITUDE 
ELEV        .FT                                              45 :ELEVATION VALUE
ELEV_TYPE   .                                                KB :ELEVATION REFERENCE TYPE
~Curve Information Section
#MNEM       .UNIT                                      API CODE :CURVE DESCRIPTION
#------------------------------------------------------------------------------
DEPT        .FT                                                 :DEPTH     
ASN         .OHMM                                               :          
CILD        .MMHO                                               :          
ILD         .OHMM                                               :          
SP          .MV                                                 :          
SP_NORM     .MV                                                 :SP Normalized
VSH_SP      .V/V                                                :Volume of Shale from SP
~A        DEPTH            ASN           CILD            ILD             SP        SP_NORM         VSH_SP
# ...
     11580.0000         0.7237       1343.714         0.7524          -3.36      0.3209817              1
     11580.5000         0.7236       1339.827         0.7523          -3.16      0.5209816              1
     11581.0000         0.7216       1339.891         0.7521          -2.96      0.7209816              1
     11581.5000         0.7216       1339.955         0.7519          -2.76      0.9209816              1
     11582.0000         0.7196       1330.179         0.7518          -2.56       1.120982              1
     11582.5000         0.7196       1330.467         0.7516          -2.48       1.200982              1
     11583.0000         0.7196       1330.755         0.7515          -2.48       1.200982              1
     11583.5000         0.7195       1331.044         0.7513          -2.48       1.200982              1
     11584.0000         0.7175       1331.332         0.7511          -2.48       1.200982              1
     11584.5000         0.7175        1331.62          0.751          -2.48       1.200982              1
     11585.0000         0.7175       1331.908         0.7508          -2.68       1.000982              1
     11585.5000         0.7155       1332.197         0.7506          -2.68       1.000982              1
     11586.0000         0.7135       1332.485         0.7505          -2.88      0.8009815              1
     11586.5000         0.7115       1332.695         0.7504          -2.96      0.7209816              1
     11587.0000         0.7075       1337.626         0.7476          -2.96      0.7209816              1
     11587.5000         0.7055       1342.558         0.7448          -2.96      0.7209816              1
     11588.0000         0.7035       1348.727         0.7414          -2.96      0.7209816              1
     11588.5000         0.7034       1348.759         0.7414          -2.96      0.7209816              1
     11589.0000         0.7034       1348.824         0.7414          -2.96      0.7209816              1
     11589.5000         0.7073       1344.904         0.7435             -3      0.6809816              1
     11590.0000         0.7251         1332.9         0.7502          -2.88      0.8009815              1
     11590.5000          0.729       1329.225         0.7523           -2.8      0.8809817              1
     11591.0000         0.7389       1325.246         0.7546          -2.68       1.000982              1
     11591.5000         0.7487       1321.266         0.7568           -2.6       1.080982              1
     11592.0000         0.7427       1317.287         0.7591          -2.48       1.200982              1
     11592.5000         0.7348       1301.852         0.7614           -2.4       1.280982              1
     11593.0000         0.7249       1301.916         0.7635           -2.4       1.280982              1
     11593.5000         0.7189        1301.98         0.7521          -2.48       1.200982              1
     11594.0000         0.7169         1313.9         0.7467          -2.48       1.200982              1
     11594.5000         0.7149       1333.724         0.7415           -2.6       1.080982              1
     11595.0000         0.7129       1345.643         0.7363           -2.6       1.080982              1
     11595.5000         0.7129       1353.611         0.7312           -2.6       1.080982              1
     11596.0000         0.7129       1357.627         0.7262          -2.68      0.9908252              1
     11596.5000         0.7129       1365.595         0.7212           -2.8      0.8544385              1
     11597.0000         0.7128       1373.563         0.7163           -2.8      0.8380518              1
     11597.5000         0.7128       1377.579         0.7114           -2.8      0.8216648              1
     11598.0000         0.7128       1385.547         0.7067           -2.8      0.8052781              1
     11598.5000         0.7108       1393.514          0.702           -2.8      0.7888913              1
     11599.0000         0.6732       1434.074         0.6973           -2.6      0.9725044              1
     11599.5000         0.6732       1443.567         0.6927           -2.4       1.156117              1
     11600.0000         0.6751       1456.967         0.6864           -2.2       1.339731              1
     11600.5000          0.681       1445.144          0.692          -2.52       1.003344              1
     11601.0000         0.6891       1427.963         0.7003          -2.52      0.9869571              1
     11601.5000         0.6971       1410.782         0.7088           -2.6      0.8905704              1
     11602.0000         0.7051       1393.996         0.7176          -2.72      0.7541833              1
     11602.5000         0.7132       1394.028         0.7265             -3      0.4577966              1
     11603.0000         0.7283       1386.157         0.7361          -3.32      0.1214097              1
     11603.5000         0.7184       1374.366         0.7276          -3.52    -0.09497714              1
     11604.0000         0.7144       1366.527         0.7276           -3.6     -0.1913638              1
     11604.5000         0.7104       1358.688         0.7255           -3.6     -0.2077508              1
     11605.0000         0.7084       1382.462         0.7233          -3.72     -0.3441377              1
     11605.5000         0.7084       1394.381         0.7172           -3.8     -0.4405243              1
     11606.0000         0.7064       1410.252         0.7091          -3.92     -0.5769114              1
     11606.5000         0.7064       1426.123         0.7012          -3.72     -0.3932981              1
     11607.0000         0.7064        1434.09         0.6973          -3.56     -0.2496848              1
     11607.5000         0.7063       1449.961         0.6897           -3.8     -0.5060718              1
     11608.0000         0.6782       1473.735         0.6785          -3.72     -0.4424586              1
     11608.5000          0.658       1493.557         0.6695          -3.72     -0.4588454              1
     11609.0000         0.6378       1517.331         0.6591          -3.72     -0.4752324              1
     11609.5000         0.6252       1517.395          0.659          -3.24    -0.01161909              1
     11610.0000         0.6291       1564.878          0.639          -3.12     0.09199429              1
     11610.5000         0.6351       1564.942          0.639          -3.04      0.1556072              1
     11611.0000          0.641       1565.006          0.639          -2.92      0.2592204              1
     11611.5000          0.647       1561.118         0.6406          -2.84      0.3228338              1
     11612.0000         0.6529       1549.327         0.6454          -2.72      0.4264467              1
     11612.5000         0.6588       1513.827         0.6606          -2.72      0.4100599              1
     11613.0000         0.6648        1486.23         0.6728          -2.72      0.3936732              1
     11613.5000         0.6843       1458.633         0.6856          -2.72      0.3772862              1
     11614.0000         0.6882       1442.891         0.6931          -2.72      0.3608994              1
     11614.5000         0.6902       1427.149         0.7007          -2.84      0.2245128              1
     11615.0000         0.6921       1415.359         0.7065          -2.84      0.2081258              1
     11615.5000          0.696       1403.568         0.7125          -2.84      0.1917391              1
     11616.0000         0.7039       1391.778         0.7185          -2.72      0.2953522              1
     11616.5000         0.7118       1372.085         0.7288          -2.72      0.2789652              1
     11617.0000         0.7236       1352.391         0.7394          -2.72      0.2625785              1
     11617.5000         0.7335       1328.746         0.7526          -2.72      0.2461917              1
