#------------------------------------------------------------------------------
# Created by    : vladimir.rabinovich
# Created on    : 09/19/2023 17:20:49
#------------------------------------------------------------------------------
~Version Information Section
VERS.           2.0     :   CWLS log ASCII Standard - VERSION 2.0
WRAP.           NO      :   One line per depth step
~Well Information Section
#MNEM       .UNIT                                         VALUE :DESCRIPTION
#------------------------------------------------------------------------------
STRT        .FT                                            1700 :START DEPTH
STOP        .FT                                         12339.5 :STOP DEPTH
STEP        .FT                                             0.5 :STEP      
NULL        .                                           -999.25 :NULL      
COMP        .                            CONQUEST PETROLEUM INC :COMPANY   
WELL        .                                          ST TR 20 :WELL      
FLD         .                                   ALLIGATOR POINT :FIELD     
LOC         .                                                   :LOCATION  
CNTY        .                                          BRAZORIA :LOCATION  
STAT        .                                             TEXAS :STATE     
CTRY        .                                     UNITED STATES :COUNTRY   
SRVC        .                                                   :SERVICE COMPANY
DATE        .                             9/13/2023 11:18:59 AM :LOG DATE  
API         .                                    42039319440000 :API NUMBER
UWI         .                                    42039319440000 :UNIQUE WELL ID
XCOORD      .                                   960684.54934625 :SURFACE X 
YCOORD      .                                  10591984.7936865 :SURFACE Y 
LAT         .                                        29.1692948 :LATITUDE  
LON         .                                        -95.130314 :LONGITUDE 
ELEV        .FT                                              45 :ELEVATION VALUE
ELEV_TYPE   .                                                KB :ELEVATION REFERENCE TYPE
~Curve Information Section
#MNEM       .UNIT                                      API CODE :CURVE DESCRIPTION
#------------------------------------------------------------------------------
DEPT        .FT                                                 :DEPTH     
ASN         .OHMM                                               :          
CILD        .MMHO                                               :          
ILD         .OHMM                                               :          
SP          .MV                                                 :          
SP_NORM     .MV                                                 :SP Normalized
VSH_SP      .V/V                                                :Volume of Shale from SP
~A        DEPTH            ASN           CILD            ILD             SP        SP_NORM         VSH_SP
# ...
      8768.0000         0.4596       2020.476         0.4949         -11.08    -0.03705502              1
      8768.5000         0.4615       2035.922         0.4912         -11.08    -0.03705502              1
      8769.0000         0.4576       2039.877         0.4902         -11.28     -0.2370548              1
      8769.5000         0.4457       2039.882         0.4902         -11.36     -0.3170547              1
      8770.0000         0.4378       2007.823         0.4981         -11.44     -0.3970547              1
      8770.5000         0.4358       1975.764         0.5061         -11.52     -0.4770555              1
      8771.0000         0.4339       1941.156         0.5152          -11.6     -0.5570555              1
      8771.5000         0.4319       1945.112         0.5141         -11.68     -0.6370554              1
      8772.0000         0.4299       1962.246         0.5096         -11.76     -0.7170553              1
      8772.5000         0.4299       1979.381         0.5052          -11.8     -0.7570553              1
      8773.0000         0.4259       1996.516         0.5009         -11.92     -0.8770552              1
      8773.5000          0.422        2013.65         0.4966         -11.68     -0.6370554              1
      8774.0000         0.4161       2030.785         0.4924         -11.44     -0.3970547              1
      8774.5000         0.4101       2051.837         0.4874          -11.2     -0.1570549              1
      8775.0000         0.4062       2086.977         0.4792         -10.96     0.08294487              1
      8775.5000         0.4042       2122.117         0.4712         -10.72      0.3229446              1
      8776.0000         0.4141       2157.256         0.4636         -10.52      0.5229445              1
      8776.5000         0.4161       2209.911         0.4525         -10.28      0.7629452              1
      8777.0000         0.4319       2198.059         0.4549         -10.04       1.002945              1
      8777.5000         0.4358       2160.243         0.4629           -9.8       1.242945              1
      8778.0000         0.4397       2122.427         0.4712           -9.8       1.242945              1
      8778.5000         0.4457       2084.611         0.4797         -10.08       0.962945              1
      8779.0000         0.4516       2046.795         0.4886         -11.12    -0.07705498              1
      8779.5000         0.4555       2008.978         0.4978         -12.08      -1.037055      0.9993926
      8780.0000         0.4634        1953.19          0.512         -12.08      -1.037055      0.9993926
      8780.5000         0.4852       1901.837         0.5258         -12.08      -1.037055      0.9993926
      8781.0000         0.4931        1858.39         0.5381         -12.08      -1.037055      0.9993926
      8781.5000          0.499       1830.745         0.5462         -11.72     -0.6770554              1
      8782.0000         0.5029       1822.854         0.5486         -11.32     -0.2770548              1
      8782.5000         0.5029       1822.864         0.5486         -10.96     0.08294487              1
      8783.0000         0.5029       1826.824         0.5474          -10.6      0.4429445              1
      8783.5000         0.5029       1838.686         0.5439         -10.72      0.3229446              1
      8784.0000          0.499       1854.498         0.5392            -11     0.04294491              1
      8784.5000          0.495       1882.162         0.5313         -11.28     -0.2370548              1
      8785.0000         0.4891       1917.728         0.5215         -11.56     -0.5170555              1
      8785.5000         0.4831       1949.342          0.513          -11.8     -0.7570553              1
      8786.0000         0.4792       1961.204         0.5099          -11.8     -0.7570553              1
      8786.5000         0.4772       1953.313          0.512         -11.36     -0.3170547              1
      8787.0000         0.4752       1941.466         0.5151         -10.88      0.1629448              1
      8787.5000         0.4772       1925.673         0.5193         -10.44      0.6029453              1
      8788.0000         0.4792       1910.788         0.5233          -9.96       1.082945              1
      8788.5000         0.4811       1895.904         0.5275          -9.52       1.522944              1
      8789.0000         0.4851       1881.019         0.5316          -9.08       1.962945              1
      8789.5000          0.487       1866.135         0.5359             -9       2.042945              1
      8790.0000          0.491        1851.25         0.5402          -9.28       1.762945              1
      8790.5000          0.491       1830.927         0.5462          -9.76       1.282945              1
      8791.0000          0.489       1842.779         0.5427         -10.24      0.8029451              1
      8791.5000          0.487       1871.535         0.5343         -10.72      0.3229446              1
      8792.0000         0.4831       1900.291         0.5262         -11.16     -0.1170549              1
      8792.5000         0.4771       1929.047         0.5184         -11.64     -0.5970554              1
      8793.0000         0.4692       1957.803         0.5108            -12     -0.9570551              1
      8793.5000         0.4613       1986.559         0.5034            -12     -0.9570551              1
      8794.0000         0.4554       2015.316         0.4962         -11.68     -0.6370554              1
      8794.5000         0.4514       2044.072         0.4892         -11.36     -0.3170547              1
      8795.0000         0.4514       2072.828         0.4824            -11     0.04294491              1
      8795.5000         0.4514       2091.761         0.4781          -10.6      0.4429445              1
      8796.0000         0.4534        2081.43         0.4804          -10.6      0.4429445              1
      8796.5000         0.4554         2071.1         0.4828          -10.6      0.4429445              1
      8797.0000         0.4573       2060.769         0.4853          -10.6      0.4429445              1
      8797.5000         0.4573       2050.438         0.4877         -10.84      0.2029448              1
      8798.0000         0.4573       2040.107         0.4902         -11.08    -0.03705502              1
      8798.5000         0.4593       2029.777         0.4927         -11.36     -0.3170547              1
      8799.0000         0.4593       2016.773         0.4958          -11.6     -0.5570555              1
      8799.5000         0.4593       2020.729         0.4949         -11.84     -0.7970552              1
      8800.0000         0.4593       2052.507         0.4872         -12.08      -1.037055      0.9993926
      8800.5000         0.4474       2076.057         0.4817         -12.36      -1.317055      0.9948024
      8801.0000         0.4494       2080.017         0.4808         -12.48      -1.437055      0.9928352
      8801.5000         0.4494       2080.027         0.4808          -12.6      -1.557055       0.990868
      8802.0000         0.4494       2080.037         0.4808         -12.32      -1.277055      0.9954581
      8802.5000         0.4494       2083.997         0.4798            -12     -0.9570551              1
      8803.0000         0.4494       2084.007         0.4798         -11.72     -0.6770554              1
      8803.5000         0.4513       2084.017         0.4798         -11.44     -0.3970547              1
      8804.0000         0.4513       2084.027         0.4798         -11.08    -0.03705502              1
      8804.5000         0.4513       2084.037         0.4798         -11.08    -0.03705502              1
      8805.0000         0.4513       2084.046         0.4798         -11.32     -0.2770548              1
      8805.5000         0.4494       2088.007         0.4789         -11.56     -0.5170555              1
