#------------------------------------------------------------------------------
# Created by    : vladimir.rabinovich
# Created on    : 09/19/2023 17:20:49
#------------------------------------------------------------------------------
~Version Information Section
VERS.           2.0     :   CWLS log ASCII Standard - VERSION 2.0
WRAP.           NO      :   One line per depth step
~Well Information Section
#MNEM       .UNIT                                         VALUE :DESCRIPTION
#------------------------------------------------------------------------------
STRT        .FT                                            1700 :START DEPTH
STOP        .FT                                         12339.5 :STOP DEPTH
STEP        .FT                                             0.5 :STEP      
NULL        .                                           -999.25 :NULL      
COMP        .                            CONQUEST PETROLEUM INC :COMPANY   
WELL        .                                          ST TR 20 :WELL      
FLD         .                                   ALLIGATOR POINT :FIELD     
LOC         .                                                   :LOCATION  
CNTY        .                                          BRAZORIA :LOCATION  
STAT        .                                             TEXAS :STATE     
CTRY        .                                     UNITED STATES :COUNTRY   
SRVC        .                                                   :SERVICE COMPANY
DATE        .                             9/13/2023 11:18:59 AM :LOG DATE  
API         .                                    42039319440000 :API NUMBER
UWI         .                                    42039319440000 :UNIQUE WELL ID
XCOORD      .                                   960684.54934625 :SURFACE X 
YCOORD      .                                  10591984.7936865 :SURFACE Y 
LAT         .                                        29.1692948 :LATITUDE  
LON         .                                        -95.130314 :LONGITUDE 
ELEV        .FT                                              45 :ELEVATION VALUE
ELEV_TYPE   .                                                KB :ELEVATION REFERENCE TYPE
~Curve Information Section
#MNEM       .UNIT                                      API CODE :CURVE DESCRIPTION
#------------------------------------------------------------------------------
DEPT        .FT                                                 :DEPTH     
ASN         .OHMM                                               :          
CILD        .MMHO                                               :          
ILD         .OHMM                                               :          
SP          .MV                                                 :          
SP_NORM     .MV                                                 :SP Normalized
VSH_SP      .V/V                                                :Volume of Shale from SP
~A        DEPTH            ASN           CILD            ILD             SP        SP_NORM         VSH_SP
# ...
      6640.0000         0.6231       2258.673          0.358         -60.72      -59.49301     0.04109823
      6640.5000         0.8392       2212.238         0.3978          -60.4      -59.17301     0.04634413
      6641.0000         0.9544       2165.802         0.4276         -60.16      -58.93301     0.05027859
      6641.5000         0.9544       2119.367         0.4475         -59.84      -58.61301     0.05552448
      6642.0000         0.9564       2072.932         0.4774          -59.6        -58.373     0.05945894
      6642.5000         0.8797       2048.332         0.4973         -59.28      -58.05301     0.06470484
      6643.0000         0.8328       2064.179         0.4791         -58.96      -57.73301     0.06995073
      6643.5000         0.7858        2139.56         0.4771         -58.96      -57.73301     0.06995073
      6644.0000         0.7343       2272.319         0.4383         -58.96      -57.73301     0.06995073
      6644.5000         0.7482       2405.078         0.4053         -59.52      -58.29301     0.06077038
      6645.0000         0.7978       2537.838         0.3769         -60.08      -58.85301     0.05159003
      6645.5000         0.7978       2670.597         0.3523         -60.56      -59.33301     0.04372118
      6646.0000         0.7899       2803.356         0.3307         -61.12      -59.89301      0.0345409
      6646.5000         0.7372       2936.116         0.3043         -61.76        -60.533      0.0240491
      6647.0000         0.6846       3068.875          0.304         -61.76        -60.533      0.0240491
      6647.5000          0.632       3201.635         0.3025         -61.76        -60.533      0.0240491
      6648.0000         0.5935       3510.038         0.2849         -61.76        -60.533      0.0240491
      6648.5000         0.5936       3750.115         0.2667         -61.76        -60.533      0.0240491
      6649.0000         0.5995       3726.312         0.2684         -61.52      -60.29301     0.02798349
      6649.5000         0.6286       3583.817          0.279         -61.36      -60.13301     0.03060644
      6650.0000         0.6578       3385.067         0.2954         -61.12      -59.89301      0.0345409
      6650.5000         0.6749       3393.001         0.2947         -60.88      -59.65301     0.03847529
      6651.0000          0.669       3412.819          0.293         -60.72      -59.49301     0.04109823
      6651.5000         0.6326        3466.35         0.2885         -60.48      -59.25301     0.04503269
      6652.0000         0.5962       3527.822         0.2841         -60.32      -59.09301     0.04765564
      6652.5000         0.5598        3467.93         0.2778         -60.08      -58.85301     0.05159003
      6653.0000         0.5234       3408.038         0.2775         -59.92        -58.693     0.05421304
      6653.5000         0.5084       3348.145         0.2838         -59.76        -58.533     0.05683599
      6654.0000         0.5395       3288.253         0.2904         -59.76        -58.533     0.05683599
      6654.5000         0.5705       3228.361         0.2973         -59.76        -58.533     0.05683599
      6655.0000         0.6016       3168.469         0.3045         -59.76        -58.533     0.05683599
      6655.5000         0.6326       3108.576         0.3121         -60.24      -59.01301     0.04896708
      6656.0000         0.6637       3075.424           0.32          -60.8      -59.57301     0.03978679
      6656.5000         0.7088       3091.284         0.3286         -61.28      -60.05301     0.03191795
      6657.0000          0.689       3193.336         0.3247         -61.84      -60.61301      0.0227376
      6657.5000         0.6535       3295.389         0.3061         -62.32      -61.09301     0.01486875
      6658.0000          0.618       3397.441         0.2895         -62.72      -61.49301     0.00831135
      6658.5000         0.5825       3641.731         0.2746         -62.72      -61.49301     0.00831135
      6659.0000         0.5621       3829.189         0.2612         -62.72      -61.49301     0.00831135
      6659.5000         0.5814       3940.125         0.2538         -62.56      -61.33301      0.0109343
      6660.0000         0.6018       3888.473         0.2572         -62.48      -61.25301      0.0122458
      6660.5000         0.6018       3836.822         0.2606         -62.32      -61.09301     0.01486875
      6661.0000         0.5959       3785.169         0.2642         -62.16      -60.93301      0.0174917
      6661.5000         0.5827       3733.518         0.2678         -61.92        -60.693     0.02142615
      6662.0000         0.5694       3670.263         0.2725         -61.76        -60.533      0.0240491
      6662.5000         0.5562       3589.955         0.2786         -61.52      -60.29301     0.02798349
      6663.0000         0.5483       3509.647         0.2849         -61.36      -60.13301     0.03060644
      6663.5000         0.5483       3420.279         0.2924         -61.36      -60.13301     0.03060644
      6664.0000         0.5783       3440.096         0.2894         -61.36      -60.13301     0.03060644
      6664.5000         0.6083        3448.03         0.2854         -61.12      -59.89301      0.0345409
      6665.0000         0.6382       3526.958         0.2848         -61.12      -59.89301      0.0345409
      6665.5000         0.6793        3593.11         0.2783          -61.2      -59.97301     0.03322939
      6666.0000         0.6793       3674.737         0.2721         -61.36      -60.13301     0.03060644
      6666.5000         0.6531       3756.365         0.2662         -61.44      -60.21301       0.029295
      6667.0000         0.6268       3837.992         0.2606         -61.52      -60.29301     0.02798349
      6667.5000         0.6006       3919.619         0.2551         -61.68      -60.45301     0.02536055
      6668.0000         0.5743       4270.388         0.2342         -61.36      -60.13301     0.03060644
      6668.5000         0.5481       4278.311         0.2337         -60.96      -59.73301     0.03716384
      6669.0000         0.5168       4281.579         0.2336         -59.52      -58.29301     0.06077038
      6669.5000         0.5029       4282.262         0.2335         -58.16      -56.93301     0.08306547
      6670.0000         0.4969       3007.492         0.2755          -56.4      -55.17301      0.1119179
      6670.5000         0.4989       2959.884         0.3134         -54.96      -53.73301      0.1355245
      6671.0000         0.6432       2305.736         0.3635         -35.52      -34.29301       0.454213
      6671.5000         0.7875       1373.089         0.4327          -31.2      -29.97301      0.5250326
      6672.0000         1.0284       1373.083         0.5343          -26.8      -25.57301      0.5971639
      6672.5000         1.1295       924.8277         1.0813         -19.68      -18.45301      0.7138851
      6673.0000         1.2706       830.9221         1.2035         -12.48      -11.25301      0.8319179
      6673.5000         1.4253       737.0165         1.3568         -11.04      -9.813006      0.8555245
      6674.0000         1.4392       615.3662          1.625         -10.24      -9.013006      0.8686392
      6674.5000         1.5741       631.2332         1.5842          -9.68      -8.453007      0.8778195
      6675.0000         1.5721       658.5532         1.5185          -8.88      -7.653006      0.8909343
      6675.5000         1.5016       685.8731          1.458          -7.84      -6.613006      0.9079835
      6676.0000         1.4311       713.1931         1.4021          -6.32      -5.093006      0.9329016
      6676.5000         1.3607        740.513         1.3504          -5.28      -4.053006      0.9499507
      6677.0000         1.2902       767.8329         1.3024          -4.48      -3.253006      0.9630655
      6677.5000         1.2197       795.1529         1.2576          -4.32      -3.093006      0.9656884
