#------------------------------------------------------------------------------
# Created by    : vladimir.rabinovich
# Created on    : 09/19/2023 17:20:49
#------------------------------------------------------------------------------
~Version Information Section
VERS.           2.0     :   CWLS log ASCII Standard - VERSION 2.0
WRAP.           NO      :   One line per depth step
~Well Information Section
#MNEM       .UNIT                                         VALUE :DESCRIPTION
#------------------------------------------------------------------------------
STRT        .FT                                            1700 :START DEPTH
STOP        .FT                                         12339.5 :STOP DEPTH
STEP        .FT                                             0.5 :STEP      
NULL        .                                           -999.25 :NULL      
COMP        .                            CONQUEST PETROLEUM INC :COMPANY   
WELL        .                                          ST TR 20 :WELL      
FLD         .                                   ALLIGATOR POINT :FIELD     
LOC         .                                                   :LOCATION  
CNTY        .                                          BRAZORIA :LOCATION  
STAT        .                                             TEXAS :STATE     
CTRY        .                                     UNITED STATES :COUNTRY   
SRVC        .                                                   :SERVICE COMPANY
DATE        .                             9/13/2023 11:18:59 AM :LOG DATE  
API         .                                    42039319440000 :API NUMBER
UWI         .                                    42039319440000 :UNIQUE WELL ID
XCOORD      .                                   960684.54934625 :SURFACE X 
YCOORD      .                                  10591984.7936865 :SURFACE Y 
LAT         .                                        29.1692948 :LATITUDE  
LON         .                                        -95.130314 :LONGITUDE 
ELEV        .FT                                              45 :ELEVATION VALUE
ELEV_TYPE   .                                                KB :ELEVATION REFERENCE TYPE
~Curve Information Section
#MNEM       .UNIT                                      API CODE :CURVE DESCRIPTION
#------------------------------------------------------------------------------
DEPT        .FT                                                 :DEPTH     
ASN         .OHMM                                               :          
CILD        .MMHO                                               :          
ILD         .OHMM                                               :          
SP          .MV                                                 :          
SP_NORM     .MV                                                 :SP Normalized
VSH_SP      .V/V                                                :Volume of Shale from SP
~A        DEPTH            ASN           CILD            ILD             SP        SP_NORM         VSH_SP
# ...
      8046.0000         0.4906        1751.98         0.5708         -19.12      -1.589514      0.9903358
      8046.5000         0.4926       1744.031         0.5734         -18.92      -1.395512      0.9935162
      8047.0000         0.4907       1755.872         0.5695         -18.72      -1.201511      0.9966965
      8047.5000         0.4887       1765.366         0.5665         -18.52      -1.007511      0.9998769
      8048.0000         0.4868        1774.86         0.5634         -18.32     -0.8135109              1
      8048.5000         0.4848       1784.354         0.5604          -18.2     -0.6995106              1
      8049.0000         0.4829       1793.848         0.5575          -18.2     -0.7055111              1
      8049.5000         0.4829       1803.342         0.5545          -18.2     -0.7115097              1
      8050.0000         0.4829       1810.956         0.5522          -18.2     -0.7175083              1
      8050.5000         0.4829       1810.914         0.5522          -18.2     -0.7235088              1
      8051.0000         0.4731       1810.893         0.5522            -18     -0.5295067              1
      8051.5000         0.4711       1808.629         0.5529          -18.6      -1.135508      0.9977785
      8052.0000         0.4692       1806.835         0.5535          -17.8     -0.3415051              1
      8052.5000         0.4672       1814.722          0.551            -17      0.4524937              1
      8053.0000         0.4633       1837.669         0.5442          -16.2       1.246494              1
      8053.5000         0.4593       1860.615         0.5375         -15.48       1.960495              1
      8054.0000         0.4574       1883.562         0.5309         -15.48       1.954496              1
      8054.5000         0.4554       1906.509         0.5245          -15.4       2.028498              1
      8055.0000         0.4515       1929.455         0.5183          -17.2       0.222496              1
      8055.5000         0.4496       1952.402         0.5122         -17.68     -0.2635021              1
      8056.0000         0.4456       1975.349         0.5062         -18.36     -0.9495029              1
      8056.5000         0.4417       2019.968         0.4951         -18.48        -1.0755      0.9987623
      8057.0000         0.4358       2055.511         0.4865         -18.56      -1.161501      0.9973524
      8057.5000         0.4319       2075.238         0.4819         -18.56        -1.1675      0.9972541
      8058.0000         0.4279       2094.965         0.4773         -18.68      -1.293501      0.9951885
      8058.5000          0.424       2098.877         0.4764         -18.68        -1.2995      0.9950902
      8059.0000          0.422       2102.789         0.4756         -18.48      -1.105497      0.9982705
      8059.5000         0.4142       2110.654         0.4738         -18.16     -0.7914982              1
      8060.0000         0.4181       2047.351         0.4884         -17.28     0.08250237              1
      8060.5000          0.432       2035.448         0.4913         -17.08      0.2765026              1
      8061.0000          0.434       2019.591         0.4951         -16.36      0.9905033              1
      8061.5000          0.436        1999.78         0.5001         -16.16       1.184504              1
      8062.0000           0.44       1983.922         0.5041         -15.96       1.378505              1
      8062.5000          0.442       1971.998         0.5071         -15.84       1.492504              1
      8063.0000          0.444       1971.977         0.5071         -15.84       1.486506              1
      8063.5000          0.442       1979.275         0.5052         -15.96       1.360507              1
      8064.0000         0.4421       1986.572         0.5034         -16.04       1.274506              1
      8064.5000         0.4401        1993.87         0.5015         -16.04       1.268507              1
      8065.0000         0.4382       2001.167         0.4997         -16.04       1.262506              1
      8065.5000         0.4382       2011.285         0.4972         -15.96       1.336509              1
      8066.0000         0.4362        2005.52         0.4986         -15.84       1.450508              1
      8066.5000         0.4363       2003.335         0.4992         -15.76       1.524509              1
      8067.0000         0.4383       1992.849         0.5018         -15.64       1.638509              1
      8067.5000         0.4383       1982.362         0.5044         -15.76        1.51251              1
      8068.0000         0.4403       1971.875         0.5071         -16.04       1.226511              1
      8068.5000         0.4403       1961.389         0.5098         -16.32      0.9405117              1
      8069.0000         0.4423       1950.902         0.5126         -16.52      0.7345123              1
      8069.5000         0.4443       1940.415         0.5154         -16.64      0.6085129              1
      8070.0000         0.4443       1931.854         0.5176         -16.84      0.4025135              1
      8070.5000         0.4483       1927.858         0.5187         -17.04      0.1965122              1
      8071.0000         0.4503       1927.816         0.5187         -17.72     -0.4894848              1
      8071.5000         0.4484       1935.681         0.5166         -17.84     -0.6154861              1
      8072.0000         0.4484       1939.959         0.5155         -17.84     -0.6214848              1
      8072.5000         0.4445       1944.236         0.5143         -17.84     -0.6274834              1
      8073.0000         0.4445       1948.514         0.5132         -17.84     -0.6334839              1
      8073.5000         0.4445       1952.791         0.5121         -17.72     -0.5194817              1
      8074.0000         0.4445       1957.069          0.511          -17.6     -0.4054832              1
      8074.5000         0.4426       1961.346         0.5099         -17.52     -0.3314819              1
      8075.0000         0.4426       1966.997         0.5084         -17.52     -0.3374825              1
      8075.5000         0.4406       1974.904         0.5064          -17.6      -0.423481              1
      8076.0000         0.4367       1988.789         0.5028         -17.72     -0.5494804              1
      8076.5000         0.4328       2002.673         0.4993         -17.72      -0.555479              1
      8077.0000         0.4289       2016.558         0.4959          -17.8     -0.6414776              1
      8077.5000         0.4249       2030.443         0.4925          -17.8     -0.6474781              1
      8078.0000         0.4131       2044.327         0.4892          -17.8     -0.6534767              1
      8078.5000         0.4131       2058.212         0.4859          -17.8     -0.6594772              1
      8079.0000         0.4131       2077.364         0.4814          -17.8     -0.6654758              1
      8079.5000         0.4151       2081.296         0.4805          -17.8     -0.6714764              1
      8080.0000         0.4191       2041.678         0.4898          -17.6     -0.4774761              1
      8080.5000          0.427        2002.06         0.4995          -17.4     -0.2834759              1
      8081.0000         0.4389       1962.441         0.5096          -17.6     -0.4894753              1
      8081.5000         0.4429       1922.823         0.5201         -17.68     -0.5754738              1
      8082.0000         0.4489       1839.916          0.531         -17.68     -0.5814743              1
      8082.5000         0.4528       1828.013         0.5424         -17.68     -0.5874729              1
      8083.0000         0.4529       1812.136         0.5506          -17.6     -0.5134735              1
      8083.5000         0.4509       1820.023         0.5447         -17.48     -0.3994713              1
