#------------------------------------------------------------------------------
# Created by    : vladimir.rabinovich
# Created on    : 09/19/2023 17:20:50
#------------------------------------------------------------------------------
~Version Information Section
VERS.           2.0     :   CWLS log ASCII Standard - VERSION 2.0
WRAP.           NO      :   One line per depth step
~Well Information Section
#MNEM       .UNIT                                         VALUE :DESCRIPTION
#------------------------------------------------------------------------------
STRT        .FT                                            1116 :START DEPTH
STOP        .FT                                            6700 :STOP DEPTH
STEP        .FT                                             0.5 :STEP      
NULL        .                                           -999.25 :NULL      
COMP        .                               BRAZOS OIL & GAS CO :COMPANY   
WELL        .                                    STATE OF TEXAS :WELL      
FLD         .                                   ALLIGATOR POINT :FIELD     
LOC         .                                                   :LOCATION  
CNTY        .                                          BRAZORIA :LOCATION  
STAT        .                                             TEXAS :STATE     
CTRY        .                                     UNITED STATES :COUNTRY   
SRVC        .                                                   :SERVICE COMPANY
DATE        .                             9/13/2023 11:18:59 AM :LOG DATE  
API         .                                    42039045100000 :API NUMBER
UWI         .                                    42039045100000 :UNIQUE WELL ID
XCOORD      .                                  970513.493421445 :SURFACE X 
YCOORD      .                                   10588404.291611 :SURFACE Y 
LAT         .                                        29.1599373 :LATITUDE  
LON         .                                       -95.0993265 :LONGITUDE 
ELEV        .FT                                              22 :ELEVATION VALUE
ELEV_TYPE   .                                                KB :ELEVATION REFERENCE TYPE
~Curve Information Section
#MNEM       .UNIT                                      API CODE :CURVE DESCRIPTION
#------------------------------------------------------------------------------
DEPT        .FT                                                 :DEPTH     
ASN         .OHMM                                               :          
CILD        .MMHO                                               :          
ILD         .OHMM                                               :          
LAT         .OHMM                                               :          
SP          .MV                                                 :          
SP_NORM     .MV                                                 :SP Normalized
VSH_SP      .V/V                                                :Volume of Shale from SP
~A        DEPTH            ASN           CILD            ILD            LAT             SP        SP_NORM         VSH_SP
# ...
      4466.0000         0.6924        -999.25        -999.25         0.6701       -51.7483      -8.803513      0.9123201
      4466.5000         0.6766        -999.25        -999.25         0.6617       -52.1015      -9.156715      0.9083515
      4467.0000         0.6644        -999.25        -999.25          0.662       -47.5419      -4.597115       0.959583
      4467.5000         0.6521        -999.25        -999.25         0.6536       -42.9824    -0.03761292              1
      4468.0000         0.6434        -999.25        -999.25          0.654       -39.7214       3.223385              1
      4468.5000         0.6364        -999.25        -999.25         0.6545       -39.8954       3.049385              1
      4469.0000         0.6224        -999.25        -999.25         0.6848       -40.7707       2.174088              1
      4469.5000          0.619        -999.25        -999.25          0.715       -41.8251       1.119686              1
      4470.0000         0.6085        -999.25        -999.25         0.7453       -41.9992      0.9455872              1
      4470.5000          0.605        -999.25        -999.25          0.779       -39.8234       3.121387              1
      4471.0000         0.6016        -999.25        -999.25          0.788       -37.6477       5.297085              1
      4471.5000         0.5999        -999.25        -999.25         0.7971       -35.4454       7.499386              1
      4472.0000         0.5965        -999.25        -999.25         0.7975        -39.678       3.266785              1
      4472.5000         0.5948        -999.25        -999.25         0.7978       -39.6755       3.269287              1
      4473.0000         0.5948        -999.25        -999.25         0.7982       -38.4986       4.446186              1
      4473.5000         0.5967        -999.25        -999.25         0.7986       -37.3218       5.622986              1
      4474.0000          0.602        -999.25        -999.25         0.7991       -35.7709       7.173885              1
      4474.5000         0.6091        -999.25        -999.25         0.7819       -35.7684       7.176388              1
      4475.0000          0.618        -999.25        -999.25         0.7732       -35.7634       7.181385              1
      4475.5000         0.6268        -999.25        -999.25          0.765       -36.8176       6.127186              1
      4476.0000         0.6551        -999.25        -999.25         0.7478       -37.8718       5.072987              1
      4476.5000         0.6692        -999.25        -999.25         0.7305       -43.3421     -0.3973122              1
      4477.0000         0.6693        -999.25        -999.25         0.7133       -45.8084      -2.863613      0.9801743
      4477.5000         0.6676        -999.25        -999.25         0.6873        -50.567      -7.622215      0.9295509
      4478.0000         0.6606        -999.25        -999.25         0.6483       -52.6827      -9.737915      0.9070435
      4478.5000         0.6571        -999.25        -999.25         0.6088       -53.3807      -10.43591       0.899618
      4479.0000         0.6506        -999.25        -999.25         0.6002       -48.5784      -5.633614      0.9507062
      4479.5000         0.6442        -999.25        -999.25         0.6611        -43.776     -0.8312149              1
      4480.0000         0.6377        -999.25        -999.25         0.7154       -38.8904       4.054386              1
      4480.5000         0.6312        -999.25        -999.25         0.7158       -38.1792       4.765587              1
      4481.0000         0.6248        -999.25        -999.25          0.716       -37.6446       5.300186              1
      4481.5000         0.6154        -999.25        -999.25         0.7165       -41.5228       1.421986              1
      4482.0000         0.6154        -999.25        -999.25         0.7169       -43.1062     -0.1614151              1
      4482.5000         0.6279        -999.25        -999.25         0.7172       -44.3391      -1.394314      0.9958051
      4483.0000         0.6404        -999.25        -999.25            0.7       -47.1579      -4.213116      0.9658179
      4483.5000         0.6561        -999.25        -999.25         0.6739       -51.0356      -8.090813      0.9245659
      4484.0000         0.6579        -999.25        -999.25         0.6479       -60.9138      -17.96901      0.8194786
      4484.5000         0.6597        -999.25        -999.25         0.6393       -65.8528      -22.90801      0.7669361
      4485.0000         0.6379        -999.25        -999.25         0.5924       -74.3156      -31.37081      0.6769063
      4485.5000          0.616        -999.25        -999.25         0.5523       -73.7833      -30.83852       0.682569
      4486.0000         0.5808        -999.25        -999.25         0.5614       -62.3038      -19.35901      0.8046914
      4486.5000         0.5843        -999.25        -999.25         0.5794       -57.7099      -14.76511      0.8535626
      4487.0000         0.6018        -999.25        -999.25         0.6061       -52.2339      -9.289112       0.911818
      4487.5000         0.6192        -999.25        -999.25         0.6328       -52.2286      -9.283813      0.9118744
      4488.0000         0.6366        -999.25        -999.25          0.642       -52.5762      -9.631413      0.9081765
      4488.5000         0.6541        -999.25        -999.25         0.6423       -53.2767      -10.33191      0.9007244
      4489.0000         0.6715        -999.25        -999.25         0.6427       -53.6243      -10.67951      0.8970265
      4489.5000         0.6886        -999.25        -999.25         0.6518       -54.1483      -11.20351       0.891452
      4490.0000         0.6904        -999.25        -999.25         0.6171       -55.1989      -12.25411      0.8802754
      4490.5000         0.6625        -999.25        -999.25         0.6523       -50.9226      -7.977814       0.925768
      4491.0000         0.6588        -999.25        -999.25         0.6786        -45.322      -2.377213      0.9853488
      4491.5000         0.6518        -999.25        -999.25         0.7313       -45.1466      -2.201813      0.9872147
      4492.0000         0.6501        -999.25        -999.25         0.8016       -44.7959      -1.851112      0.9909456
      4492.5000          0.652        -999.25        -999.25         0.8543       -44.7982      -1.853413      0.9909211
      4493.0000         0.6679        -999.25        -999.25         0.8806       -45.3292      -2.384415      0.9852722
      4493.5000         0.6697        -999.25        -999.25         0.8806       -46.3935      -3.448715      0.9739498
      4494.0000         0.6628        -999.25        -999.25         0.8805       -47.4579      -4.513115      0.9626265
      4494.5000          0.656        -999.25        -999.25         0.8804       -48.5223      -5.577515      0.9513031
      4495.0000         0.6492        -999.25        -999.25         0.8804       -49.2145      -6.269714      0.9439392
      4495.5000         0.6423        -999.25        -999.25         0.8803       -47.8243      -4.879513      0.9587286
      4496.0000         0.6355        -999.25        -999.25         0.8978       -46.3998      -3.455013      0.9738829
      4496.5000         0.6287        -999.25        -999.25         0.9154       -47.3469      -4.402115      0.9638073
      4497.0000         0.6218        -999.25        -999.25         0.9241       -48.2941      -5.349316      0.9537307
      4497.5000          0.615        -999.25        -999.25         0.9416       -49.2231      -6.278313      0.9438477
      4498.0000         0.6087        -999.25        -999.25         0.9415       -46.7073      -3.762512      0.9706116
      4498.5000         0.6229        -999.25        -999.25         0.9415       -44.1915      -1.246716      0.9973754
      4499.0000         0.6371        -999.25        -999.25          0.915       -41.6757       1.269085              1
