#------------------------------------------------------------------------------
# Created by    : vladimir.rabinovich
# Created on    : 09/19/2023 17:20:50
#------------------------------------------------------------------------------
~Version Information Section
VERS.           2.0     :   CWLS log ASCII Standard - VERSION 2.0
WRAP.           NO      :   One line per depth step
~Well Information Section
#MNEM       .UNIT                                         VALUE :DESCRIPTION
#------------------------------------------------------------------------------
STRT        .FT                                            1116 :START DEPTH
STOP        .FT                                            6700 :STOP DEPTH
STEP        .FT                                             0.5 :STEP      
NULL        .                                           -999.25 :NULL      
COMP        .                               BRAZOS OIL & GAS CO :COMPANY   
WELL        .                                    STATE OF TEXAS :WELL      
FLD         .                                   ALLIGATOR POINT :FIELD     
LOC         .                                                   :LOCATION  
CNTY        .                                          BRAZORIA :LOCATION  
STAT        .                                             TEXAS :STATE     
CTRY        .                                     UNITED STATES :COUNTRY   
SRVC        .                                                   :SERVICE COMPANY
DATE        .                             9/13/2023 11:18:59 AM :LOG DATE  
API         .                                    42039045100000 :API NUMBER
UWI         .                                    42039045100000 :UNIQUE WELL ID
XCOORD      .                                  970513.493421445 :SURFACE X 
YCOORD      .                                   10588404.291611 :SURFACE Y 
LAT         .                                        29.1599373 :LATITUDE  
LON         .                                       -95.0993265 :LONGITUDE 
ELEV        .FT                                              22 :ELEVATION VALUE
ELEV_TYPE   .                                                KB :ELEVATION REFERENCE TYPE
~Curve Information Section
#MNEM       .UNIT                                      API CODE :CURVE DESCRIPTION
#------------------------------------------------------------------------------
DEPT        .FT                                                 :DEPTH     
ASN         .OHMM                                               :          
CILD        .MMHO                                               :          
ILD         .OHMM                                               :          
LAT         .OHMM                                               :          
SP          .MV                                                 :          
SP_NORM     .MV                                                 :SP Normalized
VSH_SP      .V/V                                                :Volume of Shale from SP
~A        DEPTH            ASN           CILD            ILD            LAT             SP        SP_NORM         VSH_SP
# ...
      5571.5000         0.9479        -999.25        -999.25         0.3801      -138.8053      -97.57866              0
      5572.0000         0.9338        -999.25        -999.25          0.398      -137.7864      -96.55081              0
      5572.5000         0.9268        -999.25        -999.25         0.4158      -136.7676      -95.52303              0
      5573.0000         0.9216        -999.25        -999.25         0.4337      -135.4087      -94.15518    0.008987427
      5573.5000         0.9181        -999.25        -999.25         0.4516      -134.3499      -93.08742     0.02034662
      5574.0000         0.9146        -999.25        -999.25         0.4606      -136.0809      -94.80945    0.002027146
      5574.5000         0.9111        -999.25        -999.25         0.4785      -137.8119      -96.53149              0
      5575.0000         0.9042        -999.25        -999.25         0.4875      -139.5429      -98.25352              0
      5575.5000         0.9007        -999.25        -999.25         0.4966      -141.2739      -99.97556              0
      5576.0000         0.8884        -999.25        -999.25         0.5056      -143.0049      -101.6976              0
      5576.5000         0.8867        -999.25        -999.25         0.5059      -144.7359      -103.4196              0
      5577.0000         0.8762        -999.25        -999.25         0.4797      -146.4669      -105.1417              0
      5577.5000         0.8674        -999.25        -999.25         0.4535       -148.761      -107.4268              0
      5578.0000         0.8604        -999.25        -999.25         0.4273      -148.9352      -107.5921              0
      5578.5000         0.8463        -999.25        -999.25         0.4099      -148.9312      -107.5791              0
      5579.0000         0.8217        -999.25        -999.25         0.3749      -148.9252      -107.5641              0
      5579.5000         0.7935        -999.25        -999.25         0.3575      -148.5709      -107.2009              0
      5580.0000         0.7478        -999.25        -999.25          0.393      -148.2146      -106.8356              0
      5580.5000         0.7214        -999.25        -999.25         0.4461      -144.9024      -103.5145              0
      5581.0000         0.6932        -999.25        -999.25         0.5168      -141.5902      -100.1933              0
      5581.5000          0.688        -999.25        -999.25         0.5523       -138.278      -96.87212              0
      5582.0000         0.6986        -999.25        -999.25          0.579      -134.9658      -93.55096     0.01541527
      5582.5000         0.7234        -999.25        -999.25         0.5881      -131.6535       -90.2297     0.05074789
      5583.0000         0.7463        -999.25        -999.25         0.5884      -129.6896      -88.25684     0.07173578
      5583.5000         0.7464        -999.25        -999.25         0.5621      -132.9379      -91.49617     0.03727479
      5584.0000         0.7482        -999.25        -999.25         0.5095      -137.4312      -95.98051              0
      5584.5000         0.7641        -999.25        -999.25         0.4745      -137.6808      -96.22115              0
      5585.0000         0.7765        -999.25        -999.25         0.4394      -137.7794      -96.31079              0
      5585.5000         0.8489        -999.25        -999.25         0.4221      -133.4328      -91.95522     0.03239124
      5586.0000         0.9035        -999.25        -999.25         0.4575       -130.545      -89.05846     0.06320791
      5586.5000         0.8772        -999.25        -999.25         0.4666      -130.3667       -88.8712     0.06519999
      5587.0000         0.8508        -999.25        -999.25         0.4845      -132.4743      -90.96984     0.04287403
      5587.5000         0.8245        -999.25        -999.25         0.5201      -134.5819      -93.06847     0.02054823
      5588.0000         0.7962        -999.25        -999.25         0.5291      -136.6896      -95.16722              0
      5588.5000         0.7927        -999.25        -999.25         0.5382      -138.7972      -97.26585              0
      5589.0000         0.7892        -999.25        -999.25         0.5032      -140.9161      -99.37579              0
      5589.5000         0.7822        -999.25        -999.25          0.468      -141.6209      -100.0716              0
      5590.0000         0.7717        -999.25        -999.25         0.4242      -131.3196      -89.76136     0.05573021
      5590.5000         0.7682        -999.25        -999.25          0.398      -121.0182        -79.451      0.1654149
      5591.0000         0.5691        -999.25        -999.25         0.4159      -110.7169      -69.14075      0.2750984
      5591.5000         0.5463        -999.25        -999.25         0.4691      -100.4155      -58.83038      0.3847832
      5592.0000          0.541        -999.25        -999.25         0.4958        -89.777      -48.18291      0.4980541
      5592.5000          0.534        -999.25        -999.25         0.5577       -88.8935      -47.29045      0.5075483
      5593.0000         0.5305        -999.25        -999.25         0.5667      -103.6919       -62.0799      0.3502139
      5593.5000         0.5288        -999.25        -999.25         0.5758       -86.2523      -44.63132       0.535837
      5594.0000         0.5271        -999.25        -999.25         0.5937       -61.3792      -19.74927      0.8005397
      5594.5000         0.5483        -999.25        -999.25         0.6115       -56.1219      -14.48301      0.8565637
      5595.0000         0.5713        -999.25        -999.25         0.6382       -50.8646      -9.216743      0.9125878
      5595.5000         0.5819        -999.25        -999.25         0.6737        -44.263      -2.606182       0.982913
      5596.0000         0.5943        -999.25        -999.25         0.6915       -48.6692      -7.003422      0.9361338
      5596.5000         0.6102        -999.25        -999.25         0.7094       -53.0754      -11.40066      0.8893547
      5597.0000         0.6138        -999.25        -999.25         0.7537       -57.4815      -15.79779      0.8425767
      5597.5000         0.6156        -999.25        -999.25         0.7539       -61.8877      -20.19503      0.7957975
      5598.0000         0.6262        -999.25        -999.25         0.7365       -66.2938      -24.59217      0.7490194
      5598.5000          0.658        -999.25        -999.25         0.6927          -70.7      -28.98941      0.7022403
      5599.0000         0.6704        -999.25        -999.25         0.6577       -74.7249      -33.00534      0.6595176
      5599.5000         0.8168        -999.25        -999.25          0.473       -85.1946      -43.46609      0.5482331
      5600.0000         0.8168        -999.25        -999.25         0.4467      -114.3793      -72.64183      0.2378529
      5600.5000         0.8194        -999.25        -999.25           0.41      -119.8436      -78.09715      0.1798175
      5601.0000          0.831        -999.25        -999.25         0.3868      -129.3594        -87.604     0.07868081
      5601.5000         0.8151        -999.25        -999.25          0.368       -130.941      -89.17664     0.06195068
      5602.0000         0.8187        -999.25        -999.25         0.3682      -132.3463      -90.57297     0.04709609
      5602.5000         0.8258        -999.25        -999.25         0.3596      -134.2802      -92.49791     0.02661798
      5603.0000         0.8276        -999.25        -999.25          0.351      -135.8615      -94.07024    0.009891023
      5603.5000         0.8311        -999.25        -999.25         0.3424      -139.0288      -97.22858              0
      5604.0000         0.8188        -999.25        -999.25         0.3426       -139.905      -98.09583              0
      5604.5000         0.7642        -999.25        -999.25          0.334      -140.6024      -98.78426              0
