#------------------------------------------------------------------------------
# Created by    : vladimir.rabinovich
# Created on    : 09/19/2023 17:20:49
#------------------------------------------------------------------------------
~Version Information Section
VERS.           2.0     :   CWLS log ASCII Standard - VERSION 2.0
WRAP.           NO      :   One line per depth step
~Well Information Section
#MNEM       .UNIT                                         VALUE :DESCRIPTION
#------------------------------------------------------------------------------
STRT        .FT                                            1700 :START DEPTH
STOP        .FT                                         12339.5 :STOP DEPTH
STEP        .FT                                             0.5 :STEP      
NULL        .                                           -999.25 :NULL      
COMP        .                            CONQUEST PETROLEUM INC :COMPANY   
WELL        .                                          ST TR 20 :WELL      
FLD         .                                   ALLIGATOR POINT :FIELD     
LOC         .                                                   :LOCATION  
CNTY        .                                          BRAZORIA :LOCATION  
STAT        .                                             TEXAS :STATE     
CTRY        .                                     UNITED STATES :COUNTRY   
SRVC        .                                                   :SERVICE COMPANY
DATE        .                             9/13/2023 11:18:59 AM :LOG DATE  
API         .                                    42039319440000 :API NUMBER
UWI         .                                    42039319440000 :UNIQUE WELL ID
XCOORD      .                                   960684.54934625 :SURFACE X 
YCOORD      .                                  10591984.7936865 :SURFACE Y 
LAT         .                                        29.1692948 :LATITUDE  
LON         .                                        -95.130314 :LONGITUDE 
ELEV        .FT                                              45 :ELEVATION VALUE
ELEV_TYPE   .                                                KB :ELEVATION REFERENCE TYPE
~Curve Information Section
#MNEM       .UNIT                                      API CODE :CURVE DESCRIPTION
#------------------------------------------------------------------------------
DEPT        .FT                                                 :DEPTH     
ASN         .OHMM                                               :          
CILD        .MMHO                                               :          
ILD         .OHMM                                               :          
SP          .MV                                                 :          
SP_NORM     .MV                                                 :SP Normalized
VSH_SP      .V/V                                                :Volume of Shale from SP
~A        DEPTH            ASN           CILD            ILD             SP        SP_NORM         VSH_SP
# ...
      4512.0000         0.7782       2506.859         0.3989         -39.84      -37.09972      0.3553621
      4512.5000         0.7559        2638.25          0.379         -40.08      -37.34059      0.3510609
      4513.0000         0.7336       2792.193         0.3581          -36.4      -33.66146      0.4167596
      4513.5000         0.7032       2712.749         0.3686            -32      -29.26232      0.4953156
      4514.0000         0.7131        2591.53         0.3859         -27.68      -24.94319      0.5724431
      4514.5000         0.7271        2470.31         0.4048         -24.24      -21.50406      0.6338562
      4515.0000          0.741        2349.09         0.4257         -21.92      -19.18492      0.6752692
      4515.5000          0.865        2227.87         0.4489         -21.28      -18.54579      0.6866823
      4516.0000         0.8661        2106.65         0.4747         -21.28      -18.54666      0.6866668
      4516.5000         0.9793       1985.431         0.5172         -21.12      -18.38752      0.6895086
      4517.0000         0.9773       1864.211         0.5272         -21.12      -18.38839      0.6894931
      4517.5000         0.9614       1759.336         0.5371         -21.12      -18.38925      0.6894776
      4518.0000         0.9178       1759.326          0.557         -21.12      -18.39012      0.6894621
      4518.5000         0.8742       1759.316          0.567         -21.28      -18.55099      0.6865895
      4519.0000         0.8306       1882.444         0.5312         -22.96      -20.23185      0.6565741
      4519.5000         0.7946       1938.044          0.516         -22.96      -20.23272      0.6565586
      4520.0000         0.7946       1989.673         0.5026         -22.96      -20.23358      0.6565431
      4520.5000         0.8206       1989.663         0.5026         -21.84      -19.11445      0.6765277
      4521.0000         0.8542       1985.681         0.5036         -21.28      -18.55532      0.6865122
      4521.5000         0.8542       1969.782         0.5077         -19.52      -16.79618      0.7179253
      4522.0000         0.8304       1953.883         0.5118         -17.52      -14.79705      0.7536241
      4522.5000         0.8145       1898.263         0.5268         -14.56      -11.83792      0.8064658
      4523.0000         0.7847       1870.448         0.5346         -12.96      -10.23878      0.8350217
      4523.5000         0.7669       1834.688         0.5451          -11.2      -8.479649      0.8664349
      4524.0000         0.7351       1798.928         0.5559          -8.48      -5.760514      0.9149908
      4524.5000         0.7212       1767.141         0.5659          -7.92      -5.201381      0.9249753
      4525.0000         0.7152       1735.354         0.5763          -7.12      -4.402246      0.9392456
      4525.5000         0.7133       1711.511         0.5843          -6.48      -3.763113      0.9506587
      4526.0000         0.7133        1691.64         0.5911          -5.92      -3.203979      0.9606432
      4526.5000         0.7192       1647.936         0.6068          -5.28      -2.564846      0.9720563
      4527.0000         0.7272       1624.093         0.6157           -5.2      -2.485712      0.9734694
      4527.5000          0.749       1620.111         0.6172           -5.2      -2.486578      0.9734539
      4528.0000          0.751       1592.295          0.628           -5.2      -2.487444      0.9734385
      4528.5000         0.7732       1556.541         0.6425          -5.36      -2.648311      0.9705659
      4529.0000         0.7955       1334.084         0.7496          -5.76      -3.049177      0.9634076
      4529.5000         0.8177       1349.967         0.7408          -6.56      -3.850043      0.9491064
      4530.0000         0.8399       1423.603         0.7024             -6      -3.290909      0.9590909
      4530.5000         0.8543       1497.238         0.6679             -6      -3.291775      0.9590755
      4531.0000         0.8248       1570.874         0.6366           -5.6      -2.892642      0.9662029
      4531.5000         0.7952       1644.509         0.6081          -4.96      -2.253508       0.977616
      4532.0000         0.7656       1718.144          0.582          -4.24      -1.534374      0.9904576
      4532.5000         0.7361        1791.78         0.5581          -3.44     -0.7352402              1
      4533.0000         0.6935       1865.415         0.5361          -3.04     -0.3361065              1
      4533.5000         0.6716       1939.051         0.5157           -1.6       1.103027              1
      4534.0000         0.6697       2012.686         0.4968           -1.2       1.502161              1
      4534.5000         0.6716       2072.805         0.4788          -1.04       1.661295              1
      4535.0000         0.6736       2060.884         0.4815          -0.96       1.740429              1
      4535.5000         0.6796       2037.041         0.4855          -0.96       1.739562              1
      4536.0000         0.6816       2023.788         0.4896          -0.96       1.738696              1
      4536.5000         0.6856       2010.535         0.4938          -0.64        2.05783              1
      4537.0000         0.6856       1997.282          0.498          -0.56       2.136964              1
      4537.5000         0.6876        1984.03         0.5024          -0.56       2.136098              1
      4538.0000         0.6896       1970.777         0.5067          -0.56       2.135231              1
      4538.5000         0.6876       1957.524         0.5112          -0.56       2.134365              1
      4539.0000         0.6876       1944.272         0.5157          -0.56       2.133499              1
      4539.5000         0.6896       1931.019         0.5204          -0.56       2.132633              1
      4540.0000         0.6816       1917.776         0.5182          -0.56       2.131767              1
      4540.5000         0.6796       1948.731         0.5132          -0.56         2.1309              1
      4541.0000         0.6777       1967.764         0.5082          -0.56       2.130034              1
      4541.5000         0.6757       1986.798         0.5033          -0.64       2.049168              1
      4542.0000         0.6697       2005.832         0.4985          -0.64       2.048302              1
      4542.5000         0.6658       2024.865         0.4939          -0.64       2.047435              1
      4543.0000         0.6618       2043.899         0.4893          -0.64       2.046569              1
      4543.5000         0.6578       2062.932         0.4847          -0.64       2.045703              1
      4544.0000         0.6539       2081.966         0.4803          -0.64       2.044837              1
      4544.5000         0.6499           2101          0.476          -0.64       2.043971              1
      4545.0000         0.6459       2120.033         0.4717          -0.64       2.043104              1
      4545.5000         0.6439       2139.067         0.4675          -0.72       1.962238              1
      4546.0000          0.638       2159.959          0.463          -0.72       1.961372              1
      4546.5000          0.632       2195.704         0.4554          -0.72       1.960505              1
      4547.0000         0.6301       2219.527         0.4505          -0.88       1.799639              1
      4547.5000         0.6261        2243.35         0.4458          -1.28       1.398773              1
      4548.0000         0.6241       2251.285         0.4442          -1.52       1.157907              1
      4548.5000         0.6221       2255.247         0.4434          -1.68      0.9970406              1
      4549.0000         0.6162       2275.098         0.4395          -1.84      0.8361744              1
      4549.5000         0.6202       2285.442         0.4376             -2      0.6753082              1
