#------------------------------------------------------------------------------
# Created by    : vladimir.rabinovich
# Created on    : 09/19/2023 17:20:50
#------------------------------------------------------------------------------
~Version Information Section
VERS.           2.0     :   CWLS log ASCII Standard - VERSION 2.0
WRAP.           NO      :   One line per depth step
~Well Information Section
#MNEM       .UNIT                                         VALUE :DESCRIPTION
#------------------------------------------------------------------------------
STRT        .FT                                            1116 :START DEPTH
STOP        .FT                                            6700 :STOP DEPTH
STEP        .FT                                             0.5 :STEP      
NULL        .                                           -999.25 :NULL      
COMP        .                               BRAZOS OIL & GAS CO :COMPANY   
WELL        .                                    STATE OF TEXAS :WELL      
FLD         .                                   ALLIGATOR POINT :FIELD     
LOC         .                                                   :LOCATION  
CNTY        .                                          BRAZORIA :LOCATION  
STAT        .                                             TEXAS :STATE     
CTRY        .                                     UNITED STATES :COUNTRY   
SRVC        .                                                   :SERVICE COMPANY
DATE        .                             9/13/2023 11:18:59 AM :LOG DATE  
API         .                                    42039045100000 :API NUMBER
UWI         .                                    42039045100000 :UNIQUE WELL ID
XCOORD      .                                  970513.493421445 :SURFACE X 
YCOORD      .                                   10588404.291611 :SURFACE Y 
LAT         .                                        29.1599373 :LATITUDE  
LON         .                                       -95.0993265 :LONGITUDE 
ELEV        .FT                                              22 :ELEVATION VALUE
ELEV_TYPE   .                                                KB :ELEVATION REFERENCE TYPE
~Curve Information Section
#MNEM       .UNIT                                      API CODE :CURVE DESCRIPTION
#------------------------------------------------------------------------------
DEPT        .FT                                                 :DEPTH     
ASN         .OHMM                                               :          
CILD        .MMHO                                               :          
ILD         .OHMM                                               :          
LAT         .OHMM                                               :          
SP          .MV                                                 :          
SP_NORM     .MV                                                 :SP Normalized
VSH_SP      .V/V                                                :Volume of Shale from SP
~A        DEPTH            ASN           CILD            ILD            LAT             SP        SP_NORM         VSH_SP
# ...
      3695.5000         0.9056        -999.25        -999.25         0.9917       -78.3299      -30.99599      0.6629664
      3696.0000         0.9004        -999.25        -999.25         0.9344       -81.9638      -34.60349      0.6224328
      3696.5000         0.8952        -999.25        -999.25         0.8493       -85.5978      -38.21108       0.581898
      3697.0000         0.8917        -999.25        -999.25         0.8494       -89.2317      -41.81857      0.5413644
      3697.5000         0.9268        -999.25        -999.25         0.8496       -91.3898      -43.95027      0.5174127
      3698.0000         0.9479        -999.25        -999.25         0.8844       -92.6196      -45.15366      0.5038915
      3698.5000          0.969        -999.25        -999.25         0.9192       -91.3837      -43.89135      0.5180747
      3699.0000         0.9901        -999.25        -999.25         0.9539       -89.9732      -42.45445      0.5342197
      3699.5000         1.0218        -999.25        -999.25         0.9887       -78.0616      -30.51644      0.6683546
      3700.0000         1.0622        -999.25        -999.25         1.0234       -66.1499      -18.57834      0.8024906
      3700.5000         1.1183        -999.25        -999.25         1.0582       -54.2382      -6.640232      0.9366266
      3701.0000         1.1219        -999.25        -999.25         1.0985       -49.4462      -1.821827       0.990766
      3701.5000         1.1219        -999.25        -999.25         1.1387       -49.2654      -1.614616      0.9930942
      3702.0000         1.1202        -999.25        -999.25          1.179       -49.7491      -2.071911       0.987956
      3702.5000         1.1097        -999.25        -999.25         1.1939       -50.2328      -2.529205      0.9828179
      3703.0000         1.0571        -999.25        -999.25         1.2116       -50.6599      -2.929901      0.9783157
      3703.5000         1.0326        -999.25        -999.25         1.2118       -50.9592      -3.202797      0.9752495
      3704.0000         1.0081        -999.25        -999.25          1.212       -51.3548      -3.571987      0.9711013
      3704.5000         0.9959        -999.25        -999.25         1.2034       -51.5262       -3.71698      0.9694721
      3705.0000         0.9836        -999.25        -999.25         1.1773       -50.5706      -2.734974      0.9805059
      3705.5000         0.9626        -999.25        -999.25         1.1512        -49.615      -1.771801      0.9913281
      3706.0000         0.9504        -999.25        -999.25         1.1251       -48.6595     -0.8435326              1
      3706.5000         0.9416        -999.25        -999.25         1.1077       -47.4539      0.3348351              1
      3707.0000         0.9277        -999.25        -999.25         1.0816       -47.6276      0.1338997              1
      3707.5000         0.9189        -999.25        -999.25         1.0555       -48.3273     -0.5930328              1
      3708.0000         0.9155        -999.25        -999.25          1.047       -48.4987     -0.7916641              1
      3708.5000         0.9102        -999.25        -999.25         1.0559         -48.67     -0.9901962              1
      3709.0000         0.9015        -999.25        -999.25         1.0648       -48.6652       -1.01263      0.9998581
      3709.5000         0.9033        -999.25        -999.25         1.0738       -48.3082     -0.6828651              1
      3710.0000         0.9069        -999.25        -999.25         1.0564       -47.5989  -0.0007972717              1
      3710.5000         0.9086        -999.25        -999.25         1.0391       -47.4179      0.1529694              1
      3711.0000         0.9122        -999.25        -999.25         1.0217       -46.8847      0.6589355              1
      3711.5000          0.914        -999.25        -999.25         1.0131       -46.1753       1.341103              1
      3712.0000         0.9175        -999.25        -999.25         1.0046        -47.225      0.2641716              1
      3712.5000         0.9211        -999.25        -999.25         0.9959        -46.518      0.9439354              1
      3713.0000         0.9229        -999.25        -999.25         0.9874       -46.5132       0.921505              1
      3713.5000         0.9229        -999.25        -999.25         0.9876       -47.7414      -0.333931              1
      3714.0000         0.9247        -999.25        -999.25         0.9877       -48.0889     -0.7086639              1
      3714.5000         0.9072        -999.25        -999.25         1.0138       -48.6126       -1.25959      0.9970832
      3715.0000         0.8932        -999.25        -999.25         1.0398       -49.1387      -1.812923       0.990866
      3715.5000          0.881        -999.25        -999.25         1.0659       -49.6599      -2.361359      0.9847038
      3716.0000         0.8758        -999.25        -999.25         1.0919       -48.4929      -1.221592      0.9975102
      3716.5000         0.8688        -999.25        -999.25         1.1179       -47.3259    -0.08182526              1
      3717.0000         0.8618        -999.25        -999.25          1.144       -46.1589       1.057941              1
      3717.5000         0.8549        -999.25        -999.25           1.17       -44.8821        2.30751              1
      3718.0000         0.8444        -999.25        -999.25         1.1961       -44.3512       2.811176              1
      3718.5000         0.8409        -999.25        -999.25         1.2221       -44.8724       2.262745              1
      3719.0000         0.8322        -999.25        -999.25         1.2482       -45.5083       1.599609              1
      3719.5000         0.8006        -999.25        -999.25         1.2742       -45.9222       1.158478              1
      3720.0000         0.7901        -999.25        -999.25         1.2972       -46.2697      0.7837448              1
      3720.5000          0.834        -999.25        -999.25         1.2681       -46.4411      0.5851097              1
      3721.0000         0.8569        -999.25        -999.25          1.239       -46.4363      0.5626793              1
      3721.5000         0.8885        -999.25        -999.25         1.2099         -46.61      0.3617439              1
      3722.0000         0.9131        -999.25        -999.25         1.1808       -46.6028       0.341713              1
      3722.5000         0.9377        -999.25        -999.25         1.1517       -46.7742      0.1430779              1
      3723.0000         0.9956        -999.25        -999.25         1.1226       -49.0597      -2.169655      0.9868578
      3723.5000         1.1167        -999.25        -999.25         1.0935       -50.4644      -3.601585      0.9707687
      3724.0000         1.2378        -999.25        -999.25         1.0644        -50.812      -3.976418      0.9665571
      3724.5000         1.2659        -999.25        -999.25         1.0353       -56.7692       -9.96085      0.8993163
      3725.0000          1.294        -999.25        -999.25         1.0062       -62.7263      -15.94518      0.8320766
      3725.5000         1.3028        -999.25        -999.25         0.9748       -68.6835      -21.92962      0.7648357
      3726.0000         1.3081        -999.25        -999.25         0.9486       -73.7001      -26.97345      0.7081634
      3726.5000         1.3082        -999.25        -999.25         0.9313       -72.9012      -26.20178      0.7168339
      3727.0000         1.3065        -999.25        -999.25         0.9227       -72.1023      -25.43012      0.7255043
      3727.5000         1.3012        -999.25        -999.25         0.9141       -71.3034      -24.65845      0.7341747
      3728.0000          1.289        -999.25        -999.25         0.9055       -70.5045      -23.88678      0.7428451
      3728.5000         1.2101        -999.25        -999.25         0.9057       -69.7056      -23.11511      0.7515156
