#------------------------------------------------------------------------------
# Created by    : vladimir.rabinovich
# Created on    : 09/19/2023 17:20:50
#------------------------------------------------------------------------------
~Version Information Section
VERS.           2.0     :   CWLS log ASCII Standard - VERSION 2.0
WRAP.           NO      :   One line per depth step
~Well Information Section
#MNEM       .UNIT                                         VALUE :DESCRIPTION
#------------------------------------------------------------------------------
STRT        .FT                                            1116 :START DEPTH
STOP        .FT                                            6700 :STOP DEPTH
STEP        .FT                                             0.5 :STEP      
NULL        .                                           -999.25 :NULL      
COMP        .                               BRAZOS OIL & GAS CO :COMPANY   
WELL        .                                    STATE OF TEXAS :WELL      
FLD         .                                   ALLIGATOR POINT :FIELD     
LOC         .                                                   :LOCATION  
CNTY        .                                          BRAZORIA :LOCATION  
STAT        .                                             TEXAS :STATE     
CTRY        .                                     UNITED STATES :COUNTRY   
SRVC        .                                                   :SERVICE COMPANY
DATE        .                             9/13/2023 11:18:59 AM :LOG DATE  
API         .                                    42039045100000 :API NUMBER
UWI         .                                    42039045100000 :UNIQUE WELL ID
XCOORD      .                                  970513.493421445 :SURFACE X 
YCOORD      .                                   10588404.291611 :SURFACE Y 
LAT         .                                        29.1599373 :LATITUDE  
LON         .                                       -95.0993265 :LONGITUDE 
ELEV        .FT                                              22 :ELEVATION VALUE
ELEV_TYPE   .                                                KB :ELEVATION REFERENCE TYPE
~Curve Information Section
#MNEM       .UNIT                                      API CODE :CURVE DESCRIPTION
#------------------------------------------------------------------------------
DEPT        .FT                                                 :DEPTH     
ASN         .OHMM                                               :          
CILD        .MMHO                                               :          
ILD         .OHMM                                               :          
LAT         .OHMM                                               :          
SP          .MV                                                 :          
SP_NORM     .MV                                                 :SP Normalized
VSH_SP      .V/V                                                :Volume of Shale from SP
~A        DEPTH            ASN           CILD            ILD            LAT             SP        SP_NORM         VSH_SP
# ...
      2221.5000         0.7496        -999.25        -999.25         0.6989       -77.2554      -14.50105      0.7822412
      2222.0000         0.7497        -999.25        -999.25          0.699       -76.7219      -13.99147      0.7904602
      2222.5000         0.7639        -999.25        -999.25         0.6903       -75.3041       -12.5976       0.812942
      2223.0000         0.7781        -999.25        -999.25         0.7256       -71.2326      -8.550022      0.8782254
      2223.5000         0.7923        -999.25        -999.25         0.7344       -70.3457      -7.687057      0.8921443
      2224.0000         0.8065        -999.25        -999.25         0.7521       -69.9893      -7.354584      0.8975067
      2224.5000         0.8207        -999.25        -999.25         0.7874       -69.6329      -7.022106      0.9028693
      2225.0000         0.8349        -999.25        -999.25         0.8578       -69.2766      -6.689743      0.9082299
      2225.5000         0.8492        -999.25        -999.25         0.8579       -68.7436      -6.205826      0.9160351
      2226.0000         0.8634        -999.25        -999.25          0.858       -68.0337      -5.563637       0.926393
      2226.5000         0.8763        -999.25        -999.25         0.8493       -66.0864      -3.684048      0.9567089
      2227.0000         0.8763        -999.25        -999.25         0.8318       -65.3767      -3.042053      0.9670637
      2227.5000         0.8763        -999.25        -999.25         0.8232       -64.4903      -2.223366      0.9802683
      2228.0000         0.8746        -999.25        -999.25         0.8145       -63.7807       -1.58147      0.9906214
      2228.5000         0.8729        -999.25        -999.25         0.8147       -63.4247      -1.293179      0.9952713
      2229.0000         0.8711        -999.25        -999.25         0.8148       -63.6002      -1.536385      0.9913486
      2229.5000         0.8729        -999.25        -999.25         0.8148       -64.6569      -2.660793       0.973213
      2230.0000         0.8817        -999.25        -999.25         0.8237       -65.3614      -3.432999      0.9607581
      2230.5000         0.8887        -999.25        -999.25         0.8327       -59.8789       1.981792              1
      2231.0000         0.8888        -999.25        -999.25         0.8328       -58.9941       2.798882              1
      2231.5000          0.894        -999.25        -999.25         0.8592       -57.7548       3.970474              1
      2232.0000         0.8976        -999.25        -999.25         0.8769       -55.9843       5.673267              1
      2232.5000         0.9029        -999.25        -999.25         0.9121       -55.0986       6.491257              1
      2233.0000         0.9082        -999.25        -999.25         0.9386        -54.213       7.309147              1
      2233.5000         0.9117        -999.25        -999.25         0.9738       -53.8575       7.596943              1
      2234.0000          0.917        -999.25        -999.25         1.0179       -55.4213       5.965435              1
      2234.5000          0.924        -999.25        -999.25         1.0355       -56.9851       4.333923              1
      2235.0000         0.9363        -999.25        -999.25         1.0532       -58.5489       2.702415              1
      2235.5000         0.9486        -999.25        -999.25         1.0709       -60.1127       1.070908              1
      2236.0000         0.9715        -999.25        -999.25         1.0798       -61.6765     -0.5606003              1
      2236.5000         0.9944        -999.25        -999.25         1.0799       -63.2403      -2.192108      0.9807724
      2237.0000         1.0154        -999.25        -999.25           1.08       -64.8041      -3.823616      0.9544578
      2237.5000         1.0365        -999.25        -999.25         1.0801       -66.3679      -5.455124      0.9281431
      2238.0000         1.0629        -999.25        -999.25         1.0802       -67.9317      -7.086636      0.9018285
      2238.5000         1.1824        -999.25        -999.25         1.0803       -69.4955       -8.71814      0.8755139
      2239.0000         1.2632        -999.25        -999.25         1.0717       -78.0315      -17.32185      0.7367443
      2239.5000         1.3844        -999.25        -999.25         1.0542       -81.9153      -21.27336      0.6730103
      2240.0000         1.4652        -999.25        -999.25          1.028       -94.1683      -33.59406      0.4742893
      2240.5000         1.5864        -999.25        -999.25         0.9842      -106.4212      -45.91468      0.2755697
      2241.0000         1.5179        -999.25        -999.25         0.9228      -118.8126      -58.37378      0.0746164
      2241.5000         1.6022        -999.25        -999.25         0.8703      -119.3377      -58.96659     0.06505498
      2242.0000         1.5091        -999.25        -999.25         0.8265      -119.8651       -59.5617     0.05545653
      2242.5000         1.4159        -999.25        -999.25         0.8178        -120.39      -60.15431     0.04589825
      2243.0000         1.3227        -999.25        -999.25          0.774      -120.5619      -60.39391     0.04203366
      2243.5000         1.2295        -999.25        -999.25         0.7477      -120.7337      -60.63343     0.03817054
      2244.0000         1.1364        -999.25        -999.25         0.7391      -120.7314      -60.69883     0.03711559
      2244.5000         1.0432        -999.25        -999.25         0.6778      -116.1604      -56.19554      0.1097493
      2245.0000           0.95        -999.25        -999.25         0.7217      -111.5894      -51.69225      0.1823831
      2245.5000         0.8191        -999.25        -999.25          0.757      -107.0184      -47.18896      0.2550168
      2246.0000         0.8051        -999.25        -999.25          0.801      -100.4055      -40.64377      0.3605844
      2246.5000         0.8261        -999.25        -999.25         0.8451        -85.725      -26.03097      0.5962747
      2247.0000          0.849        -999.25        -999.25         0.9505       -64.0367      -4.410378      0.9449939
      2247.5000         0.8595        -999.25        -999.25          0.977       -63.8602       -4.30159      0.9467486
      2248.0000         0.8666        -999.25        -999.25         0.9947       -59.3141      0.1768036              1
      2248.5000         0.8771        -999.25        -999.25         1.0211       -55.2064       4.216793              1
      2249.0000         0.8772        -999.25        -999.25           1.03       -54.4983       4.857185              1
      2249.5000         0.8702        -999.25        -999.25         1.0389       -54.1433       5.144478              1
      2250.0000         0.8649        -999.25        -999.25         1.0566       -54.1411       5.078968              1
      2250.5000          0.872        -999.25        -999.25         1.0436       -56.8255       2.326859              1
      2251.0000         0.8808        -999.25        -999.25         1.0305       -59.5098      -0.425148              1
      2251.5000         0.8843        -999.25        -999.25          1.013       -62.1941      -3.177155      0.9648846
      2252.0000         0.8896        -999.25        -999.25         0.9956       -64.8785      -5.929264      0.9204957
      2252.5000         0.8896        -999.25        -999.25         0.9781       -67.5628      -8.681271      0.8761085
      2253.0000         0.8861        -999.25        -999.25         0.9607       -70.2471      -11.43328      0.8317212
      2253.5000         0.8721        -999.25        -999.25         0.9345       -72.9315      -14.18539      0.7873324
      2254.0000         0.8598        -999.25        -999.25         0.9082       -76.1747       -17.4963      0.7339307
      2254.5000         0.8229        -999.25        -999.25          0.882       -72.8217      -14.21101      0.7869192
