#------------------------------------------------------------------------------
# Created by    : vladimir.rabinovich
# Created on    : 09/19/2023 17:20:49
#------------------------------------------------------------------------------
~Version Information Section
VERS.           2.0     :   CWLS log ASCII Standard - VERSION 2.0
WRAP.           NO      :   One line per depth step
~Well Information Section
#MNEM       .UNIT                                         VALUE :DESCRIPTION
#------------------------------------------------------------------------------
STRT        .FT                                            1700 :START DEPTH
STOP        .FT                                         12339.5 :STOP DEPTH
STEP        .FT                                             0.5 :STEP      
NULL        .                                           -999.25 :NULL      
COMP        .                            CONQUEST PETROLEUM INC :COMPANY   
WELL        .                                          ST TR 20 :WELL      
FLD         .                                   ALLIGATOR POINT :FIELD     
LOC         .                                                   :LOCATION  
CNTY        .                                          BRAZORIA :LOCATION  
STAT        .                                             TEXAS :STATE     
CTRY        .                                     UNITED STATES :COUNTRY   
SRVC        .                                                   :SERVICE COMPANY
DATE        .                             9/13/2023 11:18:59 AM :LOG DATE  
API         .                                    42039319440000 :API NUMBER
UWI         .                                    42039319440000 :UNIQUE WELL ID
XCOORD      .                                   960684.54934625 :SURFACE X 
YCOORD      .                                  10591984.7936865 :SURFACE Y 
LAT         .                                        29.1692948 :LATITUDE  
LON         .                                        -95.130314 :LONGITUDE 
ELEV        .FT                                              45 :ELEVATION VALUE
ELEV_TYPE   .                                                KB :ELEVATION REFERENCE TYPE
~Curve Information Section
#MNEM       .UNIT                                      API CODE :CURVE DESCRIPTION
#------------------------------------------------------------------------------
DEPT        .FT                                                 :DEPTH     
ASN         .OHMM                                               :          
CILD        .MMHO                                               :          
ILD         .OHMM                                               :          
SP          .MV                                                 :          
SP_NORM     .MV                                                 :SP Normalized
VSH_SP      .V/V                                                :Volume of Shale from SP
~A        DEPTH            ASN           CILD            ILD             SP        SP_NORM         VSH_SP
# ...
     12302.0000         0.7893       1308.875          0.764          -1.16     0.06699395              1
     12302.5000         0.7873       1308.875          0.764          -1.04       0.186994              1
     12303.0000         0.8592       1308.875          0.764          -0.92      0.3069939              1
     12303.5000         0.9311       1307.579         0.7648           -0.8      0.4269939              1
     12304.0000          1.003       1306.284         0.7655          -0.68      0.5469939              1
     12304.5000         1.0748       1304.988         0.7663           -1.2     0.02699387              1
     12305.0000         1.1467       1303.693         0.7671           -1.2     0.02699387              1
     12305.5000         1.2494       1302.397         0.7678          -0.88      0.3469939              1
     12306.0000         1.2905       1300.942         0.7687          -0.56      0.6669939              1
     12306.5000         1.3624       1300.942         0.7687          -0.28      0.9469939              1
     12307.0000         1.3704       1300.942         0.7687          -0.28      0.9469939              1
     12307.5000         1.3723        1302.42         0.7678           -0.8      0.4269939              1
     12308.0000         1.3743       1303.899         0.7669          -0.92      0.3069939              1
     12308.5000         1.3743       1305.377         0.7661          -1.08      0.1469939              1
     12309.0000         1.3684       1306.855         0.7652          -1.08      0.1469939              1
     12309.5000         1.3644       1308.333         0.7643          -1.08      0.1469939              1
     12310.0000         1.3604       1309.811         0.7635          -0.84      0.3869939              1
     12310.5000         1.3565        1311.29         0.7626          -0.56      0.6669939              1
     12311.0000         1.3545       1308.875         0.7617          -0.28      0.9469939              1
     12311.5000         1.3525       1304.908         0.7617           0.08       1.306994              1
     12312.0000         1.3485       1300.942         0.7694           0.08       1.306994              1
     12312.5000         1.3446       1293.009         0.7772            0.2       1.426994              1
     12313.0000         1.3386       1285.077         0.7852          -0.12       1.106994              1
     12313.5000         1.3228       1277.144         0.7933          -0.16       1.066994              1
     12314.0000         1.3109       1247.458         0.8016           -0.2       1.026994              1
     12314.5000          1.299       1234.381         0.8101           -0.2       1.026994              1
     12315.0000         1.2851       1221.304         0.8188           -0.2       1.026994              1
     12315.5000         1.2514       1208.228         0.8277          -0.12       1.106994              1
     12316.0000         1.1978       1195.151         0.8367           0.24       1.466994              1
     12316.5000         1.1541       1182.074          0.846            0.6       1.826994              1
     12317.0000         1.1104       1174.021         0.8518           0.96       2.186994              1
     12317.5000         1.0666       1177.987         0.8518           1.32       2.546994              1
     12318.0000         1.0229       1174.021         0.8518           1.68       2.906994              1
     12318.5000         0.9792       1174.021         0.8516           1.16       2.386994              1
     12319.0000         0.9301       1170.054         0.8514           1.16       2.386994              1
     12319.5000         0.9202       1174.701         0.8513           1.36       2.586994              1
     12320.0000         0.9122        -999.25        -999.25           1.76       2.986994              1
     12320.5000         0.9083        -999.25        -999.25           1.92       3.146994              1
     12321.0000         0.9003        -999.25        -999.25           2.04       3.266994              1
     12321.5000        -999.25        -999.25        -999.25           1.96       3.186994              1
     12322.0000        -999.25        -999.25        -999.25           1.84       3.066994              1
     12322.5000        -999.25        -999.25        -999.25           1.64       2.866994              1
     12323.0000        -999.25        -999.25        -999.25           1.44       2.666994              1
     12323.5000        -999.25        -999.25        -999.25           1.24       2.466994              1
     12324.0000        -999.25        -999.25        -999.25           1.16       2.386994              1
     12324.5000        -999.25        -999.25        -999.25           1.16       2.386994              1
     12325.0000        -999.25        -999.25        -999.25           1.04       2.266994              1
     12325.5000        -999.25        -999.25        -999.25           0.88       2.106994              1
     12326.0000        -999.25        -999.25        -999.25           0.64       1.866994              1
     12326.5000        -999.25        -999.25        -999.25           0.64       1.866994              1
     12327.0000        -999.25        -999.25        -999.25           0.84       2.066994              1
     12327.5000        -999.25        -999.25        -999.25              1       2.226994              1
     12328.0000        -999.25        -999.25        -999.25           1.16       2.386994              1
     12328.5000        -999.25        -999.25        -999.25           1.36       2.586994              1
     12329.0000        -999.25        -999.25        -999.25           1.52       2.746994              1
     12329.5000        -999.25        -999.25        -999.25           1.68       2.906994              1
     12330.0000        -999.25        -999.25        -999.25           1.52       2.746994              1
     12330.5000        -999.25        -999.25        -999.25           1.16       2.386994              1
     12331.0000        -999.25        -999.25        -999.25           0.84       2.066994              1
     12331.5000        -999.25        -999.25        -999.25           0.48       1.706994              1
     12332.0000        -999.25        -999.25        -999.25           0.12       1.346994              1
     12332.5000        -999.25        -999.25        -999.25           0.24       1.466994              1
     12333.0000        -999.25        -999.25        -999.25           0.24       1.466994              1
     12333.5000        -999.25        -999.25        -999.25           0.24       1.466994              1
     12334.0000        -999.25        -999.25        -999.25           0.44       1.666994              1
     12334.5000        -999.25        -999.25        -999.25           0.72       1.946994              1
     12335.0000        -999.25        -999.25        -999.25           0.84       2.066994              1
     12335.5000        -999.25        -999.25        -999.25           0.52       1.746994              1
     12336.0000        -999.25        -999.25        -999.25           0.32       1.546994              1
     12336.5000        -999.25        -999.25        -999.25           0.12       1.346994              1
     12337.0000        -999.25        -999.25        -999.25          -0.12       1.106994              1
     12337.5000        -999.25        -999.25        -999.25          -0.36      0.8669939              1
     12338.0000        -999.25        -999.25        -999.25          -0.56      0.6669939              1
     12338.5000        -999.25        -999.25        -999.25          -0.88      0.3469939              1
     12339.0000        -999.25        -999.25        -999.25          -0.88      0.3469939              1
     12339.5000        -999.25        -999.25        -999.25          -0.88      0.3469939              1
