#------------------------------------------------------------------------------
# Created by    : vladimir.rabinovich
# Created on    : 09/19/2023 17:20:49
#------------------------------------------------------------------------------
~Version Information Section
VERS.           2.0     :   CWLS log ASCII Standard - VERSION 2.0
WRAP.           NO      :   One line per depth step
~Well Information Section
#MNEM       .UNIT                                         VALUE :DESCRIPTION
#------------------------------------------------------------------------------
STRT        .FT                                            1700 :START DEPTH
STOP        .FT                                         12339.5 :STOP DEPTH
STEP        .FT                                             0.5 :STEP      
NULL        .                                           -999.25 :NULL      
COMP        .                            CONQUEST PETROLEUM INC :COMPANY   
WELL        .                                          ST TR 20 :WELL      
FLD         .                                   ALLIGATOR POINT :FIELD     
LOC         .                                                   :LOCATION  
CNTY        .                                          BRAZORIA :LOCATION  
STAT        .                                             TEXAS :STATE     
CTRY        .                                     UNITED STATES :COUNTRY   
SRVC        .                                                   :SERVICE COMPANY
DATE        .                             9/13/2023 11:18:59 AM :LOG DATE  
API         .                                    42039319440000 :API NUMBER
UWI         .                                    42039319440000 :UNIQUE WELL ID
XCOORD      .                                   960684.54934625 :SURFACE X 
YCOORD      .                                  10591984.7936865 :SURFACE Y 
LAT         .                                        29.1692948 :LATITUDE  
LON         .                                        -95.130314 :LONGITUDE 
ELEV        .FT                                              45 :ELEVATION VALUE
ELEV_TYPE   .                                                KB :ELEVATION REFERENCE TYPE
~Curve Information Section
#MNEM       .UNIT                                      API CODE :CURVE DESCRIPTION
#------------------------------------------------------------------------------
DEPT        .FT                                                 :DEPTH     
ASN         .OHMM                                               :          
CILD        .MMHO                                               :          
ILD         .OHMM                                               :          
SP          .MV                                                 :          
SP_NORM     .MV                                                 :SP Normalized
VSH_SP      .V/V                                                :Volume of Shale from SP
~A        DEPTH            ASN           CILD            ILD             SP        SP_NORM         VSH_SP
      1700.0000         0.7312        -999.25          1.508         -12.32      -11.09301      0.7031469
      1700.5000         0.7312        -999.25          1.212           -8.4      -7.173006       0.818441
      1701.0000         0.7314       214.8615           0.92           -4.4      -3.173006      0.9360881
      1701.5000         0.7314       929.0527          0.628          -3.68      -2.453006      0.9572645
      1702.0000         0.7433       1643.244         0.6086          -2.96      -1.733006       0.978441
      1702.5000         0.7511       2357.435         0.4242          -1.84     -0.6130061              1
      1703.0000         0.7552       2757.322         0.3627          -2.24      -1.013006      0.9996175
      1703.5000         0.7913       2562.543         0.3902           -3.2      -1.973006      0.9713822
      1704.0000         0.8273       1932.382         0.4223          -4.08      -2.853006      0.9454998
      1704.5000         0.8634       1892.727         0.4602          -5.04      -3.813006      0.9172645
      1705.0000         0.8994       1861.013         0.5055          -5.92      -4.693006      0.8913822
      1705.5000         0.9376       1825.333         0.5539           -6.8      -5.573006      0.8654998
      1706.0000         0.8707       1809.484         0.5471          -6.16      -4.933006      0.8843234
      1706.5000         0.8296       1849.899         0.5406          -5.52      -4.293006      0.9031469
      1707.0000         0.7884       1872.097         0.5342          -4.88      -3.653006      0.9219704
      1707.5000         0.7473       1894.295         0.5279          -4.24      -3.013006      0.9407939
      1708.0000         0.7062       1916.494         0.5218           -3.6      -2.373006      0.9596175
      1708.5000          0.665       1938.692         0.5158          -2.96      -1.733006       0.978441
      1709.0000         0.6239       1960.891           0.51          -2.08      -0.853006              1
      1709.5000         0.5627       1983.089         0.5043          -2.08      -0.853006              1
      1710.0000         0.5607       2039.669         0.4903          -2.08      -0.853006              1
      1710.5000         0.5822       2011.905          0.497          -1.84     -0.6130061              1
      1711.0000         0.6037        1984.79         0.5038          -2.16     -0.9330062              1
      1711.5000         0.6242       1957.674         0.5108           -2.4      -1.173006      0.9949116
      1712.0000         0.6242       1930.559          0.518          -2.72      -1.493006      0.9854998
      1712.5000         0.6242       1903.444         0.5254          -2.96      -1.733006       0.978441
      1713.0000         0.6208       1865.243         0.5361          -3.28      -2.053006      0.9690292
      1713.5000         0.6173       1824.016         0.5482          -3.68      -2.453006      0.9572645
      1714.0000         0.6142       1782.791         0.5609          -3.84      -2.613006      0.9525586
      1714.5000         0.6221       1750.269         0.5713          -6.56      -5.333006      0.8725587
      1715.0000         0.7068       1738.379         0.5752           -9.2      -7.973006      0.7949116
      1715.5000         0.7914        1722.53         0.5805         -11.92      -10.69301      0.7149116
      1716.0000         0.8621       1704.235         0.5868         -14.56      -13.33301      0.6372645
      1716.5000         0.9377       1685.941         0.5931         -17.28      -16.05301      0.5572645
      1717.0000         1.0346       1667.647         0.5996         -19.92      -18.69301      0.4796174
      1717.5000         1.0941       1649.353         0.6063         -21.76      -20.53301      0.4254998
      1718.0000         1.0941       1631.059         0.6131         -23.12      -21.89301      0.3854998
      1718.5000         1.0617       1643.311         0.6085         -23.12      -21.89301      0.3854998
      1719.0000         1.0293        1713.88         0.5835         -23.36      -22.13301       0.378441
      1719.5000          0.997       1784.449         0.5604            -24      -22.77301      0.3596175
      1720.0000         0.9646       1855.018         0.5391         -25.12      -23.89301      0.3266762
      1720.5000         0.9323       1925.587         0.5193         -25.68      -24.45301      0.3102057
      1721.0000         0.9076       1996.156          0.501         -26.08      -24.85301       0.298441
      1721.5000         0.8997       2083.676         0.4799         -27.28      -26.05301      0.2631468
      1722.0000          0.894        2079.71         0.4808         -27.28      -26.05301      0.2631468
      1722.5000         0.8897       2044.015         0.4892         -27.28      -26.05301      0.2631468
      1723.0000         0.8917        2008.32         0.4979         -27.52      -26.29301       0.256088
      1723.5000         0.8996       1972.626         0.5069         -27.92      -26.69301      0.2443233
      1724.0000         0.9165       1936.931         0.5163         -28.48      -27.25301      0.2278528
      1724.5000         0.9333       1901.236          0.526         -29.28      -28.05301      0.2043233
      1725.0000         0.9502        1849.78          0.536         -30.08      -28.85301      0.1807939
      1725.5000          0.967       1841.855         0.5429         -31.28      -30.05301      0.1454998
      1726.0000         0.9868       1833.939         0.5453         -32.08      -30.85301      0.1219703
      1726.5000         0.9769       1826.023         0.5257         -33.12      -31.89301      0.0913822
      1727.0000         0.9729       1893.773         0.5075         -33.68      -32.45301     0.07491156
      1727.5000         0.9452       1953.591         0.4905         -33.84      -32.61301     0.07020569
      1728.0000         0.9253       2013.409         0.4747         -34.08      -32.85301     0.06314681
      1728.5000         0.9095       2073.227         0.4598         -34.08      -32.85301     0.06314681
      1729.0000         0.8956       2133.044         0.4458         -33.92        -32.693      0.0678528
      1729.5000         0.8825       2192.862         0.4326         -33.52      -32.29301     0.07961744
      1730.0000         0.8609        2252.68         0.4202         -33.12      -31.89301      0.0913822
      1730.5000         0.8393       2447.893         0.4085         -33.12      -31.89301      0.0913822
      1731.0000         0.8142       2516.314         0.3974         -33.44      -32.21301     0.08197044
      1731.5000         0.8063       2587.708         0.3864         -33.68      -32.45301     0.07491156
      1732.0000         0.7943       2707.339         0.3694            -34      -32.77301     0.06549981
      1732.5000         0.7824        2826.97         0.3537         -34.32      -33.09301     0.05608806
      1733.0000         0.7704       2946.602         0.3394         -34.64      -33.41301      0.0466763
      1733.5000         0.7584       3066.233         0.3261         -34.96      -33.73301     0.03726454
      1734.0000         0.7465       3185.864         0.3139         -35.28      -34.05301     0.02785279
      1734.5000         0.7289       3333.486            0.3          -35.6        -34.373     0.01844103
      1735.0000         0.7269       3317.621         0.3014         -35.92        -34.693    0.009029277
      1735.5000         0.7229       3170.845         0.3154         -35.92        -34.693    0.009029277
      1736.0000         0.7289       3024.069         0.3307         -35.68      -34.45301     0.01608804
      1736.5000          0.744       2877.293         0.3475         -34.96      -33.73301     0.03726454
      1737.0000         0.7592       2730.518         0.3662         -34.24      -33.01301     0.05844094
      1737.5000         0.7743       2583.742          0.387         -33.52      -32.29301     0.07961744
