#------------------------------------------------------------------------------
# Created by    : vladimir.rabinovich
# Created on    : 09/19/2023 17:20:50
#------------------------------------------------------------------------------
~Version Information Section
VERS.           2.0     :   CWLS log ASCII Standard - VERSION 2.0
WRAP.           NO      :   One line per depth step
~Well Information Section
#MNEM       .UNIT                                         VALUE :DESCRIPTION
#------------------------------------------------------------------------------
STRT        .FT                                            1116 :START DEPTH
STOP        .FT                                            6700 :STOP DEPTH
STEP        .FT                                             0.5 :STEP      
NULL        .                                           -999.25 :NULL      
COMP        .                               BRAZOS OIL & GAS CO :COMPANY   
WELL        .                                    STATE OF TEXAS :WELL      
FLD         .                                   ALLIGATOR POINT :FIELD     
LOC         .                                                   :LOCATION  
CNTY        .                                          BRAZORIA :LOCATION  
STAT        .                                             TEXAS :STATE     
CTRY        .                                     UNITED STATES :COUNTRY   
SRVC        .                                                   :SERVICE COMPANY
DATE        .                             9/13/2023 11:18:59 AM :LOG DATE  
API         .                                    42039045100000 :API NUMBER
UWI         .                                    42039045100000 :UNIQUE WELL ID
XCOORD      .                                  970513.493421445 :SURFACE X 
YCOORD      .                                   10588404.291611 :SURFACE Y 
LAT         .                                        29.1599373 :LATITUDE  
LON         .                                       -95.0993265 :LONGITUDE 
ELEV        .FT                                              22 :ELEVATION VALUE
ELEV_TYPE   .                                                KB :ELEVATION REFERENCE TYPE
~Curve Information Section
#MNEM       .UNIT                                      API CODE :CURVE DESCRIPTION
#------------------------------------------------------------------------------
DEPT        .FT                                                 :DEPTH     
ASN         .OHMM                                               :          
CILD        .MMHO                                               :          
ILD         .OHMM                                               :          
LAT         .OHMM                                               :          
SP          .MV                                                 :          
SP_NORM     .MV                                                 :SP Normalized
VSH_SP      .V/V                                                :Volume of Shale from SP
~A        DEPTH            ASN           CILD            ILD            LAT             SP        SP_NORM         VSH_SP
# ...
      5203.0000         0.7924        -999.25        -999.25         0.4607      -102.9243      -64.88749      0.3203458
      5203.5000         0.8233        -999.25        -999.25         0.4345      -108.5912      -70.55439      0.2600597
      5204.0000         0.8251        -999.25        -999.25          0.417      -114.2581      -76.22129      0.1997735
      5204.5000         0.8251        -999.25        -999.25         0.3908      -120.6933      -82.65649       0.131314
      5205.0000         0.8252        -999.25        -999.25         0.3734      -121.3946      -83.35779      0.1238533
      5205.5000         0.8381        -999.25        -999.25          0.356      -121.3929      -83.35609      0.1238714
      5206.0000         0.8511        -999.25        -999.25         0.3385      -118.5099      -80.47309      0.1545416
      5206.5000          0.864        -999.25        -999.25         0.3211       -115.627      -77.59019      0.1852108
      5207.0000          0.864        -999.25        -999.25         0.3037      -112.7441      -74.70729      0.2158799
      5207.5000         0.8534        -999.25        -999.25         0.3479      -109.8612      -71.82439      0.2465491
      5208.0000         0.8429        -999.25        -999.25         0.3745      -106.9783      -68.94149      0.2772182
      5208.5000         0.8323        -999.25        -999.25         0.4011      -104.0954      -66.05859      0.3078874
      5209.0000         0.8166        -999.25        -999.25         0.4188      -101.8551      -63.81829      0.3317203
      5209.5000         0.8916        -999.25        -999.25         0.4542       -52.9845      -14.94769      0.8516203
      5210.0000         0.9666        -999.25        -999.25         0.5513       -48.4094      -10.37259      0.9002916
      5210.5000         1.0597        -999.25        -999.25         0.5603       -47.3513      -9.314487       0.911548
      5211.0000         1.0615        -999.25        -999.25         0.5692       -44.5356      -6.498787      0.9415023
      5211.5000         1.0615        -999.25        -999.25          0.587       -45.7624       -7.72559      0.9284512
      5212.0000         1.0497        -999.25        -999.25          0.596       -46.6377      -8.600887      0.9191395
      5212.5000         1.0379        -999.25        -999.25         0.6138        -47.513      -9.476189      0.9098278
      5213.0000         1.0264        -999.25        -999.25         0.6669       -47.8628      -9.825989      0.9061065
      5213.5000         1.0282        -999.25        -999.25         0.7111       -46.6254      -8.588589      0.9192703
      5214.0000         1.0441        -999.25        -999.25         0.7289        -45.388      -7.351189      0.9324341
      5214.5000         1.0423        -999.25        -999.25         0.7467       -44.1506      -6.113789       0.945598
      5215.0000         1.0406        -999.25        -999.25         0.7469       -42.9133      -4.876488      0.9587608
      5215.5000         1.0264        -999.25        -999.25         0.7382       -41.6759      -3.639088      0.9719246
      5216.0000         1.0143        -999.25        -999.25         0.7208       -40.4385      -2.401688      0.9850884
      5216.5000         1.0263        -999.25        -999.25         0.7034       -39.2011      -1.164288      0.9982523
      5217.0000         1.0384        -999.25        -999.25          0.686       -37.9637     0.07311249              1
      5217.5000         1.0505        -999.25        -999.25         0.6597       -36.7263       1.310513              1
      5218.0000         1.0626        -999.25        -999.25         0.6247       -35.4889       2.547913              1
      5218.5000         1.0747        -999.25        -999.25         0.6161       -34.2516       3.785213              1
      5219.0000         1.0868        -999.25        -999.25         0.6074       -32.1744       5.862411              1
      5219.5000         1.0988        -999.25        -999.25         0.6076       -31.8176       6.219212              1
      5220.0000         1.1114        -999.25        -999.25          0.599       -31.9916       6.045212              1
      5220.5000         1.1273        -999.25        -999.25          0.608       -33.1042       4.932613              1
      5221.0000         1.1343        -999.25        -999.25          0.617       -34.2168       3.820011              1
      5221.5000         1.1467        -999.25        -999.25         0.6348       -34.9707       3.066113              1
      5222.0000         1.1505        -999.25        -999.25         0.6526       -35.6703       2.366512              1
      5222.5000         1.1538        -999.25        -999.25         0.6703       -36.0183       2.018513              1
      5223.0000         1.1538        -999.25        -999.25         0.6793       -36.3663       1.670513              1
      5223.5000         1.1795        -999.25        -999.25         0.6795       -36.8883        1.14851              1
      5224.0000         1.2051        -999.25        -999.25         0.6797       -37.2066      0.8302116              1
      5224.5000         1.2307        -999.25        -999.25         0.6887       -37.5861      0.4507103              1
      5225.0000         1.2564        -999.25        -999.25         0.6977       -38.1099     -0.0730896              1
      5225.5000          1.282        -999.25        -999.25         0.7331       -38.2821     -0.2452888              1
      5226.0000         1.3077        -999.25        -999.25         0.7597       -40.2938      -2.256989      0.9866278
      5226.5000         1.3333        -999.25        -999.25         0.7951       -42.3055      -4.268688      0.9652267
      5227.0000         1.3584        -999.25        -999.25         0.8481       -44.3172      -6.280388      0.9438257
      5227.5000         1.3602        -999.25        -999.25         0.9187       -46.3289      -8.292088      0.9224246
      5228.0000         1.3549        -999.25        -999.25         0.9453       -48.3406      -10.30379      0.9010236
      5228.5000         1.3077        -999.25        -999.25         0.9807       -50.3885      -12.35169      0.8792374
      5229.0000         1.2605        -999.25        -999.25         1.0249       -47.4761      -9.439289      0.9102203
      5229.5000         1.2133        -999.25        -999.25         1.0603       -43.7008       -5.66399      0.9503831
      5230.0000         1.1661        -999.25        -999.25         1.2102       -43.5251      -5.488289      0.9522523
      5230.5000         1.1189        -999.25        -999.25         1.2192       -45.1879      -7.151089      0.9345629
      5231.0000         1.0717        -999.25        -999.25         1.2106       -46.8507      -8.813889      0.9168735
      5231.5000         1.0244        -999.25        -999.25         1.2108       -49.3111      -11.27429      0.8906991
      5232.0000         0.9765        -999.25        -999.25         1.2021       -48.2788      -10.24199      0.9016809
      5232.5000         0.9519        -999.25        -999.25         1.1935       -47.2465      -9.209686      0.9126629
      5233.0000         0.9484        -999.25        -999.25         1.1937       -46.2141      -8.177288      0.9236459
      5233.5000         0.9484        -999.25        -999.25         1.1939       -45.1818      -7.144989      0.9346278
      5234.0000         1.0101        -999.25        -999.25         1.1853        -43.845      -5.808189       0.948849
      5234.5000         1.0418        -999.25        -999.25          1.159        -43.316       -5.27919      0.9544767
      5235.0000         1.0753        -999.25        -999.25         1.1592       -43.1384      -5.101589      0.9563661
      5235.5000         1.1229        -999.25        -999.25         1.1682       -45.3108      -7.273987      0.9332554
      5236.0000         1.1353        -999.25        -999.25         1.1684       -47.4832      -9.446388      0.9101448
