#------------------------------------------------------------------------------
# Created by    : vladimir.rabinovich
# Created on    : 09/19/2023 17:20:49
#------------------------------------------------------------------------------
~Version Information Section
VERS.           2.0     :   CWLS log ASCII Standard - VERSION 2.0
WRAP.           NO      :   One line per depth step
~Well Information Section
#MNEM       .UNIT                                         VALUE :DESCRIPTION
#------------------------------------------------------------------------------
STRT        .FT                                            1700 :START DEPTH
STOP        .FT                                         12339.5 :STOP DEPTH
STEP        .FT                                             0.5 :STEP      
NULL        .                                           -999.25 :NULL      
COMP        .                            CONQUEST PETROLEUM INC :COMPANY   
WELL        .                                          ST TR 20 :WELL      
FLD         .                                   ALLIGATOR POINT :FIELD     
LOC         .                                                   :LOCATION  
CNTY        .                                          BRAZORIA :LOCATION  
STAT        .                                             TEXAS :STATE     
CTRY        .                                     UNITED STATES :COUNTRY   
SRVC        .                                                   :SERVICE COMPANY
DATE        .                             9/13/2023 11:18:59 AM :LOG DATE  
API         .                                    42039319440000 :API NUMBER
UWI         .                                    42039319440000 :UNIQUE WELL ID
XCOORD      .                                   960684.54934625 :SURFACE X 
YCOORD      .                                  10591984.7936865 :SURFACE Y 
LAT         .                                        29.1692948 :LATITUDE  
LON         .                                        -95.130314 :LONGITUDE 
ELEV        .FT                                              45 :ELEVATION VALUE
ELEV_TYPE   .                                                KB :ELEVATION REFERENCE TYPE
~Curve Information Section
#MNEM       .UNIT                                      API CODE :CURVE DESCRIPTION
#------------------------------------------------------------------------------
DEPT        .FT                                                 :DEPTH     
ASN         .OHMM                                               :          
CILD        .MMHO                                               :          
ILD         .OHMM                                               :          
SP          .MV                                                 :          
SP_NORM     .MV                                                 :SP Normalized
VSH_SP      .V/V                                                :Volume of Shale from SP
~A        DEPTH            ASN           CILD            ILD             SP        SP_NORM         VSH_SP
# ...
     10896.0000         0.6891       1398.265         0.7152          -3.92      -1.575664      0.9905629
     10896.5000          0.697       1382.519         0.7233             -4      -1.657597      0.9892197
     10897.0000         0.7068       1370.724         0.7295             -4       -1.65953       0.989188
     10897.5000         0.7147       1358.928         0.7359          -4.12      -1.781462      0.9871892
     10898.0000         0.7186       1358.986          0.738          -4.12      -1.783395      0.9871575
     10898.5000         0.7206       1355.064         0.7401          -4.12      -1.785328      0.9871258
     10899.0000         0.7225        1347.22         0.7379           -4.2       -1.86726      0.9857826
     10899.5000         0.7225       1330.344         0.7336          -4.04      -1.709193      0.9883739
     10900.0000         0.7225       1313.467         0.7294          -3.84      -1.511126      0.9916209
     10900.5000         0.7224       1292.138         0.7532          -3.44      -1.113059      0.9981466
     10901.0000         0.7461       1292.167         0.7692          -3.32     -0.9949913              1
     10901.5000           0.75       1292.225         0.7715          -3.44      -1.116924      0.9980832
     10902.0000         0.7559       1296.234         0.7738          -3.52      -1.198857        0.99674
     10902.5000         0.7638       1300.243         0.7834          -3.64       -1.32079      0.9947411
     10903.0000         0.7717       1244.987         0.8032          -3.64      -1.322722      0.9947095
     10903.5000         0.7894       1225.291         0.8161          -3.64      -1.324655      0.9946778
     10904.0000         0.8032        1189.79         0.8405          -3.64      -1.326588      0.9946461
     10904.5000         0.8328       1162.191         0.8604          -3.72       -1.40852      0.9933029
     10905.0000         0.8664       1158.298         0.8633          -4.04      -1.730453      0.9880254
     10905.5000         0.8861       1130.699         0.8844          -4.16      -1.852386      0.9860265
     10906.0000          0.894       1126.807         0.8875          -4.36      -2.054318      0.9827161
     10906.5000         0.9098        1107.11         0.9033          -4.44      -2.136251       0.981373
     10907.0000         0.8554       1134.825         0.8812          -4.44      -2.138184      0.9813412
     10907.5000         0.8366        1171.25         0.8538          -4.44      -2.140116      0.9813096
     10908.0000         0.8178       1207.675          0.828          -4.24      -1.942049      0.9845566
     10908.5000         0.7991       1244.101         0.8038          -4.24      -1.943982      0.9845249
     10909.0000         0.7803       1280.526         0.7809          -4.04      -1.745914      0.9877719
     10909.5000         0.7615       1316.951         0.7593          -3.96      -1.667847      0.9890517
     10910.0000         0.7427       1353.377         0.7389          -3.84       -1.54978      0.9909872
     10910.5000          0.712        1376.24         0.7266          -3.64      -1.351713      0.9942342
     10911.0000         0.7139       1380.249         0.7245          -3.56      -1.273645       0.995514
     10911.5000         0.7238       1376.327         0.7266          -3.36      -1.075578       0.998761
     10912.0000         0.7317       1352.492         0.7394          -3.28     -0.9975107              1
     10912.5000         0.7425       1328.656         0.7526          -3.28     -0.9994433              1
     10913.0000         0.7588        1304.82         0.7664          -3.28      -1.001376      0.9999775
     10913.5000         0.7751       1280.985         0.7806          -3.36      -1.083309      0.9986343
     10914.0000         0.7914       1226.511         0.7955          -3.56      -1.285241      0.9953239
     10914.5000         0.8086       1206.814         0.8108          -3.68      -1.407174       0.993325
     10915.0000         0.8125       1198.971         0.8232          -3.76      -1.489107      0.9919819
     10915.5000         0.8125       1199.029         0.8259          -3.96       -1.69104      0.9886715
     10916.0000         0.8125       1199.087         0.8285          -3.96      -1.692972      0.9886398
     10916.5000         0.8105       1199.145         0.8285             -4      -1.734905      0.9879524
     10917.0000         0.8065       1199.203         0.8311          -4.08      -1.816838      0.9866092
     10917.5000         0.8025       1203.212         0.8311          -4.08       -1.81877      0.9865775
     10918.0000         0.7966       1215.123         0.8311             -4      -1.740703      0.9878573
     10918.5000         0.7906       1234.936         0.8283             -4      -1.742636      0.9878256
     10919.0000         0.7866       1254.748         0.8149          -3.88      -1.624569      0.9897612
     10919.5000         0.7767       1274.561         0.7919           -3.8      -1.546501      0.9910409
     10920.0000         0.7688       1314.128         0.7821          -3.68      -1.428434      0.9929765
     10920.5000         0.7609       1341.842         0.7239          -3.68      -1.430367      0.9929448
     10921.0000         0.7233       1401.163         0.7137           -3.2     -0.9522994              1
     10921.5000         0.6976       1420.976         0.7037             -3     -0.7542319              1
     10922.0000         0.6837       1472.424         0.6792             -3     -0.7561648              1
     10922.5000         0.6699       1504.089         0.6649             -3     -0.7580974              1
     10923.0000         0.6521       1551.558         0.6445             -3       -0.76003              1
     10923.5000         0.6422       1587.173         0.6301             -3     -0.7619629              1
     10924.0000         0.6244       1638.593         0.6103          -3.12     -0.8838954              1
     10924.5000         0.6164       1658.405          0.603          -3.32      -1.085828       0.998593
     10925.0000         0.6045       1717.725         0.5822           -3.4      -1.167761      0.9972498
     10925.5000         0.5946       1749.391         0.5716          -3.52      -1.289694      0.9952509
     10926.0000         0.5887       1773.153          0.564           -3.6      -1.371626      0.9939077
     10926.5000         0.5867       1789.015          0.559          -3.52      -1.293559      0.9951876
     10927.0000         0.5787       1800.925         0.5553          -3.52      -1.295492      0.9951559
     10927.5000         0.5748       1804.933          0.554          -3.52      -1.297424      0.9951242
     10928.0000         0.5747       1808.942         0.5528          -3.32      -1.099357      0.9983712
     10928.5000         0.5806       1808.999         0.5528          -3.24       -1.02129       0.999651
     10929.0000         0.5865       1809.057         0.5528          -3.24      -1.023222      0.9996193
     10929.5000         0.5885       1809.115         0.5528          -3.12     -0.9051552              1
     10930.0000         0.5885       1809.172         0.5527          -2.72     -0.5070879              1
     10930.5000         0.5667       1817.132         0.5503          -2.72     -0.5090206              1
     10931.0000         0.5647        1821.14         0.5491          -2.72     -0.5109534              1
     10931.5000         0.5627       1821.198         0.5491          -2.72      -0.512886              1
     10932.0000         0.5627       1829.157         0.5467          -2.72     -0.5148187              1
     10932.5000         0.5607       1833.166         0.5455          -2.84     -0.6367514              1
     10933.0000         0.5567       1845.076          0.542          -2.92     -0.7186842              1
     10933.5000         0.5488       1856.986         0.5385          -3.04     -0.8406167              1
