#------------------------------------------------------------------------------
# Created by    : vladimir.rabinovich
# Created on    : 09/19/2023 17:20:49
#------------------------------------------------------------------------------
~Version Information Section
VERS.           2.0     :   CWLS log ASCII Standard - VERSION 2.0
WRAP.           NO      :   One line per depth step
~Well Information Section
#MNEM       .UNIT                                         VALUE :DESCRIPTION
#------------------------------------------------------------------------------
STRT        .FT                                            1700 :START DEPTH
STOP        .FT                                         12339.5 :STOP DEPTH
STEP        .FT                                             0.5 :STEP      
NULL        .                                           -999.25 :NULL      
COMP        .                            CONQUEST PETROLEUM INC :COMPANY   
WELL        .                                          ST TR 20 :WELL      
FLD         .                                   ALLIGATOR POINT :FIELD     
LOC         .                                                   :LOCATION  
CNTY        .                                          BRAZORIA :LOCATION  
STAT        .                                             TEXAS :STATE     
CTRY        .                                     UNITED STATES :COUNTRY   
SRVC        .                                                   :SERVICE COMPANY
DATE        .                             9/13/2023 11:18:59 AM :LOG DATE  
API         .                                    42039319440000 :API NUMBER
UWI         .                                    42039319440000 :UNIQUE WELL ID
XCOORD      .                                   960684.54934625 :SURFACE X 
YCOORD      .                                  10591984.7936865 :SURFACE Y 
LAT         .                                        29.1692948 :LATITUDE  
LON         .                                        -95.130314 :LONGITUDE 
ELEV        .FT                                              45 :ELEVATION VALUE
ELEV_TYPE   .                                                KB :ELEVATION REFERENCE TYPE
~Curve Information Section
#MNEM       .UNIT                                      API CODE :CURVE DESCRIPTION
#------------------------------------------------------------------------------
DEPT        .FT                                                 :DEPTH     
ASN         .OHMM                                               :          
CILD        .MMHO                                               :          
ILD         .OHMM                                               :          
SP          .MV                                                 :          
SP_NORM     .MV                                                 :SP Normalized
VSH_SP      .V/V                                                :Volume of Shale from SP
~A        DEPTH            ASN           CILD            ILD             SP        SP_NORM         VSH_SP
# ...
      2422.0000            0.7       3107.479         0.3218         -43.52      -42.29301      0.1214254
      2422.5000         0.6782       3475.647         0.2877         -45.12      -43.89301     0.08738287
      2423.0000         0.6683       4039.663         0.2266         -46.08      -44.85301     0.06695727
      2423.5000         0.6644       4452.157         0.2259         -42.88      -41.65301      0.1350424
      2424.0000         0.6644       4456.123         0.2238         -41.52      -40.29301      0.1639786
      2424.5000         0.6723       3942.489         0.2536         -37.12      -35.89301      0.2575956
      2425.0000         0.6901       3543.034         0.2822          -33.2      -31.97301      0.3409998
      2425.5000         0.7139       3143.579         0.3181          -29.2      -27.97301      0.4261062
      2426.0000         0.7615       2744.124         0.3644         -21.12      -19.89301      0.5980211
      2426.5000         0.8032       2344.669         0.4265         -15.36      -14.13301      0.7205743
      2427.0000          0.825       1945.214         0.5141          -11.6      -10.37301      0.8005743
      2427.5000         0.8706       1443.728         0.6927          -8.24      -7.013006      0.8720637
      2428.0000         0.8726         1388.2         0.7204          -3.84      -2.613006      0.9656807
      2428.5000         0.8746       1256.562         0.7958          -3.28      -2.053006      0.9775956
      2429.0000         0.8746       1124.924         0.8889          -2.72      -1.493006      0.9895105
      2429.5000         0.8746       1035.201          0.966          -1.44     -0.2130061              1
      2430.0000         0.8726       1055.967          0.947          -0.24      0.9869939              1
      2430.5000         0.8726       1076.733         0.9287           1.04       2.266994              1
      2431.0000         0.8726       1097.499         0.9112           1.84       3.066994              1
      2431.5000         0.8686       1118.264         0.8942           1.92       3.146994              1
      2432.0000         0.8647        1139.03         0.8779           1.28       2.506994              1
      2432.5000         0.8607       1159.796         0.8622           0.88       2.106994              1
      2433.0000         0.8607       1180.562         0.8471           0.48       1.706994              1
      2433.5000         0.8607       1177.987         0.8489           0.08       1.306994              1
      2434.0000         0.8647       1177.987         0.8489          -0.32      0.9069939              1
      2434.5000         0.8726       1177.987         0.8489          -0.08       1.146994              1
      2435.0000         0.8805       1174.021         0.8518          -0.08       1.146994              1
      2435.5000         0.8924       1166.088         0.8576           0.16       1.386994              1
      2436.0000         0.9023       1126.425         0.8878           0.48       1.706994              1
      2436.5000         0.9043       1102.628         0.9069            0.8       2.026994              1
      2437.0000         0.9043       1090.729         0.9168           0.88       2.106994              1
      2437.5000         0.9023       1090.729         0.9168           0.48       1.706994              1
      2438.0000         0.9003       1090.729         0.9168          -1.44     -0.2130061              1
      2438.5000         0.9003       1094.695         0.9135          -3.28      -2.053006      0.9775956
      2439.0000         0.9003       1102.628         0.9069          -5.44      -4.213006      0.9316382
      2439.5000         0.9063       1138.324         0.8785          -7.04      -5.813006      0.8975956
      2440.0000         0.9182       1193.852         0.8376          -8.56      -7.333006      0.8652552
      2440.5000         0.9618       1193.852         0.8376         -10.16      -8.933006      0.8312126
      2441.0000         0.9717        1217.65         0.8213         -17.92      -16.69301      0.6661062
      2441.5000         0.9876       1237.481         0.8081         -31.36      -30.13301      0.3801488
      2442.0000         0.9955       1265.245         0.7904         -32.32      -31.09301      0.3597233
      2442.5000         1.0035       1340.605         0.7459         -36.32      -35.09301      0.2746169
      2443.0000         1.0114       1411.998         0.7082         -38.08      -36.85301        0.23717
      2443.5000         0.9394       1459.594         0.6851         -40.48      -39.25301      0.1861062
      2444.0000         0.9129       1467.526         0.6814         -42.08      -40.85301      0.1520637
      2444.5000         0.8865       2078.334         0.4812         -44.24      -43.01301      0.1061062
      2445.0000         0.8601       2133.862         0.4686         -45.44      -44.21301     0.08057436
      2445.5000         0.8337       2371.183         0.4217          -46.4      -45.17301     0.06014877
      2446.0000         0.8073       2608.503         0.3834          -47.2      -45.97301     0.04312751
      2446.5000         0.7808       2845.824         0.3514            -48      -46.77301     0.02610625
      2447.0000         0.7544       3083.145         0.3243         -48.16      -46.93301     0.02270199
      2447.5000          0.728       3320.465         0.3012          -48.4      -47.17301     0.01759558
      2448.0000         0.7016       3557.786         0.2811          -48.4      -47.17301     0.01759558
      2448.5000         0.6751       4122.955         0.2425          -48.4      -47.17301     0.01759558
      2449.0000         0.6487       4122.955         0.2425          -48.4      -47.17301     0.01759558
      2449.5000         0.6207       3899.183         0.2565          -48.4      -47.17301     0.01759558
      2450.0000         0.6148       3847.945         0.2599         -48.32      -47.09301     0.01929774
      2450.5000         0.6128       3796.706         0.2634         -47.76        -46.533     0.03121267
      2451.0000         0.6009       3745.468          0.267         -47.76        -46.533     0.03121267
      2451.5000         0.5989       3694.229         0.2707         -47.92        -46.693     0.02780841
      2452.0000         0.5949       3629.152         0.2755         -47.92        -46.693     0.02780841
      2452.5000          0.585       3633.118         0.2752         -48.32      -47.09301     0.01929774
      2453.0000         0.5771       3648.692         0.2741         -48.32      -47.09301     0.01929774
      2453.5000         0.5592        3652.95         0.2738         -48.56      -47.33301     0.01419132
      2454.0000         0.5473       4009.916         0.2494         -48.56      -47.33301     0.01419132
      2454.5000         0.5434       4009.916         0.2494         -48.56      -47.33301     0.01419132
      2455.0000         0.5414       4154.685         0.2407         -48.56      -47.33301     0.01419132
      2455.5000         0.5414       4206.247         0.2377         -48.56      -47.33301     0.01419132
      2456.0000         0.5473       4287.583         0.2332         -48.32      -47.09301     0.01929774
      2456.5000         0.5592        4368.92         0.2289         -48.32      -47.09301     0.01929774
      2457.0000         0.5771       4450.257         0.2247         -48.16      -46.93301     0.02270199
      2457.5000          0.585       4531.594         0.2207         -48.16      -46.93301     0.02270199
      2458.0000          0.589       4612.931         0.2168         -48.16      -46.93301     0.02270199
      2458.5000          0.589       4634.606         0.2158         -47.92        -46.693     0.02780841
      2459.0000          0.591       4417.292         0.2264         -46.96      -45.73301     0.04823393
      2459.5000          0.589       4009.916         0.2494          -43.6        -42.373      0.1197233
