#------------------------------------------------------------------------------
# Created by    : vladimir.rabinovich
# Created on    : 09/19/2023 17:20:50
#------------------------------------------------------------------------------
~Version Information Section
VERS.           2.0     :   CWLS log ASCII Standard - VERSION 2.0
WRAP.           NO      :   One line per depth step
~Well Information Section
#MNEM       .UNIT                                         VALUE :DESCRIPTION
#------------------------------------------------------------------------------
STRT        .FT                                            1116 :START DEPTH
STOP        .FT                                            6700 :STOP DEPTH
STEP        .FT                                             0.5 :STEP      
NULL        .                                           -999.25 :NULL      
COMP        .                               BRAZOS OIL & GAS CO :COMPANY   
WELL        .                                    STATE OF TEXAS :WELL      
FLD         .                                   ALLIGATOR POINT :FIELD     
LOC         .                                                   :LOCATION  
CNTY        .                                          BRAZORIA :LOCATION  
STAT        .                                             TEXAS :STATE     
CTRY        .                                     UNITED STATES :COUNTRY   
SRVC        .                                                   :SERVICE COMPANY
DATE        .                             9/13/2023 11:18:59 AM :LOG DATE  
API         .                                    42039045100000 :API NUMBER
UWI         .                                    42039045100000 :UNIQUE WELL ID
XCOORD      .                                  970513.493421445 :SURFACE X 
YCOORD      .                                   10588404.291611 :SURFACE Y 
LAT         .                                        29.1599373 :LATITUDE  
LON         .                                       -95.0993265 :LONGITUDE 
ELEV        .FT                                              22 :ELEVATION VALUE
ELEV_TYPE   .                                                KB :ELEVATION REFERENCE TYPE
~Curve Information Section
#MNEM       .UNIT                                      API CODE :CURVE DESCRIPTION
#------------------------------------------------------------------------------
DEPT        .FT                                                 :DEPTH     
ASN         .OHMM                                               :          
CILD        .MMHO                                               :          
ILD         .OHMM                                               :          
LAT         .OHMM                                               :          
SP          .MV                                                 :          
SP_NORM     .MV                                                 :SP Normalized
VSH_SP      .V/V                                                :Volume of Shale from SP
~A        DEPTH            ASN           CILD            ILD            LAT             SP        SP_NORM         VSH_SP
      1116.0000         0.0911        -999.25        -999.25         0.3379        -999.25        -999.25        -999.25
      1116.5000          0.091        -999.25        -999.25         0.3377        -999.25        -999.25        -999.25
      1117.0000         0.1084        -999.25        -999.25         0.3463           -0.8       2.880982              1
      1117.5000         0.1347        -999.25        -999.25         0.3637         -11.12      -7.307382      0.8028944
      1118.0000         0.2401        -999.25        -999.25         0.3899         -21.44      -7.416983      0.7994693
      1118.5000         0.2663        -999.25        -999.25         0.4249         -31.68      -7.446583      0.7985443
      1119.0000         0.8556        -999.25        -999.25         0.4423            -42      -7.556183      0.7951193
      1119.5000         2.4219        -999.25        -999.25         0.4509         -52.24      -7.585785      0.7941942
      1120.0000         2.4921        -999.25        -999.25         0.4683         -62.56      -7.695385      0.7907692
      1120.5000         2.9623        -999.25        -999.25         0.4769          -72.8      -7.724991       0.789844
      1121.0000         3.4324        -999.25        -999.25         0.4503       -81.9211      -7.071358      0.8102701
      1121.5000         3.8555        -999.25        -999.25         0.4237       -82.9843      -8.062073      0.7793102
      1122.0000         3.8817        -999.25        -999.25         0.4147       -84.7549      -9.760185      0.7262442
      1122.5000         3.8287        -999.25        -999.25         0.4057       -85.2877      -10.22049      0.7118597
      1123.0000         3.7757        -999.25        -999.25         0.3967       -85.6436      -10.50391      0.7030029
      1123.5000         3.7315        -999.25        -999.25         0.3877       -85.9999      -10.78772      0.6941338
      1124.0000          3.705        -999.25        -999.25         0.3875       -86.1785      -10.89383      0.6908178
      1124.5000         3.6784        -999.25        -999.25         0.3873       -86.1807      -10.82355      0.6930141
      1125.0000          3.643        -999.25        -999.25         0.3871       -86.1829      -10.75326      0.6952107
      1125.5000         3.5812        -999.25        -999.25         0.3869       -86.1851      -10.68297      0.6974072
      1126.0000         3.5371        -999.25        -999.25         0.3779       -86.0104      -10.43578      0.7051318
      1126.5000           3.44        -999.25        -999.25         0.3601       -85.8357       -10.1886      0.7128563
      1127.0000          3.343        -999.25        -999.25         0.3511       -85.4842       -9.76461      0.7261059
      1127.5000         3.2637        -999.25        -999.25         0.3509       -85.3096      -9.517517      0.7338276
      1128.0000         3.1931        -999.25        -999.25         0.3507       -85.3118      -9.447227      0.7360241
      1128.5000         3.1577        -999.25        -999.25         0.3505       -85.4908      -9.553741      0.7326956
      1129.0000         3.1311        -999.25        -999.25         0.3502       -85.8467      -9.837158      0.7238388
      1129.5000         3.1134        -999.25        -999.25           0.35       -86.0247      -9.942665      0.7205417
      1130.0000         3.0956        -999.25        -999.25         0.3498       -86.7354      -10.58088      0.7005975
      1130.5000         3.0866        -999.25        -999.25         0.3584        -87.623        -11.396      0.6751251
      1131.0000         3.0952        -999.25        -999.25         0.3582       -87.4472      -11.14771      0.6828842
      1131.5000         3.1632        -999.25        -999.25          0.358       -86.9188      -10.54682      0.7016618
      1132.0000         3.2312        -999.25        -999.25         0.3403       -86.0367      -9.592232      0.7314928
      1132.5000         3.2992        -999.25        -999.25         0.3401       -86.0389       -9.52195      0.7336891
      1133.0000         3.3672        -999.25        -999.25         0.3399       -85.8643      -9.274857      0.7414107
      1133.5000         3.4352        -999.25        -999.25         0.3573       -85.8665      -9.204567      0.7436073
      1134.0000         3.5032        -999.25        -999.25         0.3659       -86.0455      -9.311081      0.7402787
      1134.5000         3.6129        -999.25        -999.25         0.3832       -86.2246      -9.417694      0.7369471
      1135.0000         3.6216        -999.25        -999.25         0.4182       -86.4036      -9.524208      0.7336185
      1135.5000         3.6215        -999.25        -999.25          0.462       -86.7596      -9.807716      0.7247589
      1136.0000         3.5949        -999.25        -999.25         0.5498       -86.7618      -9.737434      0.7269552
      1136.5000         3.5373        -999.25        -999.25         0.5497        -86.764      -9.667145      0.7291517
      1137.0000         3.4532        -999.25        -999.25          0.919       -86.7673      -9.597961      0.7313137
      1137.5000         3.3691        -999.25        -999.25         1.1652        -86.238       -8.99617      0.7501197
      1138.0000          3.285        -999.25        -999.25         1.2882       -85.7088      -8.427605      0.7678874
      1138.5000         3.2009        -999.25        -999.25         1.7279       -85.1795      -8.000992       0.781219
      1139.0000         3.1168        -999.25        -999.25         1.9125       -84.6503      -7.574486      0.7945473
      1139.5000         3.0216        -999.25        -999.25         1.9739        -84.121      -7.147881      0.8078787
      1140.0000          3.004        -999.25        -999.25         2.1584       -83.5918      -6.721367      0.8212073
      1140.5000          2.995        -999.25        -999.25         2.2198       -83.0626      -6.294861      0.8345356
      1141.0000         3.0212        -999.25        -999.25         2.2284       -82.5333      -5.868248      0.8478673
      1141.5000         3.0562        -999.25        -999.25         2.2106       -81.8344      -5.272034      0.8664989
      1142.0000         3.0912        -999.25        -999.25          2.184       -81.2683      -4.808632      0.8809803
      1142.5000         3.1086        -999.25        -999.25         2.1662       -80.7023      -4.345322      0.8954587
      1143.0000         3.1348        -999.25        -999.25         2.1572       -80.1362      -3.881912      0.9099402
      1143.5000          3.161        -999.25        -999.25          2.157       -79.5701      -3.418503      0.9244218
      1144.0000         3.1785        -999.25        -999.25         2.1656        -79.004      -2.955093      0.9389033
      1144.5000         3.1959        -999.25        -999.25          2.183       -78.6625      -2.716286      0.9463661
      1145.0000         3.2133        -999.25        -999.25         2.2092       -78.6646      -2.821068      0.9430916
      1145.5000         3.2483        -999.25        -999.25         2.2706       -78.6668      -2.925964      0.9398136
      1146.0000         3.2569        -999.25        -999.25         2.3056       -78.6689      -3.030754      0.9365389
      1146.5000         3.2127        -999.25        -999.25         2.3405       -78.6711      -3.135643      0.9332612
      1147.0000         3.1598        -999.25        -999.25         2.3403       -78.6732       -3.24044      0.9299862
      1147.5000         3.1145        -999.25        -999.25         2.3401       -78.6754      -3.345329      0.9267085
      1148.0000         3.0692        -999.25        -999.25         2.3223       -77.1492      -1.921822      0.9711931
      1148.5000         3.0239        -999.25        -999.25         2.3221       -76.4756      -1.350914      0.9890339
      1149.0000         2.9565        -999.25        -999.25         2.3131        -75.802     -0.7800064              1
