#------------------------------------------------------------------------------
# Created by    : vladimir.rabinovich
# Created on    : 09/19/2023 17:20:50
#------------------------------------------------------------------------------
~Version Information Section
VERS.           2.0     :   CWLS log ASCII Standard - VERSION 2.0
WRAP.           NO      :   One line per depth step
~Well Information Section
#MNEM       .UNIT                                         VALUE :DESCRIPTION
#------------------------------------------------------------------------------
STRT        .FT                                            1116 :START DEPTH
STOP        .FT                                            6700 :STOP DEPTH
STEP        .FT                                             0.5 :STEP      
NULL        .                                           -999.25 :NULL      
COMP        .                               BRAZOS OIL & GAS CO :COMPANY   
WELL        .                                    STATE OF TEXAS :WELL      
FLD         .                                   ALLIGATOR POINT :FIELD     
LOC         .                                                   :LOCATION  
CNTY        .                                          BRAZORIA :LOCATION  
STAT        .                                             TEXAS :STATE     
CTRY        .                                     UNITED STATES :COUNTRY   
SRVC        .                                                   :SERVICE COMPANY
DATE        .                             9/13/2023 11:18:59 AM :LOG DATE  
API         .                                    42039045100000 :API NUMBER
UWI         .                                    42039045100000 :UNIQUE WELL ID
XCOORD      .                                  970513.493421445 :SURFACE X 
YCOORD      .                                   10588404.291611 :SURFACE Y 
LAT         .                                        29.1599373 :LATITUDE  
LON         .                                       -95.0993265 :LONGITUDE 
ELEV        .FT                                              22 :ELEVATION VALUE
ELEV_TYPE   .                                                KB :ELEVATION REFERENCE TYPE
~Curve Information Section
#MNEM       .UNIT                                      API CODE :CURVE DESCRIPTION
#------------------------------------------------------------------------------
DEPT        .FT                                                 :DEPTH     
ASN         .OHMM                                               :          
CILD        .MMHO                                               :          
ILD         .OHMM                                               :          
LAT         .OHMM                                               :          
SP          .MV                                                 :          
SP_NORM     .MV                                                 :SP Normalized
VSH_SP      .V/V                                                :Volume of Shale from SP
~A        DEPTH            ASN           CILD            ILD            LAT             SP        SP_NORM         VSH_SP
# ...
      6308.5000         0.8657       1581.034          0.721        -999.25        -80.518       -40.0272      0.5848171
      6309.0000         0.8657       1455.616         0.7882        -999.25       -69.5959       -29.1051      0.7010096
      6309.5000         1.0346       930.1093         0.8553        -999.25       -58.6739       -18.1831       0.817201
      6310.0000         1.2683       909.0095         0.9224        -999.25       -48.3896        -7.8988      0.9266085
      6310.5000           1.27       908.9935         1.0066        -999.25        -45.197        -4.7062      0.9605724
      6311.0000         1.2461       908.9776         1.0278        -999.25       -42.5531      -2.062302      0.9886989
      6311.5000         1.2223       914.2348         1.0506        -999.25       -42.7288      -2.238003      0.9868298
      6312.0000         1.1984       921.2496         1.0595        -999.25       -43.0156      -2.524799      0.9837787
      6312.5000         1.1745       931.7798         1.0595        -999.25        -43.257      -2.766201      0.9812106
      6313.0000         1.1506       944.0678         1.0596        -999.25       -41.1339     -0.6431007              1
      6313.5000         1.1268       951.0827          1.042        -999.25       -40.9565     -0.4657021              1
      6314.0000         1.1029       959.8554         1.0333        -999.25        -40.956     -0.4652023              1
      6314.5000         1.0697       977.4166         1.0158        -999.25       -42.8985        -2.4077      0.9850245
      6315.0000         1.0645       984.4316          1.007        -999.25       -42.8979      -2.407101      0.9850308
      6315.5000         1.0328       1001.997         0.9895        -999.25       -42.8974      -2.406601      0.9850361
      6316.0000         1.0205        1007.25         0.9544        -999.25       -42.0961      -1.605301      0.9935606
      6316.5000         1.0065       1040.631         0.9369        -999.25       -41.2949        -0.8041              1
      6317.0000         0.9696       1084.559         0.9193        -999.25       -40.4936   -0.002799988              1
      6317.5000         1.0147        1100.37         0.9018        -999.25       -39.6924      0.7983971              1
      6318.0000         1.0599       1112.659         0.8843        -999.25       -38.8911       1.599697              1
      6318.5000          1.105       1300.714         0.8579        -999.25       -38.1172         2.3736              1
      6319.0000         1.1366       1320.041         0.8492        -999.25       -41.2976     -0.8068008              1
      6319.5000         1.1349       1337.604         0.8141        -999.25       -42.8886        -2.3978      0.9851298
      6320.0000         1.0484       1330.558         0.8054        -999.25       -81.9556       -41.4648      0.5695235
      6320.5000         0.9426       1291.872         0.7966        -999.25       -82.1324       -41.6416      0.5676425
      6321.0000          0.866       1272.522         0.8054        -999.25       -68.6005       -28.1097      0.7115989
      6321.5000         0.8589       1221.532         0.8055        -999.25       -55.0685       -14.5777      0.8555564
      6322.0000         0.8815       1209.212         0.8143        -999.25       -42.1755        -1.6847       0.992716
      6322.5000         0.9041       1191.619         0.8407        -999.25       -41.6446      -1.153801      0.9983638
      6323.0000         0.9266       1181.057         0.8584        -999.25        -40.749     -0.2582016              1
      6323.5000         0.9492       1154.676         0.8584        -999.25        -40.051      0.4398003              1
      6324.0000         0.9715        1138.84          0.876        -999.25       -38.6357       1.855099              1
      6324.5000          0.975       1130.036         0.8937        -999.25       -39.1649       1.325897              1
      6325.0000          0.968       1119.474         0.8937        -999.25        -40.225      0.2658005              1
      6325.5000         0.9575       1108.911         0.8937        -999.25       -41.4965      -1.005699      0.9999394
      6326.0000         0.9385       1093.068         0.8938        -999.25        -42.768      -2.277203      0.9864128
      6326.5000         0.9195       1098.326         0.8938        -999.25       -44.0395      -3.548702      0.9728861
      6327.0000         0.9005       1101.834         0.8851        -999.25        -45.311      -4.820202      0.9593595
      6327.5000         0.8815       1136.975         0.8764        -999.25       -47.1124      -6.621601      0.9401957
      6328.0000         0.8626       1161.568         0.8676        -999.25       -47.8189      -7.328102      0.9326798
      6328.5000         0.8485       1182.647         0.8589        -999.25       -48.1707      -7.679901      0.9289372
      6329.0000         0.8433       1191.421         0.8413        -999.25       -47.4631      -6.972301      0.9364649
      6329.5000         0.8415       1217.773         0.8326        -999.25       -45.8123      -5.321503      0.9540266
      6330.0000         0.8503       1217.758         0.8238        -999.25       -44.1615        -3.6707      0.9715883
      6330.5000         0.8574           1216         0.8063        -999.25       -42.5107      -2.019901        0.98915
      6331.0000         0.8668       1217.727         0.7976        -999.25       -40.3877      0.1030998              1
      6331.5000         0.8761       1217.712           0.78        -999.25       -40.2104      0.2803993              1
      6332.0000         0.8873       1215.939         0.7713        -999.25       -41.0931     -0.6023026              1
      6332.5000         0.8891       1217.682         0.7713        -999.25       -41.9758      -1.485001      0.9948404
      6333.0000         0.8943       1229.971         0.7889        -999.25       -42.1515      -1.660702      0.9929712
      6333.5000         0.7783       1242.261          0.789        -999.25       -42.3272      -1.836403      0.9911021
      6334.0000         0.7766       1254.551         0.7715        -999.25       -42.3261        -1.8353      0.9911138
      6334.5000         0.7766       1279.146         0.7627        -999.25       -41.0417     -0.5508995              1
      6335.0000         0.7766       1289.678         0.7452        -999.25       -39.7573      0.7334976              1
      6335.5000         0.7784       1314.266         0.7452        -999.25       -38.4343       2.056499              1
      6336.0000         0.7938       1302.823         0.7453        -999.25       -38.4332       2.057598              1
      6336.5000         0.8092        1291.38         0.7629        -999.25       -40.9061     -0.4153023              1
      6337.0000         0.8246       1279.937         0.7629        -999.25       -40.7288     -0.2380028              1
      6337.5000           0.84       1268.495         0.7792        -999.25       -40.5515    -0.06069946              1
      6338.0000         0.8523       1257.052         0.7806        -999.25       -39.2101       1.280701              1
      6338.5000         0.8577       1245.609         0.7807        -999.25       -37.8686         2.6222              1
      6339.0000         0.8558       1231.539         0.7807        -999.25       -36.5272         3.9636              1
      6339.5000         0.7925         1224.5         0.7808        -999.25        -36.835         3.6558              1
      6340.0000          0.789       1228.001         0.7896        -999.25       -37.0106       3.480198              1
      6340.5000         0.8079       1238.533         0.7897        -999.25       -37.5398          2.951              1
      6341.0000         0.8267       1249.065         0.7897        -999.25        -37.716       2.774799              1
      6341.5000         0.8456       1261.356         0.7809        -999.25       -38.7749         1.7159              1
