#------------------------------------------------------------------------------
# Created by    : vladimir.rabinovich
# Created on    : 09/19/2023 17:20:50
#------------------------------------------------------------------------------
~Version Information Section
VERS.           2.0     :   CWLS log ASCII Standard - VERSION 2.0
WRAP.           NO      :   One line per depth step
~Well Information Section
#MNEM       .UNIT                                         VALUE :DESCRIPTION
#------------------------------------------------------------------------------
STRT        .FT                                            1116 :START DEPTH
STOP        .FT                                            6700 :STOP DEPTH
STEP        .FT                                             0.5 :STEP      
NULL        .                                           -999.25 :NULL      
COMP        .                               BRAZOS OIL & GAS CO :COMPANY   
WELL        .                                    STATE OF TEXAS :WELL      
FLD         .                                   ALLIGATOR POINT :FIELD     
LOC         .                                                   :LOCATION  
CNTY        .                                          BRAZORIA :LOCATION  
STAT        .                                             TEXAS :STATE     
CTRY        .                                     UNITED STATES :COUNTRY   
SRVC        .                                                   :SERVICE COMPANY
DATE        .                             9/13/2023 11:18:59 AM :LOG DATE  
API         .                                    42039045100000 :API NUMBER
UWI         .                                    42039045100000 :UNIQUE WELL ID
XCOORD      .                                  970513.493421445 :SURFACE X 
YCOORD      .                                   10588404.291611 :SURFACE Y 
LAT         .                                        29.1599373 :LATITUDE  
LON         .                                       -95.0993265 :LONGITUDE 
ELEV        .FT                                              22 :ELEVATION VALUE
ELEV_TYPE   .                                                KB :ELEVATION REFERENCE TYPE
~Curve Information Section
#MNEM       .UNIT                                      API CODE :CURVE DESCRIPTION
#------------------------------------------------------------------------------
DEPT        .FT                                                 :DEPTH     
ASN         .OHMM                                               :          
CILD        .MMHO                                               :          
ILD         .OHMM                                               :          
LAT         .OHMM                                               :          
SP          .MV                                                 :          
SP_NORM     .MV                                                 :SP Normalized
VSH_SP      .V/V                                                :Volume of Shale from SP
~A        DEPTH            ASN           CILD            ILD            LAT             SP        SP_NORM         VSH_SP
# ...
      1853.0000         0.9199        -999.25        -999.25         0.8719       -63.8657      -4.099735      0.9500043
      1853.5000         0.8377        -999.25        -999.25         0.8896       -59.2511      0.5351791              1
      1854.0000          0.836        -999.25        -999.25         0.9074       -58.1893       1.617287              1
      1854.5000          0.836        -999.25        -999.25         0.8987       -59.4176      0.4093018              1
      1855.0000         0.8414        -999.25        -999.25         0.8725       -59.7682     0.07901382              1
      1855.5000         0.9293        -999.25        -999.25         0.8639       -61.1756      -1.308071      0.9950311
      1856.0000         1.0172        -999.25        -999.25         0.8377       -61.8768       -1.98896       0.984049
      1856.5000         1.0875        -999.25        -999.25         0.8203       -69.1597      -9.251549      0.8669105
      1857.0000         1.2384        -999.25        -999.25         0.8029       -76.4426      -16.51413       0.749772
      1857.5000         1.3893        -999.25        -999.25         0.7855       -83.7255      -23.77673      0.6326334
      1858.0000         1.5006        -999.25        -999.25         0.7681       -91.0084      -31.03931       0.515495
      1858.5000          1.458        -999.25        -999.25         0.7594       -98.5774        -38.588       0.393742
      1859.0000         1.4154        -999.25        -999.25         0.7508       -99.2788      -39.26909      0.3827566
      1859.5000          1.369        -999.25        -999.25         0.7422       -98.9363      -38.90628      0.3886084
      1860.0000         1.3567        -999.25        -999.25         0.7072       -93.7936      -33.74326      0.4718828
      1860.5000         1.4122        -999.25        -999.25         0.7074       -93.2591      -33.18845      0.4808314
      1861.0000         1.4677        -999.25        -999.25         0.7076       -93.7863      -33.69534      0.4726559
      1861.5000         1.5232        -999.25        -999.25         0.7165       -94.1346      -34.02332      0.4673658
      1862.0000         1.5818        -999.25        -999.25         0.7254        -95.268      -35.13641      0.4494127
      1862.5000         1.5906        -999.25        -999.25         0.7432       -96.4015       -36.2496      0.4314581
      1863.0000         1.5898        -999.25        -999.25         0.7521       -97.5349      -37.36268      0.4135051
      1863.5000         1.5889        -999.25        -999.25         0.7523       -98.3528      -38.16027      0.4006407
      1864.0000         1.5749        -999.25        -999.25           0.77       -98.5269      -38.31406      0.3981602
      1864.5000         1.5697        -999.25        -999.25         0.7702       -97.8183      -37.58515       0.409917
      1865.0000         1.4821        -999.25        -999.25         0.7879       -94.4296      -34.17614       0.464901
      1865.5000         1.3946        -999.25        -999.25         0.8057       -91.0409      -30.76712      0.5198851
      1866.0000         1.3071        -999.25        -999.25         0.8234       -87.6521      -27.35801      0.5748708
      1866.5000         1.2195        -999.25        -999.25         0.8411       -84.2634        -23.949      0.6298549
      1867.0000          1.132        -999.25        -999.25         0.8413       -80.8747      -20.53999      0.6848389
      1867.5000         1.0656        -999.25        -999.25         0.8502       -78.8918      -18.53677      0.7171488
      1868.0000         1.0656        -999.25        -999.25         0.8592       -78.0016      -17.62626      0.7318345
      1868.5000         1.1046        -999.25        -999.25         0.8769       -79.0586      -18.66295      0.7151137
      1869.0000         1.1435        -999.25        -999.25         0.8859        -81.353      -20.93703      0.6784349
      1869.5000         1.1824        -999.25        -999.25         0.9299       -83.6475      -23.21122      0.6417544
      1870.0000         1.2213        -999.25        -999.25         0.9652        -85.942      -25.48541       0.605074
      1870.5000         1.3242        -999.25        -999.25         0.9742       -88.9246       -28.4477      0.5572952
      1871.0000         1.3206        -999.25        -999.25          0.992       -88.9222      -28.42499      0.5576614
      1871.5000         1.2168        -999.25        -999.25         1.0097        -88.211      -27.69347      0.5694601
      1872.0000          1.113        -999.25        -999.25         1.0187       -83.9684      -23.43056      0.6382167
      1872.5000         1.0091        -999.25        -999.25         1.0541         -79.07      -18.51185      0.7175508
      1873.0000         0.8922        -999.25        -999.25         1.0541       -74.1717      -13.59324      0.7968833
      1873.5000         0.8869        -999.25        -999.25         1.0455       -69.2733      -8.674526      0.8762173
      1874.0000         0.8817        -999.25        -999.25         1.0457        -64.375      -3.755913      0.9555498
      1874.5000         0.8835        -999.25        -999.25         1.0458        -60.454      0.1854019              1
      1875.0000         0.8888        -999.25        -999.25         1.0723       -61.3344     -0.6746864              1
      1875.5000         0.8889        -999.25        -999.25         1.0901       -65.2754      -4.595371      0.9420102
      1876.0000         0.8889        -999.25        -999.25         1.0902       -69.2164      -8.516064      0.8787732
      1876.5000         0.8854        -999.25        -999.25         1.0992       -73.1573      -12.43665      0.8155379
      1877.0000         0.8785        -999.25        -999.25         1.0818       -77.0983      -16.35733       0.752301
      1877.5000         0.8838        -999.25        -999.25         1.0731       -81.0393      -20.27802      0.6890641
      1878.0000         0.8961        -999.25        -999.25         1.0206       -84.9803      -24.19872      0.6258272
      1878.5000         0.9383        -999.25        -999.25         0.9943        -88.143       -27.3411      0.5751436
      1879.0000         0.9489        -999.25        -999.25         0.9419      -111.2735      -50.45129      0.2023986
      1879.5000         0.9824        -999.25        -999.25         0.8806      -115.6835      -54.84098      0.1315971
      1880.0000         1.0698        -999.25        -999.25         0.8631      -111.7174      -50.85456      0.1958942
      1880.5000         1.1572        -999.25        -999.25         0.8106      -106.8445      -45.96135      0.2748169
      1881.0000         1.2447        -999.25        -999.25         0.7756      -107.5461      -46.64264      0.2638285
      1881.5000         1.3321        -999.25        -999.25         0.8021      -108.0735      -47.14973      0.2556496
      1882.0000         1.4147        -999.25        -999.25         0.8726      -109.9631      -49.01901      0.2254999
      1882.5000         1.4182        -999.25        -999.25         0.9079      -111.8526       -50.8882      0.1953516
      1883.0000         1.4147        -999.25        -999.25         0.8554      -113.7422      -52.75749      0.1652017
      1883.5000         1.4025        -999.25        -999.25         0.8467      -115.6317      -54.62667      0.1350536
      1884.0000         1.3832        -999.25        -999.25         0.8118      -117.7601      -56.73476      0.1010522
      1884.5000         1.3182        -999.25        -999.25         0.7855      -117.7577      -56.71205      0.1014186
      1885.0000         1.2112        -999.25        -999.25         0.7505      -118.8562      -57.79024     0.08402843
      1885.5000          1.162        -999.25        -999.25         0.7068      -119.9547      -58.86842     0.06663833
      1886.0000         1.1234        -999.25        -999.25         0.6894      -121.0533      -59.94671     0.04924657
