#------------------------------------------------------------------------------
# Created by    : vladimir.rabinovich
# Created on    : 09/19/2023 17:22:40
#------------------------------------------------------------------------------
~Version Information Section
VERS.           2.0     :   CWLS log ASCII Standard - VERSION 2.0
WRAP.           NO      :   One line per depth step
~Well Information Section
#MNEM       .UNIT                                         VALUE :DESCRIPTION
#------------------------------------------------------------------------------
STRT        .FT                                             150 :START DEPTH
STOP        .FT                                            6352 :STOP DEPTH
STEP        .FT                                             0.5 :STEP      
NULL        .                                           -999.25 :NULL      
COMP        .                               PG & E RESOURCES CO :COMPANY   
WELL        .                        STATE OF TEXAS - TRACT /J/ :WELL      
FLD         .                                      PRINGLE LAKE :FIELD     
LOC         .                                                   :LOCATION  
CNTY        .                                           CALHOUN :LOCATION  
STAT        .                                             TEXAS :STATE     
CTRY        .                                     UNITED STATES :COUNTRY   
SRVC        .                                                   :SERVICE COMPANY
DATE        .                             9/13/2023 11:19:11 AM :LOG DATE  
API         .                                    42057314270000 :API NUMBER
UWI         .                                    42057314270000 :UNIQUE WELL ID
XCOORD      .                                  502172.533303084 :SURFACE X 
YCOORD      .                                    10284545.23877 :SURFACE Y 
LAT         .                                        28.2945207 :LATITUDE  
LON         .                                       -96.5369185 :LONGITUDE 
ELEV        .FT                                              17 :ELEVATION VALUE
ELEV_TYPE   .                                                KB :ELEVATION REFERENCE TYPE
~Curve Information Section
#MNEM       .UNIT                                      API CODE :CURVE DESCRIPTION
#------------------------------------------------------------------------------
DEPT        .FT                                                 :DEPTH     
DCAL        .IN                                                 :          
DPHI        .%                                                  :          
DRHO        .G/CC                                               :          
GR          .GAPI                                               :          
GR_NORM     .GAPI                                               :GammaRay Normalized
ILD         .OHMM                                               :          
ILM         .OHMM                                               :          
NPHI        .%                                                  :          
SGRD        .OHMM                                               :          
SP          .MV                                                 :          
SP_NORM     .MV                                                 :SP Normalized
TENS        .LB/F                                               :          
VSH_GR      .V/V                                                :Volume of Shale from GR
VSH_SP      .V/V                                                :Volume of Shale from SP
~A        DEPTH           DCAL           DPHI           DRHO             GR        GR_NORM            ILD            ILM           NPHI           SGRD             SP        SP_NORM           TENS         VSH_GR         VSH_SP
# ...
      3858.0000         1.2475        25.7353         -0.004        54.9505       73.67659         1.0911         1.0566        38.1683         1.0861          -38.5       1.330761        2198.02      0.8654594              1
      3858.5000         1.2504        24.6007         -0.004        54.3564       72.88409         1.0968         1.0719        37.6202         1.0868          -39.6      0.2264366       2138.442      0.8485976              1
      3859.0000         1.2156        23.2162              0        53.1683       71.33079         1.1182         1.1029        37.2686         1.0929          -40.1     -0.2778854       2059.186      0.8155487              1
      3859.5000         1.2007        22.3709           0.01        51.9802        69.7775         1.1399         1.1244        37.7059          1.099          -40.6     -0.7822075       1960.784      0.7824999              1
      3860.0000         1.1857        22.4079          0.022        50.6436       68.03398         1.1888          1.178         38.141         1.1051          -40.6     -0.7865295           2000      0.7454039              1
      3860.5000         1.1485        22.9412          0.034        49.4772       66.50848         1.2334          1.239        38.6275         1.1106          -40.5     -0.6908569       1997.549      0.7129463              1
      3861.0000         1.1089        23.0392          0.044        48.9193       65.76235         1.2792         1.2968        38.4804          1.131          -40.4     -0.5951805        2051.66      0.6970713              1
      3861.5000         1.0099        22.3039          0.054         48.213       64.82615         1.3512         1.3636        36.3235          1.173          -40.3     -0.4995003       2086.313      0.6771521              1
      3862.0000         0.9901        20.9314          0.056        47.3581        63.6996         1.4468         1.4337        33.8614          1.239          -40.2     -0.4038239       2121.137       0.653183              1
      3862.5000         1.0693        19.0594           0.04        46.3366       62.35969         1.5282         1.5074        31.1881         1.3267          -40.3     -0.5081482       2158.416      0.6246743              1
      3863.0000         1.1881        16.5347          0.028        46.1881       62.13793         1.5995         1.5778        29.4059         1.4014          -40.5      -0.712471        2198.02      0.6199559              1
      3863.5000         1.1881        14.7059          0.018        45.8911       61.72597          1.629         1.6068        27.1287         1.4735          -40.6     -0.8167915       2237.624      0.6111909              1
      3864.0000         1.0297        13.1373          0.016        45.8911       61.69441         1.5352         1.5074        26.2376         1.5563            -41      -1.221115       2178.218      0.6105193      0.9954875
      3864.5000         0.8911         12.598          0.012        46.3366       62.23345         1.4468         1.4014        25.7426          1.629          -41.1      -1.325436       2079.208      0.6219882      0.9933584
      3865.0000         0.8515         14.902          0.008        47.3762       63.53344         1.3573         1.3087        27.4257         1.4735          -41.7      -1.929764       2257.426      0.6496477      0.9810252
      3865.5000         0.8911        17.3267          0.008        48.4158       64.83342          1.239         1.2278        29.9505         1.2676          -42.1      -2.334084       2138.614      0.6773068      0.9727738
      3866.0000         1.0693        19.3564          0.008        48.8614       65.37258         1.1208         1.1518        32.7228          1.131          -42.4      -2.638409        2099.01      0.6887783      0.9665631
      3866.5000         1.1683        20.9804          0.008        51.2376       68.38452         1.0277         1.0757         35.098         1.0855          -42.5      -2.742729       2039.604      0.7528622      0.9644341
      3867.0000         1.2673        21.7647          0.014         54.505       72.53793         0.9729         1.0092        36.7157         1.0659          -42.4      -2.647057           2000      0.8412326      0.9663866
      3867.5000         1.3069        21.8627          0.018        56.5842       75.16945         0.9379         0.9509        36.9118         1.0659          -42.4      -2.651379           2000      0.8972223      0.9662984
      3868.0000         1.3663        21.7647          0.026        65.2941        86.2937            0.9         0.9293        36.7647         1.0659          -42.6      -2.855698       2019.802              1      0.9621286
      3868.5000         1.4851        21.7647          0.026        72.8121       95.89137         0.8719         0.9083        36.9118         1.0372       -42.5854      -2.845421       2019.802              1      0.9623383
      3869.0000         1.5248        22.0588          0.028        79.7085       104.6929         0.8524         0.9083         37.549         1.0231        -42.561      -2.825348       2217.822              1       0.962748
      3869.5000         1.5644        22.3529           0.03        80.6451       105.8609         0.8485         0.9125        37.7451         1.0419       -42.6366       -2.90527        2297.03              1       0.961117
      3870.0000          1.505        22.0588          0.032        78.2817       102.8023         0.8524         0.9083        37.8922         1.0562       -42.7122      -2.985191        2198.02              1      0.9594859
      3870.5000         1.3465        22.0098         0.0323         70.396       92.67056         0.8879         0.9083        38.0392         1.0562          -42.9      -3.177315        2099.01              1       0.955565
      3871.0000         1.1881         22.549         0.0268        67.2772       88.64436            0.9         0.9379        38.3824         1.0562            -43      -3.281639       2059.406              1       0.953436
      3871.5000         1.1287        23.3824         0.0213        60.8911       80.43334         0.9864         1.0514        37.8431         1.1106          -43.1       -3.38596       2039.604              1      0.9513069
      3872.0000         1.0693        22.7941         0.0138        53.3168       70.70046         1.1208         1.1677        35.5392         1.4207            -43      -3.290283       2019.802      0.8021375      0.9532595
      3872.5000         0.9505        20.3431          0.008        46.7822       62.29924         1.2734         1.2851        27.8218         1.8091          -42.8      -3.094604       2019.802      0.6233882       0.957253
      3873.0000         0.8713        17.0297              0        37.7228       50.66422         1.4468         1.4207         25.396         1.9728          -41.6      -1.898926       2019.802      0.3758344      0.9816546
      3873.5000         0.7525        13.9216         -0.002        30.8911       41.88247          1.585         1.5778        23.6275         1.9549          -40.5     -0.8032532       2019.802      0.1889886              1
      3874.0000         0.7723        11.6667          0.002         30.297       41.08997         1.7523         1.7523        22.9902         1.8091          -39.6      0.0924263        2495.05       0.172127              1
      3874.5000         0.8119        11.2255          0.004        30.7426       41.62915         1.8424         1.9196        23.3824         1.7603          -39.2       0.488102        2495.05       0.183599              1
      3875.0000         0.8911        11.4706          0.006        32.6733       44.07047         1.9284         1.9728        24.1176         1.7206          -39.1      0.5837822       2277.228       0.235542              1
      3875.5000         0.8911        11.8627          0.002        36.5347       48.98467         1.9818              2             25         1.6665          -39.9     -0.2205467       2257.426      0.3400993              1
