#------------------------------------------------------------------------------
# Created by    : vladimir.rabinovich
# Created on    : 09/19/2023 17:22:40
#------------------------------------------------------------------------------
~Version Information Section
VERS.           2.0     :   CWLS log ASCII Standard - VERSION 2.0
WRAP.           NO      :   One line per depth step
~Well Information Section
#MNEM       .UNIT                                         VALUE :DESCRIPTION
#------------------------------------------------------------------------------
STRT        .FT                                             150 :START DEPTH
STOP        .FT                                            6352 :STOP DEPTH
STEP        .FT                                             0.5 :STEP      
NULL        .                                           -999.25 :NULL      
COMP        .                               PG & E RESOURCES CO :COMPANY   
WELL        .                        STATE OF TEXAS - TRACT /J/ :WELL      
FLD         .                                      PRINGLE LAKE :FIELD     
LOC         .                                                   :LOCATION  
CNTY        .                                           CALHOUN :LOCATION  
STAT        .                                             TEXAS :STATE     
CTRY        .                                     UNITED STATES :COUNTRY   
SRVC        .                                                   :SERVICE COMPANY
DATE        .                             9/13/2023 11:19:11 AM :LOG DATE  
API         .                                    42057314270000 :API NUMBER
UWI         .                                    42057314270000 :UNIQUE WELL ID
XCOORD      .                                  502172.533303084 :SURFACE X 
YCOORD      .                                    10284545.23877 :SURFACE Y 
LAT         .                                        28.2945207 :LATITUDE  
LON         .                                       -96.5369185 :LONGITUDE 
ELEV        .FT                                              17 :ELEVATION VALUE
ELEV_TYPE   .                                                KB :ELEVATION REFERENCE TYPE
~Curve Information Section
#MNEM       .UNIT                                      API CODE :CURVE DESCRIPTION
#------------------------------------------------------------------------------
DEPT        .FT                                                 :DEPTH     
DCAL        .IN                                                 :          
DPHI        .%                                                  :          
DRHO        .G/CC                                               :          
GR          .GAPI                                               :          
GR_NORM     .GAPI                                               :GammaRay Normalized
ILD         .OHMM                                               :          
ILM         .OHMM                                               :          
NPHI        .%                                                  :          
SGRD        .OHMM                                               :          
SP          .MV                                                 :          
SP_NORM     .MV                                                 :SP Normalized
TENS        .LB/F                                               :          
VSH_GR      .V/V                                                :Volume of Shale from GR
VSH_SP      .V/V                                                :Volume of Shale from SP
~A        DEPTH           DCAL           DPHI           DRHO             GR        GR_NORM            ILD            ILM           NPHI           SGRD             SP        SP_NORM           TENS         VSH_GR         VSH_SP
# ...
      2616.0000          -0.94          30.72          0.112        37.1287       39.88683         0.7963         0.9684        37.0693         1.1865          -54.9      -27.78719       1960.784      0.1465283       0.346654
      2616.5000         0.1386        59.6436           0.09         34.901       37.02869         0.7229         0.8879        42.7059          1.107          -58.5      -31.39514       1960.784      0.0857169      0.2586551
      2617.0000          2.297        63.0891          0.064        33.8614       35.69228          0.625         0.8333             48         1.0425          -61.9       -34.8031       1960.784     0.05728263      0.1755341
      2617.5000         3.5446        70.8235           0.07        32.5248       33.97548         0.5759         0.7675        52.0396         1.0281          -63.1      -36.01105       1970.588     0.02075488      0.1460718
      2618.0000         4.2353        71.2353          0.102        31.0396       32.06834         0.5209         0.7263        55.1287         1.0281          -64.1      -37.01901       1970.588              0      0.1214876
      2618.5000         4.9006        68.5328          0.144          29.55       30.15557         0.4887         0.6937        55.3738         1.0376          -65.1      -38.02697       1972.011              0     0.09690326
      2619.0000          5.449        61.5446          0.184           28.5       28.80585         0.4649         0.6629        54.4381          1.052          -65.6      -38.53492       1974.403              0     0.08451416
      2619.5000         5.8422         49.047          0.202           28.2       28.41675         0.4503         0.6335        52.9084         1.0764          -65.8      -38.74288       1976.807              0     0.07944191
      2620.0000         5.6638        43.5426          0.202           28.8       29.18038         0.4381         0.6138        52.3292         1.0862          -65.6      -38.55083       1979.224              0     0.08412598
      2620.5000         3.5446        41.6361          0.202           29.7       30.32825         0.4422         0.6193        54.2376         1.1063          -65.1      -38.05879       1980.227              0     0.09612702
      2621.0000         1.3861        40.6708          0.202        30.4455       31.27825         0.4462         0.6222        58.8713         1.0962          -64.8      -37.76675       1980.276              0        0.10325
      2621.5000          -0.76         42.381          0.202        32.5248        33.9366         0.4503         0.6278         57.802         1.1114          -64.4      -37.37471       1980.324     0.01992757       0.112812
      2622.0000           -1.9        44.8836          0.202        32.8218       34.31215         0.4503         0.6278        56.0792         1.1689          -64.2      -37.18266       1980.373     0.02791798      0.1174962
      2622.5000          -1.94          43.44          0.202        32.6733       34.11709         0.4503         0.6307        54.5347         1.2522          -64.9      -37.89062       1980.392     0.02376784      0.1002288
      2623.0000          -1.92        39.2079          0.202        32.2277       33.54149         0.4462         0.6422        52.2178         1.3292          -65.8      -38.79858       1980.392     0.01152103      0.0780835
      2623.5000           -1.8        32.5294          0.202        31.4851       32.58549         0.4322         0.6055        50.9109         1.2931          -66.7      -39.70653       1980.392              0     0.05593835
      2624.0000          -1.62        29.6436          0.202        32.0792       33.34157         0.4186         0.5892        51.2673         1.2182          -67.2      -40.21448       1980.392    0.007267404     0.04354924
      2624.5000          -0.76        29.9406            0.2        34.0099       35.80958         0.4111         0.5785        51.9208         1.1529          -66.5      -39.52244           2000     0.05977834     0.06042825
      2625.0000          -0.38        32.0588            0.2        35.7921       38.08741         0.4018         0.5655        52.8119         1.0911          -65.4       -38.4304       2009.901      0.1082428     0.08706348
      2625.5000          -0.58        33.7647            0.2        37.4257        40.1749         0.3945         0.5553        53.6436          1.047          -64.3      -37.33836       2019.802      0.1526575      0.1136986
      2626.0000          -1.02        35.7647            0.2        38.1683       41.12118         0.3854         0.5477        54.4158         1.0327          -63.4      -36.44631       2029.703       0.172791      0.1354558
      2626.5000           -1.8        38.1386            0.2        38.6139       41.68705         0.3854         0.5378        54.9505         1.0185            -63      -36.05427       2049.505      0.1848308      0.1450179
      2627.0000          -2.32        40.5149            0.2        39.0594        42.2528         0.3801         0.5354        56.0792         0.9909          -62.9      -35.96222       2059.406      0.1968681      0.1472629
      2627.5000          -2.98             42            0.2        39.9505       43.38927         0.3819         0.5378        57.2079         0.9774            -63      -36.07018       2059.406      0.2210483      0.1446298
      2628.0000          -2.86          43.14            0.2         40.099       43.57462         0.3836         0.5403        58.6337         0.9509          -63.1      -36.17813       2049.505      0.2249918      0.1419968
      2628.5000          -2.22        44.2247            0.2        39.6535       42.99916         0.3817         0.5424        58.1064         0.9336            -63      -36.08609       2049.442       0.212748      0.1442417
      2629.0000        -1.3824        43.9352            0.2        39.2079       42.42356         0.3761         0.5443        54.4975         0.9293          -62.8      -35.89405       2049.317      0.2005012      0.1489257
      2629.5000        -0.6289        41.7398          0.192        36.3861       38.80447         0.3689         0.5412        49.0162         0.9729          -62.2        -35.302       2039.354      0.1234994      0.1633658
      2630.0000         0.0025        38.0376          0.158        35.7921       38.03881         0.3635         0.5405        43.0632         1.0232          -61.8      -34.90996       2039.255      0.1072088      0.1729279
      2630.5000         0.2574         33.212          0.144         35.198       37.27301         0.3585         0.5305        38.9442         1.0713          -61.9      -35.01792       2029.412      0.0909152      0.1702947
      2631.0000        -0.0792        30.3578          0.144        35.0495       37.07795         0.3568         0.5115        38.4738         1.0861          -62.3      -35.42587       2029.412     0.08676496      0.1603446
      2631.5000         0.0198        31.0761          0.166        34.7525       36.69269         0.3618         0.5092        40.5693         1.0861          -62.6      -35.73383       2019.608     0.07856791      0.1528335
      2632.0000         0.4356        31.8581           0.19         34.604       36.49763         0.3684         0.5233        43.0188         1.1012          -63.1      -36.24178       2019.608      0.0744176      0.1404443
      2632.5000         0.8713          32.88          0.194        34.7525       36.68296         0.4074         0.5502           45.6         1.1319          -63.3      -36.44974       2009.804     0.07836094      0.1353723
      2633.0000         1.0891          34.44          0.194        36.8317       39.34119         0.4462         0.5785           46.2         1.1636          -62.3       -35.4577       2009.804       0.134919      0.1595684
      2633.5000         1.1485        37.1287          0.194        38.9109       41.99942         0.5023         0.6056          44.94         1.2126          -60.3      -33.46565           2000      0.1914771      0.2081548
