#------------------------------------------------------------------------------
# Created by    : vladimir.rabinovich
# Created on    : 09/19/2023 17:22:40
#------------------------------------------------------------------------------
~Version Information Section
VERS.           2.0     :   CWLS log ASCII Standard - VERSION 2.0
WRAP.           NO      :   One line per depth step
~Well Information Section
#MNEM       .UNIT                                         VALUE :DESCRIPTION
#------------------------------------------------------------------------------
STRT        .FT                                             150 :START DEPTH
STOP        .FT                                            6352 :STOP DEPTH
STEP        .FT                                             0.5 :STEP      
NULL        .                                           -999.25 :NULL      
COMP        .                               PG & E RESOURCES CO :COMPANY   
WELL        .                        STATE OF TEXAS - TRACT /J/ :WELL      
FLD         .                                      PRINGLE LAKE :FIELD     
LOC         .                                                   :LOCATION  
CNTY        .                                           CALHOUN :LOCATION  
STAT        .                                             TEXAS :STATE     
CTRY        .                                     UNITED STATES :COUNTRY   
SRVC        .                                                   :SERVICE COMPANY
DATE        .                             9/13/2023 11:19:11 AM :LOG DATE  
API         .                                    42057314270000 :API NUMBER
UWI         .                                    42057314270000 :UNIQUE WELL ID
XCOORD      .                                  502172.533303084 :SURFACE X 
YCOORD      .                                    10284545.23877 :SURFACE Y 
LAT         .                                        28.2945207 :LATITUDE  
LON         .                                       -96.5369185 :LONGITUDE 
ELEV        .FT                                              17 :ELEVATION VALUE
ELEV_TYPE   .                                                KB :ELEVATION REFERENCE TYPE
~Curve Information Section
#MNEM       .UNIT                                      API CODE :CURVE DESCRIPTION
#------------------------------------------------------------------------------
DEPT        .FT                                                 :DEPTH     
DCAL        .IN                                                 :          
DPHI        .%                                                  :          
DRHO        .G/CC                                               :          
GR          .GAPI                                               :          
GR_NORM     .GAPI                                               :GammaRay Normalized
ILD         .OHMM                                               :          
ILM         .OHMM                                               :          
NPHI        .%                                                  :          
SGRD        .OHMM                                               :          
SP          .MV                                                 :          
SP_NORM     .MV                                                 :SP Normalized
TENS        .LB/F                                               :          
VSH_GR      .V/V                                                :Volume of Shale from GR
VSH_SP      .V/V                                                :Volume of Shale from SP
~A        DEPTH           DCAL           DPHI           DRHO             GR        GR_NORM            ILD            ILM           NPHI           SGRD             SP        SP_NORM           TENS         VSH_GR         VSH_SP
# ...
      5082.0000         0.3168        21.1275           0.03           83.1       85.47592         1.0611         1.1055        39.1089         1.1055        -30.297       -1.83395       2782.858              1      0.9858652
      5082.5000         0.3168        21.2255           0.03           83.4       85.83758         1.0372         1.0806        39.8515         1.0905        -30.198      -1.733448       2784.314              1      0.9875687
      5083.0000         0.3168        21.3235           0.03           83.7       86.19923         1.0184         1.0562         39.703         1.0806          -29.1     -0.6339474       2803.922              1              1
      5083.5000         0.3168        21.4706           0.03          83.85       86.38006         1.0277         1.0514        39.6535         1.0708          -27.9      0.5675545       2803.922              1              1
      5084.0000         0.3168        21.7157           0.03           85.2       88.00748         1.0184         1.0419        39.8515         1.0708          -27.8      0.6690559       2803.922              1              1
      5084.5000         0.3168        21.8627           0.03             87       90.17738         1.0092         1.0372         39.802         1.0708          -28.7     -0.2294426       2784.314              1              1
      5085.0000         0.3564        21.8627           0.03           87.9       91.26233         0.9954         1.0277         39.802         1.0708          -29.4     -0.9279404       2784.314              1              1
      5085.5000         0.3564        21.8627          0.032             87       90.17738         0.9774         1.0138         39.901         1.0659        -30.297      -1.823441       2784.314              1      0.9860434
      5086.0000         0.3564        22.0098          0.034             87       90.17738          0.964         1.0046         39.901         1.0611        -30.396      -1.920938       2823.529              1      0.9843909
      5086.5000          0.396           22.5          0.034           88.8       92.34728         0.9509              1         40.297         1.0514       -30.5941      -2.117538       2823.529              1      0.9810587
      5087.0000          0.396        22.7451           0.04        90.4455       94.33093         0.9509         0.9909        40.7921         1.0419        -30.099      -1.620937       2803.922              1      0.9894757
      5087.5000          0.396        23.1863          0.046        92.0792       96.30035         0.9465         0.9909        41.5347         1.0419          -29.7      -1.220434       2803.922              1      0.9962638
      5088.0000          0.396        23.8725          0.054        93.2673       97.73261         0.9729         0.9909        42.5248         1.0514          -29.7      -1.218933       2803.922              1      0.9962893
      5088.5000          0.399        24.5588          0.062        91.9307       96.12134         1.0046         1.0138        42.5675         1.0562        -30.297      -1.814432       2803.922              1       0.986196
      5089.0000         0.4038         24.902          0.052        90.4455       94.33093         1.0372         1.0514        41.6641         1.0659          -29.5       -1.01593       2784.314              1        0.99973
      5089.5000         0.4087        24.8039          0.048           85.8        88.7308         1.0757         1.1005        39.8212         1.1157          -28.3      0.1855717       2784.314              1              1
      5090.0000         0.4135        23.9706           0.04          80.55       82.40192         1.1106         1.1518        37.2083         1.1784            -27       1.487074       2784.314              1              1
      5090.5000         0.4158        22.0588          0.032           76.2       77.15799         1.1518         1.2056        36.1275         1.2334          -26.4       2.088575       2784.314      0.9395317              1
      5091.0000         0.4158        20.4412          0.016        73.6634       74.10012         1.1838         1.2056        35.2451         1.2447          -26.4       2.090076       2784.314      0.8744707              1
      5091.5000         0.4158        18.6765          0.012        71.5842       71.59365         1.1946         1.2056        34.3069         1.2447          -26.5       1.991577       2784.314      0.8211415              1
      5092.0000         0.4158         17.451          0.014        71.7327       71.77267         1.1892         1.1892        34.0099         1.2222          -26.4       2.093079       2784.314      0.8249503              1
      5092.5000         0.4356        16.9118           0.02        73.5149       73.92111         1.1571          1.173        34.3564         1.2001          -26.3       2.194582       2784.314       0.870662              1
      5093.0000         0.4356        16.7157          0.026          75.75       76.61552         1.1259         1.1571        34.7525         1.1784          -26.2       2.296082       2803.922      0.9279897              1
      5093.5000         0.4356        16.8137          0.032          77.85       79.14706         1.0955         1.1362         34.901         1.1518          -26.3       2.197584       2803.922      0.9818524              1
      5094.0000         0.4554        17.2549          0.036           80.4       82.22108         1.0855         1.1106        35.1961          1.131          -26.4       2.099085       2784.314              1              1
      5094.5000         0.4554        17.8431           0.04           82.2       84.39098         1.1106         1.1362        35.5392         1.1106          -27.1       1.400585       2784.314              1              1
      5095.0000         0.3762        18.0392           0.04           80.7       82.58273         1.1677         1.1677        35.1471         1.1106            -28      0.5020866       2803.922              1              1
      5095.5000          0.297        17.7451          0.038          78.45       79.87035          1.239          1.239        33.4158         1.1784       -31.0891       -2.58551       2784.314      0.9972416      0.9731269
      5096.0000         0.2178        17.3039          0.028        73.3663       73.74197         1.3207         1.3207        30.4455         1.4207       -36.3366      -7.831511       2784.314      0.8668503      0.8842117
      5096.5000         0.1386        17.3039          0.018        69.2079       68.72903         1.4014         1.4078        27.9703         1.7284          -41.5      -12.99341       2784.314       0.760192      0.7967219
      5097.0000         0.1386        17.8922          0.008        67.8713       67.11775         1.4802         1.4938        25.5446         1.9909          -46.3      -17.79191       2784.314      0.7259096      0.7153914
      5097.5000         0.1386        20.1471              0        66.5347       65.50648          1.585          1.585        24.5588         2.0091       -51.2871      -22.77751       2803.922      0.6916272      0.6308897
      5098.0000         0.1188        23.2353        -0.0099        64.7525       63.35805         1.6895         1.6972        24.4118         1.8593       -54.3564       -25.8453       2803.922       0.645916      0.5788932
      5098.5000         0.0962        25.6931        -0.0099        63.7129        62.1048         1.7927         1.8009             25         1.7363       -53.6634       -25.1508       2803.922      0.6192512      0.5906644
      5099.0000         0.0915        28.2673        -0.0119        62.3762       60.49342         1.9022         1.9196        25.7426         1.7363       -51.9802       -23.4661       2823.529      0.5849663      0.6192186
      5099.5000         0.0863        28.6139        -0.0158        61.3366       59.24018         2.0275         2.0837        26.2871         1.7523       -51.6832       -23.1676       2823.529      0.5583017      0.6242779
