#------------------------------------------------------------------------------
# Created by    : vladimir.rabinovich
# Created on    : 09/19/2023 17:22:40
#------------------------------------------------------------------------------
~Version Information Section
VERS.           2.0     :   CWLS log ASCII Standard - VERSION 2.0
WRAP.           NO      :   One line per depth step
~Well Information Section
#MNEM       .UNIT                                         VALUE :DESCRIPTION
#------------------------------------------------------------------------------
STRT        .FT                                             150 :START DEPTH
STOP        .FT                                            6352 :STOP DEPTH
STEP        .FT                                             0.5 :STEP      
NULL        .                                           -999.25 :NULL      
COMP        .                               PG & E RESOURCES CO :COMPANY   
WELL        .                        STATE OF TEXAS - TRACT /J/ :WELL      
FLD         .                                      PRINGLE LAKE :FIELD     
LOC         .                                                   :LOCATION  
CNTY        .                                           CALHOUN :LOCATION  
STAT        .                                             TEXAS :STATE     
CTRY        .                                     UNITED STATES :COUNTRY   
SRVC        .                                                   :SERVICE COMPANY
DATE        .                             9/13/2023 11:19:11 AM :LOG DATE  
API         .                                    42057314270000 :API NUMBER
UWI         .                                    42057314270000 :UNIQUE WELL ID
XCOORD      .                                  502172.533303084 :SURFACE X 
YCOORD      .                                    10284545.23877 :SURFACE Y 
LAT         .                                        28.2945207 :LATITUDE  
LON         .                                       -96.5369185 :LONGITUDE 
ELEV        .FT                                              17 :ELEVATION VALUE
ELEV_TYPE   .                                                KB :ELEVATION REFERENCE TYPE
~Curve Information Section
#MNEM       .UNIT                                      API CODE :CURVE DESCRIPTION
#------------------------------------------------------------------------------
DEPT        .FT                                                 :DEPTH     
DCAL        .IN                                                 :          
DPHI        .%                                                  :          
DRHO        .G/CC                                               :          
GR          .GAPI                                               :          
GR_NORM     .GAPI                                               :GammaRay Normalized
ILD         .OHMM                                               :          
ILM         .OHMM                                               :          
NPHI        .%                                                  :          
SGRD        .OHMM                                               :          
SP          .MV                                                 :          
SP_NORM     .MV                                                 :SP Normalized
TENS        .LB/F                                               :          
VSH_GR      .V/V                                                :Volume of Shale from GR
VSH_SP      .V/V                                                :Volume of Shale from SP
~A        DEPTH           DCAL           DPHI           DRHO             GR        GR_NORM            ILD            ILM           NPHI           SGRD             SP        SP_NORM           TENS         VSH_GR         VSH_SP
# ...
      4272.0000         0.7129        25.4455          0.018          70.35       74.96317         0.7402         0.8077         40.297         0.9341       -37.3267      -11.35012       2570.955      0.8928335      0.7887731
      4272.5000         0.6733        26.5347          0.012          69.75       74.36137         0.7296         0.7927        40.9406         0.9336       -37.1287       -11.1465       2588.235      0.8800291      0.7929285
      4273.0000         0.6535        26.9802          0.012          70.35       74.95956         0.7196         0.7782        41.0396         0.9251       -36.7327      -10.74488       2588.235      0.8927567      0.8011248
      4273.5000         0.6337        27.1287          0.016          71.25       75.85777         0.7097          0.764        41.4851         0.9166       -35.3465      -9.353064       2607.843      0.9118673      0.8295293
      4274.0000         0.6337        26.9802          0.022           72.6       77.20596            0.7         0.7466        41.7327         0.9125       -33.2673      -7.268244       2607.843      0.9405524      0.8720766
      4274.5000         0.6337        25.9901          0.028           75.3       79.90417         0.6905         0.7432        41.8317         0.9041       -31.5842      -5.579525       2588.235       0.997961      0.9065403
      4275.0000         0.6337        25.3465          0.034           78.6       83.20235         0.6874         0.7364        41.7327            0.9       -32.1782      -6.167906       2588.235              1      0.8945326
      4275.5000         0.6337         25.099           0.04          88.35       92.95055         0.6968         0.7296        41.6832         0.8919       -34.6535      -8.637587       2568.627              1      0.8441309
      4276.0000         0.6535         25.099           0.04        96.5347       101.1335         0.7296         0.7466        41.6337         0.8879       -37.1287      -11.10717       2588.235              1      0.7937313
      4276.5000         0.6337         25.099           0.04        97.2772       101.8742          0.764         0.7927        41.1881         0.9041       -38.1188      -12.09165       2588.235              1      0.7736398
      4277.0000         0.6139        25.2475          0.036        96.9802       101.5754         0.8036         0.8333         40.297         0.9336       -33.9604      -7.927629       2588.235              1      0.8586198
      4277.5000         0.6139        25.4455          0.036        90.8911       95.48444         0.8524         0.8719        38.8119         0.9774        -30.297       -4.25861       2588.235              1      0.9334978
      4278.0000         0.5941        25.5941          0.036          84.45       89.04154         0.8959         0.9125        38.0693         1.0185          -29.8      -3.755989       2568.627              1      0.9437553
      4278.5000         0.5966        25.7921          0.036             78       82.58974         0.9422         0.9552        37.7685         1.0232          -29.7      -3.650372       2588.235              1      0.9459108
      4279.0000         0.5423        25.7921          0.036          75.45       80.03794         0.9954              1        37.5643         1.0326          -29.9      -3.844751       2588.235              1      0.9419438
      4279.5000         0.5275        25.3465          0.034           76.2       80.78614         1.0516         1.0468        37.7055         1.0516        -30.099      -4.038134       2588.235              1      0.9379973
      4280.0000         0.5128        25.2475          0.032          76.35       80.93433         1.1056         1.0956         37.846         1.0708        -30.198      -4.131514       2588.235              1      0.9360915
      4280.5000         0.4554             25           0.03           75.9       80.48254         1.1624         1.1414        37.6471         1.0855        -30.495      -4.422895       2588.235              1       0.930145
      4281.0000         0.4356        24.8529          0.028        72.7723       77.35303         1.2166         1.2001        36.9608         1.1055       -30.8911      -4.813374       2588.235      0.9436816      0.9221761
      4281.5000          0.396        24.8529          0.026        71.4356       76.01453         1.2447         1.2278        35.9804          1.131       -32.0792      -5.995855       2568.627      0.9152029      0.8980438
      4282.0000         0.4356        24.4118          0.024        68.1683       72.74543         1.2792         1.2618        34.5545         1.1677       -32.6733      -6.584337       2568.627      0.8456475       0.886034
      4282.5000         0.4752        23.3824          0.022        67.1287       71.70403         1.3147         1.2968        33.4653         1.2056       -32.9703      -6.875715       2588.235      0.8234899      0.8800874
      4283.0000         0.5149         22.451          0.018        66.3861       70.95963         1.3512         1.3328        31.9307         1.2166       -32.1782      -6.077997       2607.843      0.8076516      0.8963674
      4283.5000         0.5545        21.7157          0.018         65.198       69.76972         1.3512         1.3512        31.3861         1.2166       -30.9901      -4.884279       2607.843      0.7823345       0.920729
      4284.0000         0.5941        21.0294          0.018        64.4554       69.02532         1.3512         1.3512        31.1386         1.2166        -30.495       -4.38356       2588.235      0.7664962      0.9309478
      4284.5000         0.6535        20.4412          0.018         64.604       69.17212         1.3207          1.345        31.3366         1.2111        -30.198       -4.08094       2588.235      0.7696196      0.9371237
      4285.0000         0.6535        20.8333          0.016         64.604       69.17031         1.2792         1.3207        31.4356         1.2111        -30.297       -4.17432       2568.627      0.7695811       0.935218
      4285.5000         0.7129        21.0784          0.014         65.198       69.76251         1.2334         1.2618        31.7822         1.2111        -30.396        -4.2677       2568.627      0.7821811      0.9333122
      4286.0000         0.7327        21.4706          0.014         65.495       70.05772         1.1892         1.2056        32.1782         1.1838        -30.396      -4.262081       2568.627       0.788462      0.9334269
      4286.5000         0.7327        22.1078          0.014        65.0495       69.61041         1.1414         1.1518        33.1188         1.1414        -30.099      -3.959463       2568.627       0.778945      0.9396028
      4287.0000         0.6931        22.9412          0.014        65.9406       70.49971         1.1005         1.0855        34.1089         1.0757          -29.7      -3.554844       2588.235      0.7978662      0.9478603
      4287.5000         0.5941        24.0196          0.014        68.6139        73.1712         1.0611         1.0467        35.8333         1.0324          -29.5      -3.349224       2588.235      0.8547065      0.9520566
      4288.0000         0.4752        24.6569          0.014        70.5446       75.10011         1.0419         1.0277        37.0098         1.0231          -29.7      -3.543606       2588.235      0.8957469      0.9480897
      4288.5000         0.5149         24.902          0.014        73.8119        78.3656         1.0324         1.0184        37.6471         1.0138          -29.7      -3.537985       2588.235      0.9652255      0.9482044
      4289.0000         0.5149         25.198          0.014             75        79.5519         1.0184         1.0046        38.1863         1.0046          -29.4      -3.232365       2568.627       0.990466      0.9544415
      4289.5000         0.5347        25.3465          0.014          78.15        82.7001         1.0138              1        38.5294         0.9954          -29.2      -3.026747       2568.627              1      0.9586378
