#------------------------------------------------------------------------------
# Created by    : vladimir.rabinovich
# Created on    : 09/19/2023 17:22:40
#------------------------------------------------------------------------------
~Version Information Section
VERS.           2.0     :   CWLS log ASCII Standard - VERSION 2.0
WRAP.           NO      :   One line per depth step
~Well Information Section
#MNEM       .UNIT                                         VALUE :DESCRIPTION
#------------------------------------------------------------------------------
STRT        .FT                                             150 :START DEPTH
STOP        .FT                                            6352 :STOP DEPTH
STEP        .FT                                             0.5 :STEP      
NULL        .                                           -999.25 :NULL      
COMP        .                               PG & E RESOURCES CO :COMPANY   
WELL        .                        STATE OF TEXAS - TRACT /J/ :WELL      
FLD         .                                      PRINGLE LAKE :FIELD     
LOC         .                                                   :LOCATION  
CNTY        .                                           CALHOUN :LOCATION  
STAT        .                                             TEXAS :STATE     
CTRY        .                                     UNITED STATES :COUNTRY   
SRVC        .                                                   :SERVICE COMPANY
DATE        .                             9/13/2023 11:19:11 AM :LOG DATE  
API         .                                    42057314270000 :API NUMBER
UWI         .                                    42057314270000 :UNIQUE WELL ID
XCOORD      .                                  502172.533303084 :SURFACE X 
YCOORD      .                                    10284545.23877 :SURFACE Y 
LAT         .                                        28.2945207 :LATITUDE  
LON         .                                       -96.5369185 :LONGITUDE 
ELEV        .FT                                              17 :ELEVATION VALUE
ELEV_TYPE   .                                                KB :ELEVATION REFERENCE TYPE
~Curve Information Section
#MNEM       .UNIT                                      API CODE :CURVE DESCRIPTION
#------------------------------------------------------------------------------
DEPT        .FT                                                 :DEPTH     
DCAL        .IN                                                 :          
DPHI        .%                                                  :          
DRHO        .G/CC                                               :          
GR          .GAPI                                               :          
GR_NORM     .GAPI                                               :GammaRay Normalized
ILD         .OHMM                                               :          
ILM         .OHMM                                               :          
NPHI        .%                                                  :          
SGRD        .OHMM                                               :          
SP          .MV                                                 :          
SP_NORM     .MV                                                 :SP Normalized
TENS        .LB/F                                               :          
VSH_GR      .V/V                                                :Volume of Shale from GR
VSH_SP      .V/V                                                :Volume of Shale from SP
~A        DEPTH           DCAL           DPHI           DRHO             GR        GR_NORM            ILD            ILM           NPHI           SGRD             SP        SP_NORM           TENS         VSH_GR         VSH_SP
# ...
      4686.0000         1.9604        56.8137        -0.1228           38.7       35.13815         0.3112         0.4244        55.2451         0.6629       -88.2178      -59.47278       2705.882     0.04549246    0.008935896
      4686.5000         1.4257        55.6373        -0.1089          39.75       36.40232         0.3169         0.4302        53.5294         0.6781       -88.8119      -60.07353       2705.882     0.07238972              0
      4687.0000         1.2673        56.6176         -0.101           40.2        36.9441         0.3242         0.4362        52.3039         0.6874        -90.099      -61.36728       2705.882     0.08391709              0
      4687.5000         1.5644        55.8824         -0.095           40.5       37.30529         0.3302         0.4401        49.0099         0.6937       -91.1881      -62.46304       2705.882     0.09160192              0
      4688.0000         2.3168        54.7059        -0.0911           40.5       37.30529         0.3363         0.4462        47.2277         0.6968       -91.0891      -62.37069       2705.882     0.09160192              0
      4688.5000         3.0891        54.7549        -0.0889        39.9071       36.59146         0.3425         0.4482        46.9307         0.6968       -90.0845      -61.37273        2725.49     0.07641407              0
      4689.0000         3.4851        55.5392        -0.0907        38.8735       35.34703         0.3456         0.4544        47.6733         0.6968       -88.9712      -60.26608        2725.49      0.0499369              0
      4689.5000         3.6832         54.951        -0.1004        37.9941       34.28825         0.3488         0.4586        48.3663         0.6968       -88.2538      -59.55533        2725.49     0.02740965    0.007536807
      4690.0000         4.1176        55.6373        -0.1201        37.2678       33.41381         0.3488         0.4586        49.0099         0.6968       -88.7247      -60.03288        2725.49    0.008804564              0
      4690.5000         4.6275        56.7157         -0.134        36.3861       32.35227         0.3472         0.4565        48.9109         0.6968        -89.901      -61.21583       2705.882              0              0
      4691.0000          5.098        54.7059         -0.146        36.3861       32.35227         0.3456         0.4544        47.7723         0.6937       -90.8911      -62.21257       2705.882              0              0
      4691.5000         5.2157         52.402         -0.134        36.5347       32.53118          0.344         0.4482        46.5842         0.6937       -91.7822      -63.11033       2705.882              0              0
      4692.0000         5.2157             50         -0.118        36.8317       32.88876          0.344         0.4482        45.5446         0.6937       -92.1782      -63.51297       2705.882              0              0
      4692.5000         5.1373        47.9208         -0.098        38.0198        34.3192         0.3425         0.4442        44.4059         0.6937       -91.8812      -63.22263       2705.882     0.02806806              0
      4693.0000         4.9608        48.5644          -0.08        39.3564       35.92843          0.344         0.4422        43.9604         0.6937       -91.5842      -62.93227       2705.882     0.06230699              0
      4693.5000         4.8039        49.6569         -0.062        41.7327       38.78943         0.3472         0.4422        44.4059         0.6937       -91.2871      -62.64182       2686.274      0.1231794              0
      4694.0000         4.6275        51.0784         -0.054        43.5149       40.93515          0.352         0.4462        45.1485         0.6905       -91.2871      -62.64847       2705.882      0.1688329              0
      4694.5000         4.3922        52.8922         -0.052        39.3564       35.92843         0.3568         0.4503        46.0891         0.6905       -91.3861      -62.75412       2705.882     0.06230699              0
      4695.0000         4.1765        52.9902         -0.052        38.0198        34.3192         0.3634         0.4544        46.7327         0.6905       -91.4851      -62.85977       2705.882     0.02806806              0
      4695.5000         3.7228        53.1373         -0.056        38.6139       35.03448         0.3668         0.4565        47.3762         0.6905       -91.5842      -62.96552       2705.882     0.04328683              0
      4696.0000         2.8911        54.1667         -0.058        37.4257       33.60392         0.3701         0.4606        49.7549         0.6937       -91.3861      -62.77407       2705.882     0.01284944              0
      4696.5000          2.198        54.6569          -0.06        39.0594       35.57085         0.3718         0.4606        50.8333         0.6968       -91.3861      -62.78072       2705.882     0.05469886              0
      4697.0000          1.802        54.8529         -0.056        42.9208       40.21987         0.3718         0.4586        50.9314         0.6968       -91.3861      -62.78736       2705.882      0.1536143              0
      4697.5000          1.802        54.8529         -0.046        45.1485       42.90195         0.3752         0.4628        50.7353            0.7       -91.1881      -62.59602       2705.882      0.2106799              0
      4698.0000         1.9208        52.8922         -0.038        47.9703       46.29932         0.3718         0.4649        50.9804         0.7032       -90.7921      -62.20666       2705.882      0.2829643              0
      4698.5000         2.1782        50.4412          -0.03        54.3564       53.98801         0.3684         0.4628        50.7353         0.7032        -90.396      -61.81721       2705.882      0.4465535              0
      4699.0000         2.2178        49.1089         -0.018        56.1386       56.13373         0.3651         0.4628        44.9505         0.7065        -90.099      -61.52686       2666.667      0.4922071              0
      4699.5000         2.0198        46.6337         -0.008        57.3267       57.56417         0.3585         0.4628         44.901         0.7065        -90.297      -61.73151       2686.274       0.522642              0
      4700.0000         1.7426        44.1089          0.002         55.099       54.88208          0.352         0.4586        45.8911         0.7097       -90.7921      -62.23326       2705.882      0.4655763              0
      4700.5000         1.5446        42.1782              0         50.198       48.98142         0.3456         0.4544        46.8317         0.7097       -91.1881      -62.63591       2705.882      0.3400302              0
      4701.0000         1.5446        45.4455         -0.026         45.297       43.08075         0.3394         0.4482         49.951         0.7065       -91.5842      -63.03865        2725.49       0.214484              0
      4701.5000         1.6436        48.7129          -0.06        42.7723       40.04108         0.3347         0.4442        50.2451         0.6968       -91.9802      -63.44131       2705.882      0.1498103              0
      4702.0000         1.7426        48.4653          -0.08         39.802       36.46492         0.3287         0.4401        50.8333         0.6874       -92.1782      -63.64595       2705.882     0.07372162              0
      4702.5000         1.8218        47.6238         -0.086        40.2475       37.00129         0.3242         0.4342        50.3431         0.6843       -92.2772       -63.7516       2705.882     0.08513381              0
      4703.0000         1.8218        47.5248         -0.086        42.4752       39.68338         0.3198         0.4302         50.049         0.6843       -92.2772      -63.75825       2705.882      0.1421996              0
      4703.5000         1.7426        46.6832         -0.076         44.703       42.36559          0.314         0.4263        50.2451         0.6843       -91.9802       -63.4679        2725.49      0.1992678              0
