#------------------------------------------------------------------------------
# Created by    : vladimir.rabinovich
# Created on    : 09/19/2023 17:22:40
#------------------------------------------------------------------------------
~Version Information Section
VERS.           2.0     :   CWLS log ASCII Standard - VERSION 2.0
WRAP.           NO      :   One line per depth step
~Well Information Section
#MNEM       .UNIT                                         VALUE :DESCRIPTION
#------------------------------------------------------------------------------
STRT        .FT                                             150 :START DEPTH
STOP        .FT                                            6352 :STOP DEPTH
STEP        .FT                                             0.5 :STEP      
NULL        .                                           -999.25 :NULL      
COMP        .                               PG & E RESOURCES CO :COMPANY   
WELL        .                        STATE OF TEXAS - TRACT /J/ :WELL      
FLD         .                                      PRINGLE LAKE :FIELD     
LOC         .                                                   :LOCATION  
CNTY        .                                           CALHOUN :LOCATION  
STAT        .                                             TEXAS :STATE     
CTRY        .                                     UNITED STATES :COUNTRY   
SRVC        .                                                   :SERVICE COMPANY
DATE        .                             9/13/2023 11:19:11 AM :LOG DATE  
API         .                                    42057314270000 :API NUMBER
UWI         .                                    42057314270000 :UNIQUE WELL ID
XCOORD      .                                  502172.533303084 :SURFACE X 
YCOORD      .                                    10284545.23877 :SURFACE Y 
LAT         .                                        28.2945207 :LATITUDE  
LON         .                                       -96.5369185 :LONGITUDE 
ELEV        .FT                                              17 :ELEVATION VALUE
ELEV_TYPE   .                                                KB :ELEVATION REFERENCE TYPE
~Curve Information Section
#MNEM       .UNIT                                      API CODE :CURVE DESCRIPTION
#------------------------------------------------------------------------------
DEPT        .FT                                                 :DEPTH     
DCAL        .IN                                                 :          
DPHI        .%                                                  :          
DRHO        .G/CC                                               :          
GR          .GAPI                                               :          
GR_NORM     .GAPI                                               :GammaRay Normalized
ILD         .OHMM                                               :          
ILM         .OHMM                                               :          
NPHI        .%                                                  :          
SGRD        .OHMM                                               :          
SP          .MV                                                 :          
SP_NORM     .MV                                                 :SP Normalized
TENS        .LB/F                                               :          
VSH_GR      .V/V                                                :Volume of Shale from GR
VSH_SP      .V/V                                                :Volume of Shale from SP
~A        DEPTH           DCAL           DPHI           DRHO             GR        GR_NORM            ILD            ILM           NPHI           SGRD             SP        SP_NORM           TENS         VSH_GR         VSH_SP
# ...
       978.0000          3.901        86.1386         -0.012        23.9109       34.11176         0.7854         0.9209        66.1765         1.0514          -57.4      -16.74355       1343.137     0.02365453      0.0785284
       978.5000         4.4158         87.505          -0.02        23.3289       33.40979         0.7927         0.9209        64.0396         1.0419       -57.5901      -16.94024       1343.137    0.008718937     0.06623507
       979.0000         4.9703        88.8119         -0.028        22.9018       32.89432         0.7927         0.9166         62.495         1.0324       -57.5713      -16.92804       1343.137              0     0.06699753
       979.5000         5.3861         89.703         -0.034         22.921       32.91617         0.7927         0.9166        61.6634         1.0231       -57.4532      -16.81654       1343.137              0     0.07396626
       980.0000         5.4653        90.0599         -0.034        22.6407       32.57745         0.7927         0.9166        61.7228         1.0184        -57.534      -16.90394       1343.137              0     0.06850386
       980.5000         5.4438        90.3146         -0.038         22.191       32.03476         0.7963         0.9161        61.2995         1.0178       -57.6349      -17.01143       1342.331              0     0.06178546
       981.0000         5.4205         90.523          -0.04        21.8742       31.65209         0.8075         0.9109        61.2252         1.0121       -57.6535      -17.03663       1340.713              0     0.06021047
       981.5000         5.3776        90.4323          -0.04        21.1118       30.73292         0.8148         0.9098        60.0817         1.0063        -57.473      -16.86273       1339.088              0     0.07107925
       982.0000         5.3546        90.2825          -0.04        20.3532       29.81833         0.8222         0.9047        59.1089         1.0006       -57.3914      -16.78773       1337.454              0      0.0757668
       982.5000         5.3529        90.1782          -0.04         20.495       29.98779         0.8258            0.9        60.1797         0.9909          -57.3      -16.70293       1336.634              0     0.08106709
       983.0000         5.3529        90.0594          -0.04        21.3861        31.0594         0.8333            0.9        60.1782         0.9864          -57.1      -16.50953       1336.634              0     0.09315467
       983.5000         5.3725          89.88         -0.038        22.5743        32.4887         0.8409            0.9        60.2376         0.9864            -57      -16.41613       1336.634              0     0.09899211
       984.0000         5.3922          89.76         -0.034        23.6139       33.73909         0.8485            0.9        61.1287         0.9864          -56.8      -16.22272       1336.634     0.01572532      0.1110797
       984.5000         5.4118          89.64         -0.034        23.7624       33.91662         0.8563         0.9041        61.4851         0.9909          -56.6      -16.02932       1336.634      0.0195026      0.1231675
       985.0000         5.3922          89.46         -0.034        23.6139       33.73657          0.868         0.9251        61.9604         1.0046          -56.2      -15.63592       1336.634     0.01567175      0.1477549
       985.5000         5.3922          89.34         -0.034        23.0198       33.02004         0.8759         0.9774        62.3168         1.0187          -55.6      -15.04252       1336.634   0.0004263533      0.1848426
       986.0000         5.3922          89.22         -0.034        22.8713       32.83999         0.8879              1        61.1287         1.0329          -55.1      -14.54912       1336.634              0      0.2156801
       986.5000          5.411         89.221         -0.034        22.7228       32.65994            0.9         0.9909        60.5941         1.0425          -54.5      -13.95572       1336.634              0      0.2527678
       987.0000         5.3702        89.3425         -0.034        23.0198       33.01626            0.9         0.9774        60.5347         1.0473          -53.8      -13.26231       1336.634   0.0003460012      0.2961054
       987.5000         5.3884        89.4037         -0.032        25.5446        36.0548         0.9041         0.9596        60.2376         1.0329          -52.9      -12.36892       1336.634     0.06499571      0.3519428
       988.0000         5.3869        89.4647         -0.032        26.8812       37.66277         0.9041         0.9465        60.1188          1.014          -51.8      -11.27551       1336.634     0.09920786      0.4202805
       988.5000         5.3861        89.5842         -0.032        28.8119       39.98601         0.9041         0.9379             60         0.9954       -50.8133      -10.29541       1337.051      0.1486385      0.4815366
       989.0000         5.3861        89.6436        -0.0341           30.3       41.77639            0.9         0.9379        59.8218         0.9774       -50.1385      -9.627209       1337.888      0.1867317      0.5232995
       989.5000         5.3861        89.7624        -0.0342          30.75       42.31692         0.8838         0.9336        59.8218         0.9596       -49.7634      -9.258709        1338.73      0.1982323      0.5463307
       990.0000         5.3861         89.703        -0.0343           30.3       41.77387         0.8601         0.9293        59.9406         0.9552       -49.8878      -9.389706       1339.575      0.1866781      0.5381434
       990.5000          5.387        89.4059        -0.0343        29.7217       41.07636         0.8333         0.9166         60.245         0.9552       -50.0989      -9.607407       1340.831      0.1718374      0.5245371
       991.0000         5.3885        89.1683        -0.0343        28.4174       39.50476         0.8295         0.9041        60.4381         0.9596       -50.3945      -9.909603       1342.487      0.1383992      0.5056498
       991.5000           5.39        88.8713        -0.0323        26.8076       37.56535         0.8258         0.8879        60.9876         0.9509       -50.5903        -10.112       1344.135      0.0971351      0.4929998
       992.0000         5.4112        88.6931        -0.0323        26.5382       37.23974          0.822         0.8919        61.3589         0.9509       -50.9814       -10.5097       1355.688      0.0902072      0.4681437
       992.5000         5.4118        88.5149        -0.0343          26.85       37.61388          0.822         0.9041        61.2475         0.9729       -51.8627       -11.3976       1366.337     0.09816775      0.4126499
       993.0000         5.3529        88.2772        -0.0343          27.15       37.97381          0.822         0.9209        60.4752              1       -53.1373      -12.67879       1376.238      0.1058257      0.3325753
       993.5000         5.3725         88.396        -0.0303             27       37.79196         0.8371         0.9379        60.2376          1.047       -54.0196       -13.5677       1376.238      0.1019566       0.277019
       994.0000         5.3922        88.4554        -0.0283           26.7       37.42951         0.8447         0.9596        60.2376         1.0911        -55.098      -14.65269       1386.139     0.09424493      0.2092066
       994.5000         5.3725        88.5743        -0.0283          24.45       34.71931         0.8563         0.9864        60.8317         1.1268       -55.7843       -15.3456        1396.04     0.03658116      0.1659002
       995.0000         5.3333        88.8119        -0.0283          23.25       33.27328          0.868         1.0046         61.604         1.1319       -56.2745      -15.84239       1405.941    0.005814573      0.1348505
       995.5000         5.3333        89.2277        -0.0303          22.65       32.54964         0.8798         1.0232        62.3762         1.1165       -56.5686      -16.14309        1396.04              0      0.1160569
