#------------------------------------------------------------------------------
# Created by    : vladimir.rabinovich
# Created on    : 09/19/2023 17:22:40
#------------------------------------------------------------------------------
~Version Information Section
VERS.           2.0     :   CWLS log ASCII Standard - VERSION 2.0
WRAP.           NO      :   One line per depth step
~Well Information Section
#MNEM       .UNIT                                         VALUE :DESCRIPTION
#------------------------------------------------------------------------------
STRT        .FT                                             150 :START DEPTH
STOP        .FT                                            6352 :STOP DEPTH
STEP        .FT                                             0.5 :STEP      
NULL        .                                           -999.25 :NULL      
COMP        .                               PG & E RESOURCES CO :COMPANY   
WELL        .                        STATE OF TEXAS - TRACT /J/ :WELL      
FLD         .                                      PRINGLE LAKE :FIELD     
LOC         .                                                   :LOCATION  
CNTY        .                                           CALHOUN :LOCATION  
STAT        .                                             TEXAS :STATE     
CTRY        .                                     UNITED STATES :COUNTRY   
SRVC        .                                                   :SERVICE COMPANY
DATE        .                             9/13/2023 11:19:11 AM :LOG DATE  
API         .                                    42057314270000 :API NUMBER
UWI         .                                    42057314270000 :UNIQUE WELL ID
XCOORD      .                                  502172.533303084 :SURFACE X 
YCOORD      .                                    10284545.23877 :SURFACE Y 
LAT         .                                        28.2945207 :LATITUDE  
LON         .                                       -96.5369185 :LONGITUDE 
ELEV        .FT                                              17 :ELEVATION VALUE
ELEV_TYPE   .                                                KB :ELEVATION REFERENCE TYPE
~Curve Information Section
#MNEM       .UNIT                                      API CODE :CURVE DESCRIPTION
#------------------------------------------------------------------------------
DEPT        .FT                                                 :DEPTH     
DCAL        .IN                                                 :          
DPHI        .%                                                  :          
DRHO        .G/CC                                               :          
GR          .GAPI                                               :          
GR_NORM     .GAPI                                               :GammaRay Normalized
ILD         .OHMM                                               :          
ILM         .OHMM                                               :          
NPHI        .%                                                  :          
SGRD        .OHMM                                               :          
SP          .MV                                                 :          
SP_NORM     .MV                                                 :SP Normalized
TENS        .LB/F                                               :          
VSH_GR      .V/V                                                :Volume of Shale from GR
VSH_SP      .V/V                                                :Volume of Shale from SP
~A        DEPTH           DCAL           DPHI           DRHO             GR        GR_NORM            ILD            ILM           NPHI           SGRD             SP        SP_NORM           TENS         VSH_GR         VSH_SP
# ...
      3030.0000         3.5446        49.7549          -0.12         41.319       75.46087         0.9374         0.8794         52.451         0.9246          -45.4        -1.1581       1882.353      0.9034227      0.9961439
      3030.5000         3.3069        44.3069         -0.092        44.4325       79.38398         0.9684         0.9209        50.0494         0.9684          -43.2       1.001785       1882.185      0.9868932              1
      3031.0000         3.1485        41.3861         -0.064        46.5431       81.76056         1.0372          0.964        48.8119         1.0138          -42.3       1.861675       1881.902              1              1
      3031.5000         2.9901        38.8655         -0.056        48.6585       84.14452         1.1157         1.0092        47.6238         1.0611          -42.8        1.32156       1881.618              1              1
      3032.0000         2.9109        36.0939         -0.056        49.1403       84.00936         1.1946         1.0562        46.3861         1.0757          -44.7     -0.6185532       1881.332              1              1
      3032.5000         2.8119        34.4059          -0.07        47.6733         80.869         1.2166         1.1106        45.9901         1.0955          -46.7      -2.658665        1900.99              1      0.9595448
      3033.0000         2.7129        35.6931           -0.1        45.5941       76.78458         1.2166         1.1466        46.4851         1.1005          -44.9     -0.8987808        1900.99      0.9315867              1
      3033.5000         2.6337        34.5545         -0.118        45.5941       75.90645         1.1106         1.1414        47.4752         1.0806          -43.2      0.7611084        1900.99      0.9129031              1
      3034.0000         2.6337        36.0396         -0.122        47.3762       77.77644         1.0419         1.0708        48.6139         1.0324          -42.1       1.820995        1900.99      0.9526901              1
      3034.5000         2.6337        37.7723         -0.118        48.8614       79.18861         0.9864         1.0046         50.049         0.9864          -42.3       1.580883        1900.99      0.9827365              1
      3035.0000         2.6337        37.2277         -0.102         49.604        79.4556         0.9336         0.9422         50.049          0.964          -43.3      0.5407677        1900.99      0.9884171              1
      3035.5000         2.6337        36.0396          -0.07        50.6436       80.18061         0.8838         0.8838         49.505         0.9422          -44.3     -0.4993439        1900.99              1              1
      3036.0000         2.7129         34.604         -0.038        52.8713       82.73775         0.8371         0.8295        48.5644         0.9166          -45.6      -1.839455       1881.188              1      0.9795255
      3036.5000         2.7723        32.5743         -0.002        54.0594       83.69177          0.789         0.7963        47.8218         0.9125          -47.6       -3.87957       1881.188              1      0.9297666
      3037.0000         2.9109         30.396           0.03        56.1386       86.01992         0.7818          0.789        47.0792         0.9125          -48.8      -5.119682       1881.188              1      0.8995199
      3037.5000         3.0297        29.7059          0.056        57.4752        87.2029         0.7818          0.789        47.5743         0.9083          -47.7      -4.059799       1881.188              1      0.9253708
      3038.0000         2.9505        29.6078          0.048        57.9208       87.01192            0.8          0.822        48.0693         0.9293          -46.1      -2.499908       1881.188              1      0.9634169
      3038.5000         2.8938        29.9018          0.032        59.5545       88.65309         0.8371         0.8601        47.1709         0.9465       -48.6854      -5.125423       1878.807              1      0.8993799
      3039.0000         2.7997             30          0.016        61.0332       90.05521         0.8879         0.9083        45.0797         0.9596       -50.6506      -7.130737       1874.063              1      0.8504698
      3039.5000         2.7056        28.5697           0.01        59.8515       87.35479         0.9379         0.9596        42.0481         1.0138       -52.8972       -9.41745       1869.344              1      0.7946963
      3040.0000         2.5916        26.5884          0.006        57.7723       83.27039         0.9954         1.0231        37.8462         1.0955       -54.4622      -11.02256       1845.025              1      0.7555472
      3040.5000          2.495        24.3137        -0.0017         59.573       85.16906         1.0284         1.0714        34.0037         1.1844       -55.3399      -11.94038       1843.137              1      0.7331616
      3041.0000         2.3762        21.7647        -0.0052        60.0555       85.03499         1.0342         1.0725        32.9022         1.2633       -55.2281      -11.86869       1843.137              1        0.73491
      3041.5000         2.2574        21.6667        -0.0148        60.0923       84.21359         1.0353          1.026        33.2364         1.2359       -54.3296       -11.0103       1843.137              1      0.7558463
      3042.0000         2.4356        24.1176        -0.0142        62.6319        87.6172         0.9994         0.9995        35.9454         1.1144       -53.3374      -10.05822       1843.137              1      0.7790679
      3042.5000         2.5347        26.2745         -0.018        62.7941       87.86733         0.9509         0.9684        38.6139         1.0045       -51.9608      -8.721729       1843.137              1      0.8116651
      3043.0000         2.8119        29.0196         -0.022        60.4412       84.23899         0.9041         0.9293        42.1782         0.9209       -51.0784      -7.879444       1843.137              1      0.8322087
      3043.5000         3.3663        31.2871         -0.028        57.9208       80.35235          0.864         0.8959        46.5347         0.9166       -50.5882      -7.429356       1843.137              1      0.8431864
      3044.0000         3.4059        32.2772         -0.032        56.4356       78.06205         0.8371          0.864        47.3267         0.9125          -49.3      -6.181267       1823.529       0.958767      0.8736277
      3044.5000         3.4455        31.9802         -0.022        56.2871       77.83307         0.8109         0.8371        46.6337         0.9083            -47      -3.921383       1823.529      0.9538951      0.9287468
      3045.0000         3.4851        31.3861         -0.008        56.4356       78.06205          0.822         0.8295        45.8416         0.9083            -46      -2.961494       1823.529       0.958767      0.9521587
      3045.5000         3.4257        30.6436          0.006        56.8812       78.74921         0.8601         0.8295             45            0.9            -50       -7.00161       1823.529      0.9733874      0.8536193
      3046.0000         3.3465        30.0495           0.02        58.0693       80.58134         0.9041         0.8563         44.901         0.9041          -49.5      -6.541721       1823.529              1       0.864836
      3046.5000         3.2871        29.3627          0.034        58.9604       81.95548         0.9465         0.8838         44.802         0.9166          -46.6      -3.681835       1823.529              1      0.9345894
      3047.0000         3.4059        28.7745          0.036        58.5149       81.26849         0.9909         0.9041         44.802         0.9251          -43.6     -0.7219467       1823.529              1              1
      3047.5000         3.5644        28.6765          0.036        58.3663       81.03934         1.0276         0.9251        44.5545         0.9336          -42.5      0.3379402       1823.529              1              1
