#------------------------------------------------------------------------------
# Created by    : vladimir.rabinovich
# Created on    : 09/19/2023 17:22:40
#------------------------------------------------------------------------------
~Version Information Section
VERS.           2.0     :   CWLS log ASCII Standard - VERSION 2.0
WRAP.           NO      :   One line per depth step
~Well Information Section
#MNEM       .UNIT                                         VALUE :DESCRIPTION
#------------------------------------------------------------------------------
STRT        .FT                                             150 :START DEPTH
STOP        .FT                                            6352 :STOP DEPTH
STEP        .FT                                             0.5 :STEP      
NULL        .                                           -999.25 :NULL      
COMP        .                               PG & E RESOURCES CO :COMPANY   
WELL        .                        STATE OF TEXAS - TRACT /J/ :WELL      
FLD         .                                      PRINGLE LAKE :FIELD     
LOC         .                                                   :LOCATION  
CNTY        .                                           CALHOUN :LOCATION  
STAT        .                                             TEXAS :STATE     
CTRY        .                                     UNITED STATES :COUNTRY   
SRVC        .                                                   :SERVICE COMPANY
DATE        .                             9/13/2023 11:19:11 AM :LOG DATE  
API         .                                    42057314270000 :API NUMBER
UWI         .                                    42057314270000 :UNIQUE WELL ID
XCOORD      .                                  502172.533303084 :SURFACE X 
YCOORD      .                                    10284545.23877 :SURFACE Y 
LAT         .                                        28.2945207 :LATITUDE  
LON         .                                       -96.5369185 :LONGITUDE 
ELEV        .FT                                              17 :ELEVATION VALUE
ELEV_TYPE   .                                                KB :ELEVATION REFERENCE TYPE
~Curve Information Section
#MNEM       .UNIT                                      API CODE :CURVE DESCRIPTION
#------------------------------------------------------------------------------
DEPT        .FT                                                 :DEPTH     
DCAL        .IN                                                 :          
DPHI        .%                                                  :          
DRHO        .G/CC                                               :          
GR          .GAPI                                               :          
GR_NORM     .GAPI                                               :GammaRay Normalized
ILD         .OHMM                                               :          
ILM         .OHMM                                               :          
NPHI        .%                                                  :          
SGRD        .OHMM                                               :          
SP          .MV                                                 :          
SP_NORM     .MV                                                 :SP Normalized
TENS        .LB/F                                               :          
VSH_GR      .V/V                                                :Volume of Shale from GR
VSH_SP      .V/V                                                :Volume of Shale from SP
~A        DEPTH           DCAL           DPHI           DRHO             GR        GR_NORM            ILD            ILM           NPHI           SGRD             SP        SP_NORM           TENS         VSH_GR         VSH_SP
# ...
      6324.0000        -0.1386        23.7624          0.024        -999.25        -999.25         0.6599         0.6569        -999.25         0.7196          -27.7     -0.8439026       2627.451        -999.25              1
      6324.5000        -0.1186        24.0606          0.022        -999.25        -999.25          0.654         0.6569        -999.25         0.7196          -27.7      -1.036022       2628.221        -999.25      0.9993895
      6325.0000        -0.1184        24.2109          0.022        -999.25        -999.25          0.651         0.6569        -999.25         0.7196          -27.4     -0.9281425       2649.447        -999.25              1
      6325.5000        -0.1181        24.3112           0.02        -999.25        -999.25         0.6481         0.6569        -999.25         0.7196          -26.9     -0.6202641       2651.048        -999.25              1
      6326.0000        -0.1571        24.6564           0.02        -999.25        -999.25         0.6451         0.6569        -999.25         0.7196          -26.8     -0.7123833        2632.88        -999.25              1
      6326.5000        -0.1961        24.7549           0.02        -999.25        -999.25          0.651         0.6569        -999.25         0.7196          -26.4     -0.5045052       2633.663        -999.25              1
      6327.0000        -0.2353        24.8529           0.02        -999.25        -999.25         0.6481         0.6569        -999.25         0.7163          -26.2     -0.4966278       2633.663        -999.25              1
      6327.5000        -0.2745        24.7059           0.02        -999.25        -999.25         0.6451          0.654        -999.25          0.713          -25.9     -0.3887482       2633.663        -999.25              1
      6328.0000        -0.3137        24.1667          0.026        -999.25        -999.25         0.6422          0.654        -999.25          0.713          -24.7      0.6191311       2633.663        -999.25              1
      6328.5000        -0.1935        -999.25          0.034        -999.25        -999.25         0.6422          0.654        -999.25         0.7097       -23.7087       1.362612       2613.861        -999.25              1
      6329.0000        -0.0512        -999.25          0.042        -999.25        -999.25         0.6422          0.654        -999.25         0.7065       -22.7281       1.679522       2613.861        -999.25              1
      6329.5000        -0.0266        -999.25          0.064        -999.25        -999.25         0.6451          0.654        -999.25         0.7032       -21.5534       2.190531       2613.861        -999.25              1
      6330.0000         -0.002        -999.25          0.178        -999.25        -999.25         0.6481          0.654        -999.25         0.7032        -20.087        2.99324       2613.861        -999.25              1
      6330.5000         0.0198        -999.25        -999.25        -999.25        -999.25         0.6506         0.6565        -999.25         0.6996          -18.5       3.916548       2615.867        -999.25              1
      6331.0000         0.0198        -999.25        -999.25        -999.25        -999.25         0.6528         0.6618        -999.25         0.6988          -17.9       3.852858       2638.922        -999.25              1
      6331.5000              0        -999.25        -999.25        -999.25        -999.25          0.658          0.667        -999.25         0.7077          -17.7       3.389166       2642.189        -999.25              1
      6332.0000              0        -999.25        -999.25        -999.25        -999.25         0.6693         0.6723        -999.25         0.7134          -17.5       2.925476       2625.808        -999.25              1
      6332.5000        -0.0198        -999.25        -999.25        -999.25        -999.25         0.6812         0.6843        -999.25         0.7229          -17.3       2.461786       2647.059        -999.25              1
      6333.0000        -0.0396        -999.25        -999.25        -999.25        -999.25         0.6905            0.7        -999.25          0.733          -17.2       1.898094       2647.059        -999.25              1
      6333.5000        -0.0396        -999.25        -999.25        -999.25        -999.25         0.7032         0.7163        -999.25         0.7432            -17       1.434404       2647.059        -999.25              1
      6334.0000        -0.0396        -999.25        -999.25        -999.25        -999.25         0.7229         0.7466        -999.25          0.757          -16.8      0.9707127       2647.059        -999.25              1
      6334.5000        -0.0396        -999.25        -999.25        -999.25        -999.25         0.7432         0.7818        -999.25         0.7675          -16.7      0.4070206       2627.451        -999.25              1
      6335.0000        -0.0396        -999.25        -999.25        -999.25        -999.25          0.764         0.8109        -999.25         0.7818          -16.5    -0.05666924       2627.451        -999.25              1
      6335.5000        -0.0396        -999.25        -999.25        -999.25        -999.25         0.7854         0.8333        -999.25         0.7963          -16.4     -0.6203594       2647.059        -999.25              1
      6336.0000        -0.0396        -999.25        -999.25        -999.25        -999.25            0.8         0.8601        -999.25         0.8109          -16.2     -0.6311378       2647.059        -999.25              1
      6336.5000        -0.0396        -999.25        -999.25        -999.25        -999.25         0.8109         0.8838        -999.25          0.822            -16     -0.4311371       2647.059        -999.25              1
      6337.0000        -0.0396        -999.25        -999.25        -999.25        -999.25         0.8258         0.9125        -999.25         0.8371          -16.2     -0.6311378       2627.451        -999.25              1
      6337.5000        -0.0396        -999.25        -999.25        -999.25        -999.25         0.8333         0.9379        -999.25         0.8485          -16.2     -0.6311378       2627.451        -999.25              1
      6338.0000        -0.0396        -999.25        -999.25        -999.25        -999.25         0.8333         0.9336        -999.25         0.8524          -16.2     -0.6311378       2627.451        -999.25              1
      6338.5000        -0.0396        -999.25        -999.25        -999.25        -999.25         0.8333         0.9125        -999.25         0.8601          -16.2     -0.6311378       2607.843        -999.25              1
      6339.0000        -0.0396        -999.25        -999.25        -999.25        -999.25         0.8333         0.8959        -999.25         0.8524          -16.4     -0.8311367       2607.843        -999.25              1
      6339.5000        -0.0198        -999.25        -999.25        -999.25        -999.25         0.8333         0.8959        -999.25         0.8447          -16.4     -0.8311367       2647.059        -999.25              1
      6340.0000         0.0198        -999.25        -999.25        -999.25        -999.25         0.8333         0.8959        -999.25         0.8295          -16.3     -0.7311363       2647.059        -999.25              1
      6340.5000         0.0198        -999.25        -999.25        -999.25        -999.25         0.8333         0.8959        -999.25         0.8109          -16.1     -0.5311375       2647.059        -999.25              1
      6341.0000              0        -999.25        -999.25        -999.25        -999.25         0.8333         0.8959        -999.25            0.8            -16     -0.4311371       2647.059        -999.25              1
      6341.5000              0        -999.25        -999.25        -999.25        -999.25         0.8333         0.8959        -999.25         0.7854            -16     -0.4311371       2647.059        -999.25              1
