#------------------------------------------------------------------------------
# Created by    : vladimir.rabinovich
# Created on    : 09/19/2023 17:22:40
#------------------------------------------------------------------------------
~Version Information Section
VERS.           2.0     :   CWLS log ASCII Standard - VERSION 2.0
WRAP.           NO      :   One line per depth step
~Well Information Section
#MNEM       .UNIT                                         VALUE :DESCRIPTION
#------------------------------------------------------------------------------
STRT        .FT                                             150 :START DEPTH
STOP        .FT                                            6352 :STOP DEPTH
STEP        .FT                                             0.5 :STEP      
NULL        .                                           -999.25 :NULL      
COMP        .                               PG & E RESOURCES CO :COMPANY   
WELL        .                        STATE OF TEXAS - TRACT /J/ :WELL      
FLD         .                                      PRINGLE LAKE :FIELD     
LOC         .                                                   :LOCATION  
CNTY        .                                           CALHOUN :LOCATION  
STAT        .                                             TEXAS :STATE     
CTRY        .                                     UNITED STATES :COUNTRY   
SRVC        .                                                   :SERVICE COMPANY
DATE        .                             9/13/2023 11:19:11 AM :LOG DATE  
API         .                                    42057314270000 :API NUMBER
UWI         .                                    42057314270000 :UNIQUE WELL ID
XCOORD      .                                  502172.533303084 :SURFACE X 
YCOORD      .                                    10284545.23877 :SURFACE Y 
LAT         .                                        28.2945207 :LATITUDE  
LON         .                                       -96.5369185 :LONGITUDE 
ELEV        .FT                                              17 :ELEVATION VALUE
ELEV_TYPE   .                                                KB :ELEVATION REFERENCE TYPE
~Curve Information Section
#MNEM       .UNIT                                      API CODE :CURVE DESCRIPTION
#------------------------------------------------------------------------------
DEPT        .FT                                                 :DEPTH     
DCAL        .IN                                                 :          
DPHI        .%                                                  :          
DRHO        .G/CC                                               :          
GR          .GAPI                                               :          
GR_NORM     .GAPI                                               :GammaRay Normalized
ILD         .OHMM                                               :          
ILM         .OHMM                                               :          
NPHI        .%                                                  :          
SGRD        .OHMM                                               :          
SP          .MV                                                 :          
SP_NORM     .MV                                                 :SP Normalized
TENS        .LB/F                                               :          
VSH_GR      .V/V                                                :Volume of Shale from GR
VSH_SP      .V/V                                                :Volume of Shale from SP
~A        DEPTH           DCAL           DPHI           DRHO             GR        GR_NORM            ILD            ILM           NPHI           SGRD             SP        SP_NORM           TENS         VSH_GR         VSH_SP
# ...
      1788.0000          -2.78          30.66           0.01           46.2       48.95472         0.9379         0.9729        48.8911         1.0518          -28.3        1.66704       1735.294      0.3394621              1
      1788.5000          -2.68        30.3682          0.016        45.2996       47.38205         0.9336         0.9596        49.1881         1.0566          -28.9       1.056175       1716.564      0.3060011              1
      1789.0000          -2.68        30.2026          0.026             45       46.85792         0.9166         0.9422        48.8911         1.0518          -29.2      0.7453117       1708.487      0.2948493              1
      1789.5000          -2.68        30.3359          0.034        45.5963        47.8973         0.8919         0.9293        49.1287          1.047          -29.4      0.5344486       1720.099      0.3169639              1
      1790.0000          -2.68        30.8254          0.044        46.9331       50.22905          0.864         0.9083        49.4851         1.0374          -29.2      0.7235832       1721.879      0.3665754              1
      1790.5000        -2.6817        31.4275           0.05        48.2528       52.53094         0.8366         0.8954        49.9655         1.0226            -29      0.9127197       1713.226      0.4155518              1
      1791.0000        -2.6851        31.5504          0.056        50.6087       56.64122         0.8244         0.8744        50.9226         0.9936          -28.3       1.601856       1723.798      0.5030047              1
      1791.5000        -2.6884        32.0924          0.054        55.2179       64.68399         0.8123         0.8538        51.9929         0.9613          -26.8       3.090992       1724.477      0.6741275              1
      1792.0000        -2.7116        33.3561          0.042        59.2509       71.72117         0.7968         0.8414        52.5279         0.9384          -25.4       4.480127       1754.601      0.8238546              1
      1792.5000        -2.7921          34.86          0.028           62.1        76.6922         0.7818         0.8183        53.1765         0.9166          -24.6       5.269264       1754.902      0.9296213              1
      1793.0000        -2.9109          35.76          0.016          62.55       77.47629         0.7675         0.8109             54            0.9          -24.5         5.3584       1764.706       0.946304              1
      1793.5000        -2.9703        36.1765           0.02          60.75       74.33361         0.7535         0.8109        54.7129         0.8838          -25.4       4.447536       1745.098      0.8794385              1
      1794.0000        -2.9703        36.3529          0.024           60.9       74.59412         0.7535         0.8109        55.5446         0.8879          -26.6       3.236671        1725.49      0.8849813              1
      1794.5000        -2.8129        36.4123          0.028           62.7       77.73423          0.757         0.8183         56.146         0.8879          -28.1       1.725807       1715.686      0.9517921              1
      1795.0000        -2.5764        36.7675          0.034          62.25       76.94762         0.7782          0.822        56.1609         0.8879          -29.4      0.4149437       1715.686      0.9350557              1
      1795.5000        -2.4583        36.4735          0.038          61.95       76.42278         0.7818         0.8295        55.1064         0.8959          -30.7     -0.8959217       1754.902       0.923889              1
      1796.0000        -2.4594          35.76          0.044           60.3       73.54192         0.7782         0.8371        52.3906         0.9166          -32.2      -2.406784       1764.706      0.8625939       0.985472
      1796.5000          -2.46          34.32          0.048           56.1       66.21072         0.7746         0.8485        50.2574         0.9552          -34.1      -4.317646       1764.706       0.706611      0.9172269
      1797.0000          -2.56          32.22          0.054             51       57.30884         0.7746         0.8919        48.1188         1.0329          -36.6       -6.82851       1735.294      0.5172094      0.8275532
      1797.5000           -2.7          30.54          0.058          46.95       50.23946         0.7711            0.9        46.5882         1.1019          -38.5      -8.739376       1735.294      0.3667969       0.759308
      1798.0000          -2.74          30.18          0.062        43.3663       43.98384         0.7675         0.8719        47.1765         1.1434          -39.2      -9.450241       1715.686      0.2336987        0.73392
      1798.5000        -2.7616         30.367           0.07        42.7694       42.94085          0.764         0.8447         49.196         1.1018       -39.2125      -9.473606       1706.771      0.2115075      0.7330855
      1799.0000        -2.8644        31.0984          0.074        44.1055       45.27135         0.7466         0.8146        50.3995         1.0046       -38.7375      -9.009468       1728.236      0.2610927      0.7496619
      1799.5000        -2.9468         32.005          0.082        47.2357       50.73296         0.7296            0.8        52.4939         0.9422       -37.4625      -7.745333       1730.078       0.377297      0.7948095
      1800.0000        -3.0287         33.026          0.086        49.7573       55.13243         0.7163            0.8        53.5188         0.9251       -36.2875      -6.581194       1761.603      0.4709029      0.8363859
      1800.5000        -3.1089        33.4455           0.08        51.0891       57.45543         0.7097         0.7927        54.1188         0.9251          -36.1      -6.404558       1782.493      0.5203283      0.8426943
      1801.0000        -3.1089        33.2079           0.08        54.0594       62.63798         0.7032         0.7927        54.1188         0.9293          -36.7      -7.015425        1792.88      0.6305953      0.8208777
      1801.5000        -3.0891        33.0297           0.08        54.3564       63.15504         0.6935         0.7746        54.3564         0.9336          -37.4       -7.72629       1734.341      0.6415966      0.7954897
      1802.0000        -3.0693        33.0297          0.078        55.9901       66.00491         0.6838         0.7605        54.1782         0.9251          -37.1      -7.437151       1725.162      0.7022322      0.8058161
      1802.5000        -3.0099        33.5644          0.072        57.9208       69.37312         0.6775         0.7432        52.5743         0.8798            -36      -6.348017       1735.294      0.7738962      0.8447137
      1803.0000        -2.9505        34.8713          0.064        58.9604        71.1862         0.6681         0.7263        52.5743         0.8333          -35.1      -5.458878       1754.902      0.8124722      0.8764687
      1803.5000        -2.8515        36.1188          0.058        59.1089       71.44408         0.6618         0.7097        53.9406         0.8183          -34.4      -4.769745       1754.902      0.8179592      0.9010805
      1804.0000        -2.7525        37.0693          0.052        58.2178       69.88765         0.6526         0.7065        53.9406            0.8            -34      -4.380608       1754.902      0.7848436      0.9149783
      1804.5000        -2.7129        37.4851          0.046        57.6238       68.84972         0.6376         0.6935        55.4851         0.8073            -34      -4.391472        1725.49      0.7627601      0.9145903
      1805.0000        -2.6733        37.4851          0.042        57.3267       68.32996         0.6199          0.687         55.604          0.822          -33.8      -4.202335       1715.686      0.7517014      0.9213452
      1805.5000        -2.6535        36.7723          0.042        57.1782        68.0695         0.6113         0.6807        54.8317         0.8371          -33.7      -4.113201       1715.686      0.7461595      0.9245285
