#------------------------------------------------------------------------------
# Created by    : vladimir.rabinovich
# Created on    : 09/19/2023 17:22:40
#------------------------------------------------------------------------------
~Version Information Section
VERS.           2.0     :   CWLS log ASCII Standard - VERSION 2.0
WRAP.           NO      :   One line per depth step
~Well Information Section
#MNEM       .UNIT                                         VALUE :DESCRIPTION
#------------------------------------------------------------------------------
STRT        .FT                                             150 :START DEPTH
STOP        .FT                                            6352 :STOP DEPTH
STEP        .FT                                             0.5 :STEP      
NULL        .                                           -999.25 :NULL      
COMP        .                               PG & E RESOURCES CO :COMPANY   
WELL        .                        STATE OF TEXAS - TRACT /J/ :WELL      
FLD         .                                      PRINGLE LAKE :FIELD     
LOC         .                                                   :LOCATION  
CNTY        .                                           CALHOUN :LOCATION  
STAT        .                                             TEXAS :STATE     
CTRY        .                                     UNITED STATES :COUNTRY   
SRVC        .                                                   :SERVICE COMPANY
DATE        .                             9/13/2023 11:19:11 AM :LOG DATE  
API         .                                    42057314270000 :API NUMBER
UWI         .                                    42057314270000 :UNIQUE WELL ID
XCOORD      .                                  502172.533303084 :SURFACE X 
YCOORD      .                                    10284545.23877 :SURFACE Y 
LAT         .                                        28.2945207 :LATITUDE  
LON         .                                       -96.5369185 :LONGITUDE 
ELEV        .FT                                              17 :ELEVATION VALUE
ELEV_TYPE   .                                                KB :ELEVATION REFERENCE TYPE
~Curve Information Section
#MNEM       .UNIT                                      API CODE :CURVE DESCRIPTION
#------------------------------------------------------------------------------
DEPT        .FT                                                 :DEPTH     
DCAL        .IN                                                 :          
DPHI        .%                                                  :          
DRHO        .G/CC                                               :          
GR          .GAPI                                               :          
GR_NORM     .GAPI                                               :GammaRay Normalized
ILD         .OHMM                                               :          
ILM         .OHMM                                               :          
NPHI        .%                                                  :          
SGRD        .OHMM                                               :          
SP          .MV                                                 :          
SP_NORM     .MV                                                 :SP Normalized
TENS        .LB/F                                               :          
VSH_GR      .V/V                                                :Volume of Shale from GR
VSH_SP      .V/V                                                :Volume of Shale from SP
~A        DEPTH           DCAL           DPHI           DRHO             GR        GR_NORM            ILD            ILM           NPHI           SGRD             SP        SP_NORM           TENS         VSH_GR         VSH_SP
# ...
      3444.0000         1.0099        33.5644         -0.034        55.2475        74.5517         0.4649         0.5916        41.1386         0.8959       -68.9109      -17.41389       1960.784      0.8840788       0.579131
      3444.5000         1.0495        32.9703         -0.038        56.2871       76.44326         0.4586         0.5726        41.0396         0.8959       -63.7624       -12.2654       1960.784      0.9243247      0.7111437
      3445.0000         1.0693        31.8317          -0.03        57.1782       78.06458         0.4649         0.5516        39.6078         0.8959       -59.0196      -7.522594       1960.784      0.9588208       0.832754
      3445.5000         1.0099         30.297         -0.022        58.0693       79.68593         0.4756         0.5464        38.1863         0.8759       -53.7255      -2.228493       1960.784      0.9933176      0.9685002
      3446.0000         0.9703        29.1584         -0.014        59.4059       82.11784         0.4887         0.5594         37.451         0.8333       -54.1176      -2.620594       1960.784              1      0.9584463
      3446.5000         0.9307        29.3069         -0.006        62.2059       87.21239         0.5023         0.5726        37.3039          0.822       -53.8235      -2.326496       1960.784              1      0.9659873
      3447.0000         0.9109        29.9505         -0.002        65.5882       93.36642         0.5264         0.5889         37.402         0.8258       -53.8235      -2.326496       1960.784              1      0.9659873
      3447.5000         0.8911        30.6931          0.002        63.8235       90.15559         0.5542         0.6082         37.549         0.8409       -57.7451      -6.248093       1960.784              1      0.8654335
      3448.0000         0.9307        30.8416          0.002        59.8515        82.9286         0.5753          0.625           37.5         0.8759        -60.297      -8.799995       1980.392              1      0.8000001
      3448.5000          0.953         30.445              0        61.4724       85.87778            0.6         0.6422        37.3006          0.864       -56.3681      -4.871094       1980.392              1      0.9007412
      3449.0000         0.9579        29.8515              0        67.3801       96.62674         0.5916         0.6599        37.3431         0.8719       -53.7023      -2.205296       1980.392              1       0.969095
      3449.5000         1.0619        28.3663         -0.002        66.6584       95.31364         0.5568         0.6781        37.0405         0.8798       -54.3773      -2.880295       1980.392              1      0.9517873
      3450.0000         1.0866        26.7822         -0.002        57.7723       79.14554         0.5191         0.6629        36.1926         0.8838       -62.4752       -10.9782       1980.392        0.98182      0.7441489
      3450.5000         1.1287         28.658        -0.0116        55.5446       75.09231         0.4843         0.6335        36.8293         0.8838       -68.6139      -17.11689       1977.523       0.895581      0.5867463
      3451.0000         1.1881        30.4236        -0.0151        53.6139       71.57941         0.4482         0.6027        36.9234         0.8879          -75.8        -24.303        1972.74      0.8208386      0.4024872
      3451.5000         1.2673        32.7308        -0.0207        51.8317       68.33672         0.4381         0.5753        36.9188         0.8959          -79.7      -28.20299       1967.958      0.7518452      0.3024874
      3452.0000         1.4455        34.6044        -0.0262        51.6832       68.06653         0.4342         0.5464        36.2761         0.9251            -79      -27.50299       1982.783      0.7460964       0.320436
      3452.5000         1.3663        35.3922          -0.03        52.2772        69.1473         0.4442         0.5215        36.6667         0.9251          -71.3        -19.803       1980.392      0.7690915      0.5178719
      3453.0000         1.1089        33.1683         -0.026        54.6535       73.47093         0.4586         0.5313        36.9608         0.8959       -63.6634      -12.16639       1980.392      0.8610837      0.7136822
      3453.5000         1.0495        31.2376          -0.02        57.0297       77.79439         0.4777         0.5594        37.3529         0.8798       -58.0198      -6.522793       1980.392      0.9530721      0.8583899
      3454.0000         0.9901        29.5098         -0.016        59.5545       82.38821         0.5023         0.5861        37.9412         0.8563       -54.1584      -2.661396       1980.392              1      0.9574001
      3454.5000         1.0297        28.5294          -0.01        62.5248       87.79263         0.5264         0.6165        38.7255          0.864       -54.1584      -2.661396       1980.392              1      0.9574001
      3455.0000         1.0495        28.8235          -0.01        63.2673       89.14358         0.5516          0.651        39.4608         0.8759       -54.1584      -2.661396       1960.784              1      0.9574001
      3455.5000         1.0693        29.3137         -0.018        62.3762       87.52225          0.562          0.669        39.7059         0.8563       -54.5545      -3.057495       1960.784              1      0.9472437
      3456.0000         1.0891        29.6569         -0.032        61.3366       85.63072         0.5646         0.6629        39.3137         0.8333       -57.6238      -6.126793       1960.784              1      0.8685437
      3456.5000         1.0693         30.297          -0.04        59.8515        82.9286          0.562          0.654        38.7745         0.8563       -61.6832       -10.1862       1960.784              1      0.7644565
      3457.0000         1.0297        30.9406         -0.046        59.8515        82.9286         0.5568         0.6481        38.2843         0.8719       -63.4653       -11.9683       1960.784              1      0.7187616
      3457.5000         1.0297        30.7921          -0.05         60.297       83.73919         0.5516         0.6481        37.7941         0.8879       -57.1287      -5.631695       1960.784              1      0.8812386
      3458.0000         1.0693         30.198         -0.044         60.297       83.73919         0.5568         0.6481         37.451         0.8879       -51.8812     -0.3841934       1941.177              1              1
      3458.5000         1.1683        29.3619         -0.036             60       83.19881         0.5647         0.6569        37.2059         0.8879       -51.2871      0.2099037       1941.177              1              1
      3459.0000         1.1683        28.3763         -0.026        60.1485       83.46899         0.5782         0.6659        36.9608         0.8838       -52.4752     -0.9781952       1941.177              1              1
      3459.5000         1.1881        27.9284         -0.018             60       83.19881         0.5891         0.6781        37.1078         0.8959       -53.9604      -2.463394       1941.177              1      0.9624771
      3460.0000         1.2277        28.3683         -0.014        59.8515        82.9286            0.6         0.6905         37.402         0.8919       -58.3168      -6.819794       1941.177              1      0.8507745
      3460.5000         1.2871        29.3069        -0.0137        58.8119       81.03707         0.6114         0.7037        37.6471         0.8925       -63.2673      -11.77029       1938.375              1      0.7238386
      3461.0000         1.3465        29.7525        -0.0132        57.7723       79.14554         0.6204         0.7045         37.402         0.8975       -66.7327      -15.23569       1914.099        0.98182      0.6349823
      3461.5000         1.3861         29.901        -0.0167        56.8812        77.5242         0.6325          0.702        36.6667         0.9151       -66.9307       -15.4337       1908.964      0.9473234      0.6299052
