#------------------------------------------------------------------------------
# Created by    : vladimir.rabinovich
# Created on    : 09/19/2023 17:22:40
#------------------------------------------------------------------------------
~Version Information Section
VERS.           2.0     :   CWLS log ASCII Standard - VERSION 2.0
WRAP.           NO      :   One line per depth step
~Well Information Section
#MNEM       .UNIT                                         VALUE :DESCRIPTION
#------------------------------------------------------------------------------
STRT        .FT                                             150 :START DEPTH
STOP        .FT                                            6352 :STOP DEPTH
STEP        .FT                                             0.5 :STEP      
NULL        .                                           -999.25 :NULL      
COMP        .                               PG & E RESOURCES CO :COMPANY   
WELL        .                        STATE OF TEXAS - TRACT /J/ :WELL      
FLD         .                                      PRINGLE LAKE :FIELD     
LOC         .                                                   :LOCATION  
CNTY        .                                           CALHOUN :LOCATION  
STAT        .                                             TEXAS :STATE     
CTRY        .                                     UNITED STATES :COUNTRY   
SRVC        .                                                   :SERVICE COMPANY
DATE        .                             9/13/2023 11:19:11 AM :LOG DATE  
API         .                                    42057314270000 :API NUMBER
UWI         .                                    42057314270000 :UNIQUE WELL ID
XCOORD      .                                  502172.533303084 :SURFACE X 
YCOORD      .                                    10284545.23877 :SURFACE Y 
LAT         .                                        28.2945207 :LATITUDE  
LON         .                                       -96.5369185 :LONGITUDE 
ELEV        .FT                                              17 :ELEVATION VALUE
ELEV_TYPE   .                                                KB :ELEVATION REFERENCE TYPE
~Curve Information Section
#MNEM       .UNIT                                      API CODE :CURVE DESCRIPTION
#------------------------------------------------------------------------------
DEPT        .FT                                                 :DEPTH     
DCAL        .IN                                                 :          
DPHI        .%                                                  :          
DRHO        .G/CC                                               :          
GR          .GAPI                                               :          
GR_NORM     .GAPI                                               :GammaRay Normalized
ILD         .OHMM                                               :          
ILM         .OHMM                                               :          
NPHI        .%                                                  :          
SGRD        .OHMM                                               :          
SP          .MV                                                 :          
SP_NORM     .MV                                                 :SP Normalized
TENS        .LB/F                                               :          
VSH_GR      .V/V                                                :Volume of Shale from GR
VSH_SP      .V/V                                                :Volume of Shale from SP
~A        DEPTH           DCAL           DPHI           DRHO             GR        GR_NORM            ILD            ILM           NPHI           SGRD             SP        SP_NORM           TENS         VSH_GR         VSH_SP
       150.0000        -2.4158        21.8614        -999.25        36.6759       47.43304        -999.25         0.3857        53.5248         0.2787       -69.7069      -13.41948       1168.317      0.3070859              0
       150.5000        -2.5149        13.1765        -999.25        36.9893       47.86007        -999.25            0.4        53.1683         0.3227         -66.99      -10.70257       1168.317      0.3161717              0
       151.0000        -2.5545        24.7723        -999.25        38.3498       49.71385        -999.25         0.4094        52.5149         0.4309       -63.4867      -7.199272       1168.317      0.3556138              0
       151.5000        -2.5743         28.396        -999.25        40.7613        52.9997        -999.25         0.4451        51.9802         0.5892       -60.3974      -4.109974       1168.317      0.4255256      0.6828646
       152.0000        -2.5743        32.2377           0.02        42.4351       55.28038        -999.25         0.6659        51.6832         0.6781       -57.8218      -1.534374       1178.218      0.4740506              1
       152.5000        -2.4554        35.2353          0.018           44.1       57.54893         9.6844         0.7364        51.3267         0.7196       -57.0297     -0.7422752       1178.218      0.5223177              1
       153.0000         -2.198        38.2574          0.016           44.1       57.54893         0.6393          0.713        51.1485         0.7466       -56.8317     -0.5442734       1168.317      0.5223177              1
       153.5000           -1.9        37.4851           0.02           43.8       57.14016         0.4642         0.6222        50.9109         0.7711       -57.3267      -1.039272       1178.218      0.5136204              1
       154.0000           -1.4        37.1287          0.026           43.5       56.73139          0.419         0.5578        51.3861         0.7605       -58.0198      -1.732372       1178.218      0.5049232              1
       154.5000          -0.78        37.2475          0.036          41.25       53.66559         0.4472         0.5578        52.4554          0.757        -59.505      -3.217575       1188.119      0.4396935      0.9378357
       155.0000          -0.36        41.5248          0.052             39        50.5998          0.484         0.5681        53.9406         0.7711       -60.6931      -4.405674       1188.119      0.3744637      0.5983788
       155.5000          -0.06          46.38           0.05           37.8       48.96471         0.5092         0.5812        55.1287         0.7927       -61.5842      -5.296776       1178.218      0.3396746      0.3437783
       156.0000          -0.06        48.1782          0.048           36.9        47.7384         0.5069         0.5865        55.1881         0.8191       -61.7822      -5.494774       1168.317      0.3135829      0.2872075
       156.5000          -0.46        48.8911          0.054           35.1       45.28575         0.5023         0.5919        54.7129         0.8076       -62.0792      -5.791775       1168.317       0.261399      0.2023501
       157.0000         0.0792             60           0.06          34.35       44.26381         0.4931         0.5865        54.7129          0.764       -63.1683      -6.880875       1168.317      0.2396556              0
       157.5000          1.505        60.9505          0.002          34.65       44.67259         0.4862         0.5812        56.0198         0.7263       -64.5545      -8.267071       1168.317       0.248353              0
       158.0000          3.703         65.703          0.016           35.4       45.69453         0.4862         0.5785             60         0.6968       -64.8515      -8.564075       1168.317      0.2700964              0
       158.5000         3.6238        67.3646          0.038           34.8       44.87698          0.484         0.5892        61.1881         0.7135       -63.8614      -7.573975       1177.995      0.2527016              0
       159.0000         2.2376        68.3077          0.046          34.35       44.26381         0.4819         0.5973        63.5644         0.7548       -63.0693      -6.781876       1177.524      0.2396556              0
       159.5000         1.2079        69.9557          0.052          34.05       43.85505         0.4864            0.6             66         0.7769       -62.2772      -5.989773       1177.098      0.2309585      0.1457792
       160.0000         0.6931        74.9146          0.038          33.45        43.0375         0.4977            0.6        68.3555         0.7706       -61.9802      -5.692776       1176.674      0.2135639      0.2306355
       160.5000         0.5743        79.0588         0.0143          31.35       40.17609         0.5095          0.606        69.8824          0.764       -62.1782      -5.890774       1176.471      0.1526828      0.1740646
       161.0000         0.7525        82.1176        -0.0132           32.1       41.19802         0.5219         0.6237        68.5882         0.7782       -62.2772      -5.989773       1166.667      0.1744261      0.1457792
       161.5000         1.2277        79.7647        -0.0227           35.1       45.28575         0.5296         0.6387        63.9802         0.7782       -62.3762      -6.088776       1166.667       0.261399      0.1174927
       162.0000         1.8218        75.3267        -0.0082           38.4       49.78225         0.5351         0.6479        59.7624         0.7963       -62.4752      -6.187775       1166.667      0.3570692     0.08920724
       162.5000         2.7921        66.8235          0.036          40.65       52.84805         0.5354         0.6569        54.8317         0.8268       -62.1782      -5.890774       1176.471       0.422299      0.1740646
       163.0000         3.3069        59.5842          0.088          42.75       55.70945         0.5378         0.6599         52.099         0.8545       -61.4851      -5.197674       1176.471      0.4831799      0.3720932
       163.5000         2.0396         58.099          0.098           43.8       57.14016         0.5428         0.6659        53.1089         0.8667       -60.6931      -4.405674       1176.471      0.5136204      0.5983788
       164.0000         0.7129        57.6832          0.116           43.8       57.14016         0.5502          0.669        56.4356         0.8749        -60.297      -4.009575       1186.275      0.5136204      0.7115501
       164.5000        -1.4455         56.198          0.166           44.7       58.36649         0.5527          0.672        60.1188         0.8749            -60      -3.712574       1186.275      0.5397125      0.7964074
       165.0000          -2.48        54.4158          0.196        46.4851       60.79881         0.5578         0.6781        60.7723         0.8708          -59.7      -3.412575       1176.471      0.5914641      0.8821215
       165.5000           -2.7        55.5446          0.192        48.2673       63.22719         0.5603         0.6781        64.0396         0.8667          -59.5      -3.212574       1196.078      0.6431317      0.9392646
       166.0000          -2.84        59.6436          0.142        48.7129       63.83435         0.5603         0.6781        66.4118         0.8626          -59.4      -3.112576       1186.275        0.65605      0.9678355
       166.5000          -2.86        62.8515          0.066        48.7129       63.83435         0.5707         0.6751        64.1584         0.8307          -59.1      -2.812572       1176.471        0.65605              1
       167.0000           -2.9        61.5446          0.036        48.2673       63.22719         0.5812         0.6751        61.1881         0.8191          -58.6      -2.312572       1186.275      0.6431317              1
       167.5000          -2.92        54.4752           0.03        46.6337        61.0013         0.5919          0.672        58.1584         0.8076          -58.1      -1.812572       1196.078      0.5957724              1
