#------------------------------------------------------------------------------
# Created by    : vladimir.rabinovich
# Created on    : 09/19/2023 17:22:40
#------------------------------------------------------------------------------
~Version Information Section
VERS.           2.0     :   CWLS log ASCII Standard - VERSION 2.0
WRAP.           NO      :   One line per depth step
~Well Information Section
#MNEM       .UNIT                                         VALUE :DESCRIPTION
#------------------------------------------------------------------------------
STRT        .FT                                             150 :START DEPTH
STOP        .FT                                            6352 :STOP DEPTH
STEP        .FT                                             0.5 :STEP      
NULL        .                                           -999.25 :NULL      
COMP        .                               PG & E RESOURCES CO :COMPANY   
WELL        .                        STATE OF TEXAS - TRACT /J/ :WELL      
FLD         .                                      PRINGLE LAKE :FIELD     
LOC         .                                                   :LOCATION  
CNTY        .                                           CALHOUN :LOCATION  
STAT        .                                             TEXAS :STATE     
CTRY        .                                     UNITED STATES :COUNTRY   
SRVC        .                                                   :SERVICE COMPANY
DATE        .                             9/13/2023 11:19:11 AM :LOG DATE  
API         .                                    42057314270000 :API NUMBER
UWI         .                                    42057314270000 :UNIQUE WELL ID
XCOORD      .                                  502172.533303084 :SURFACE X 
YCOORD      .                                    10284545.23877 :SURFACE Y 
LAT         .                                        28.2945207 :LATITUDE  
LON         .                                       -96.5369185 :LONGITUDE 
ELEV        .FT                                              17 :ELEVATION VALUE
ELEV_TYPE   .                                                KB :ELEVATION REFERENCE TYPE
~Curve Information Section
#MNEM       .UNIT                                      API CODE :CURVE DESCRIPTION
#------------------------------------------------------------------------------
DEPT        .FT                                                 :DEPTH     
DCAL        .IN                                                 :          
DPHI        .%                                                  :          
DRHO        .G/CC                                               :          
GR          .GAPI                                               :          
GR_NORM     .GAPI                                               :GammaRay Normalized
ILD         .OHMM                                               :          
ILM         .OHMM                                               :          
NPHI        .%                                                  :          
SGRD        .OHMM                                               :          
SP          .MV                                                 :          
SP_NORM     .MV                                                 :SP Normalized
TENS        .LB/F                                               :          
VSH_GR      .V/V                                                :Volume of Shale from GR
VSH_SP      .V/V                                                :Volume of Shale from SP
~A        DEPTH           DCAL           DPHI           DRHO             GR        GR_NORM            ILD            ILM           NPHI           SGRD             SP        SP_NORM           TENS         VSH_GR         VSH_SP
# ...
      5910.0000          0.042         22.396         0.0322        81.6102       87.57475         1.0277         1.0757        32.4231         0.9684        -32.071      -4.447836       2568.627              1      0.9415621
      5910.5000         0.0396        21.8137          0.032          81.75       87.78911         1.0806         1.1157        31.6832         0.9954       -32.4752      -4.849184       2588.235              1      0.9347596
      5911.0000          0.099        21.3235          0.032             81       86.63132         1.1362         1.1571        31.1881         1.0184       -33.0693      -5.440432       2568.627              1      0.9247385
      5911.5000          0.099        20.9804          0.034           79.2       83.85433         1.1784         1.2001        30.5941         1.0467       -33.6634      -6.031675       2568.627              1      0.9147174
      5912.0000          0.099        20.4412          0.038          77.55       81.30868         1.2056         1.2447         30.099         1.0514       -33.9604      -6.325823       2568.627              1      0.9097318
      5912.5000          0.099        20.1961          0.038          75.15       77.60648         1.2334         1.2851        29.8515         1.0708       -34.3564      -6.718969       2607.843      0.9490741      0.9030683
      5913.0000          0.099        19.8529          0.042        72.1782       73.02251         1.2618         1.3147        29.4059         1.0806       -34.9505      -7.310215       2588.235      0.8515427      0.8930472
      5913.5000          0.099        19.7549           0.04         70.396         70.273         1.2909         1.3207        29.1089         1.0855       -35.8416       -8.19846       2607.843      0.7930426      0.8779922
      5914.0000          0.099        19.7549           0.04        69.9505       69.58476         1.3207         1.3389        28.8119         1.0955       -36.9307      -9.284706       2568.627      0.7783992      0.8595812
      5914.5000          0.099        20.3922          0.038        68.3168       67.06425          1.345         1.3512        28.5644         1.1005       -38.1188      -10.46996       2568.627      0.7247712      0.8394923
      5915.0000          0.099        20.8824          0.034        64.7525        61.5666          1.345          1.376        28.5644         1.1005        -39.802       -12.1503       2607.843      0.6077999      0.8110119
      5915.5000          0.099        22.1569          0.024        61.1881       56.06878         1.3328          1.395        28.5149         1.0905          -41.5      -13.84545       2588.235      0.4908251      0.7822806
      5916.0000          0.099        23.6275          0.014        58.6634       52.17428         1.3028          1.395        28.4653         1.1005          -44.8      -17.14259       2568.627      0.4079634      0.7263967
      5916.5000          0.099        24.7549          0.004        59.4059       53.31804         1.2561         1.3636        28.5644         1.1362          -47.9      -20.23974        2549.02      0.4322986      0.6739027
      5917.0000          0.099        25.5446         -0.002        61.1881       56.06508         1.2111         1.3028        28.8614         1.1466       -51.0891      -23.42599       2568.627      0.4907464      0.6198985
      5917.5000          0.099        26.3861         -0.002        63.4158       59.49912          1.173         1.2278        29.2079          1.131       -53.2673      -25.60133       2588.235      0.5638111      0.5830283
      5918.0000         0.0792        27.0792         -0.002         64.901       61.78818          1.131         1.1677        29.6535         1.0855       -54.7525      -27.08368       2568.627      0.6125144      0.5579038
      5918.5000         0.0792        27.6733              0        65.9406       63.39007         1.0949         1.1253         29.802         1.0461       -55.2475      -27.57583       2588.235      0.6465972      0.5495623
      5919.0000         0.0792        28.1188          0.006        66.2376       63.84684          1.045         1.0839        29.9505         1.0214       -55.7426      -28.06807        2549.02      0.6563158      0.5412191
      5919.5000         0.0792        28.6139          0.006        64.4554       61.09731         1.0202         1.0828         29.901         1.0487       -56.5347      -28.85732        2549.02      0.5978151      0.5278421
      5920.0000         0.0792        29.3564          0.008        62.0792       57.43181         1.0006         1.1068        30.5941         1.1119       -56.9307      -29.25046       2568.627      0.5198258      0.5211786
      5920.5000         0.0792         30.297          0.004        61.9307       57.20157         0.9909         1.1529        31.7327         1.2016       -57.1287      -29.44561       2568.627       0.514927       0.517871
      5921.0000         0.0792        31.2871        -0.0198        61.9307       57.20035         0.9774         1.1689        32.6238         1.2238       -55.9406      -28.25466       2568.627      0.5149011      0.5380566
      5921.5000         0.0792        32.0297        -0.0257        63.4158       59.48924         0.9596         1.1372        32.9208         1.1529       -53.1683      -25.47951       2568.627      0.5636009      0.5850931
      5922.0000         0.0792        31.7822        -0.0317        65.0495       62.00729         0.9509         1.0615        33.2673         1.0279            -48      -20.30835       2568.627      0.6171763      0.6727398
      5922.5000         0.0594        29.3069        -0.0317        66.6832       64.52534         0.9336         1.0232        33.8119         0.8838          -44.5       -16.8055       2588.235      0.6707519      0.7321102
      5923.0000         0.0594        27.6238        -0.0277        67.7228       66.12723         0.9209         1.0092        34.1584         0.8719          -47.3      -19.60264       2607.843      0.7048346       0.684701
      5923.5000         0.0594        26.5842        -0.0238        67.1287       65.20986         0.9125              1        34.1584         0.9596       -51.7822      -24.08199       2588.235      0.6853162      0.6087798
      5924.0000         0.0594        27.0297        -0.0218        64.3069       60.85721         0.9166         1.0092        33.7129         1.0327       -56.0396      -28.33654       2588.235      0.5927066      0.5366689
      5924.5000         0.0396        28.4158        -0.0218        62.3762        57.8787         0.9293         1.0092        32.8218         1.0713       -57.6238      -29.91788       2607.843      0.5293339      0.5098664
      5925.0000         0.0396         29.703        -0.0277        60.1485       54.44218         0.9379         1.0139        32.6733         1.0812       -57.8218      -30.11303       2588.235      0.4562165      0.5065588
      5925.5000         0.0396        30.6931        -0.0297        58.3663       51.69265         0.9509         1.0185        32.6238         1.0812       -58.0198      -30.30817       2588.235       0.397716      0.5032513
      5926.0000         0.0396        30.7921        -0.0297        57.6238       50.54643          0.964         1.0232        32.5743         1.0713       -57.9208      -30.20632       2568.627      0.3733283      0.5049776
      5926.5000         0.0396         30.495        -0.0277        58.3663       51.69019         0.9684         1.0232        32.5248         1.0615       -57.7228      -30.00547       2568.627      0.3976635      0.5083818
      5927.0000         0.0198        30.4455        -0.0277        59.4059       53.29209          0.964         1.0185        32.4257         1.0518       -57.3267      -29.60651       2568.627      0.4317466      0.5151438
      5927.5000         0.0198         30.099        -0.0297        59.5545       53.52001         0.9596         1.0139        32.3267          1.047       -57.3267      -29.60366       2568.627       0.436596      0.5151922
