#------------------------------------------------------------------------------
# Created by    : vladimir.rabinovich
# Created on    : 09/19/2023 17:22:40
#------------------------------------------------------------------------------
~Version Information Section
VERS.           2.0     :   CWLS log ASCII Standard - VERSION 2.0
WRAP.           NO      :   One line per depth step
~Well Information Section
#MNEM       .UNIT                                         VALUE :DESCRIPTION
#------------------------------------------------------------------------------
STRT        .FT                                             150 :START DEPTH
STOP        .FT                                            6352 :STOP DEPTH
STEP        .FT                                             0.5 :STEP      
NULL        .                                           -999.25 :NULL      
COMP        .                               PG & E RESOURCES CO :COMPANY   
WELL        .                        STATE OF TEXAS - TRACT /J/ :WELL      
FLD         .                                      PRINGLE LAKE :FIELD     
LOC         .                                                   :LOCATION  
CNTY        .                                           CALHOUN :LOCATION  
STAT        .                                             TEXAS :STATE     
CTRY        .                                     UNITED STATES :COUNTRY   
SRVC        .                                                   :SERVICE COMPANY
DATE        .                             9/13/2023 11:19:11 AM :LOG DATE  
API         .                                    42057314270000 :API NUMBER
UWI         .                                    42057314270000 :UNIQUE WELL ID
XCOORD      .                                  502172.533303084 :SURFACE X 
YCOORD      .                                    10284545.23877 :SURFACE Y 
LAT         .                                        28.2945207 :LATITUDE  
LON         .                                       -96.5369185 :LONGITUDE 
ELEV        .FT                                              17 :ELEVATION VALUE
ELEV_TYPE   .                                                KB :ELEVATION REFERENCE TYPE
~Curve Information Section
#MNEM       .UNIT                                      API CODE :CURVE DESCRIPTION
#------------------------------------------------------------------------------
DEPT        .FT                                                 :DEPTH     
DCAL        .IN                                                 :          
DPHI        .%                                                  :          
DRHO        .G/CC                                               :          
GR          .GAPI                                               :          
GR_NORM     .GAPI                                               :GammaRay Normalized
ILD         .OHMM                                               :          
ILM         .OHMM                                               :          
NPHI        .%                                                  :          
SGRD        .OHMM                                               :          
SP          .MV                                                 :          
SP_NORM     .MV                                                 :SP Normalized
TENS        .LB/F                                               :          
VSH_GR      .V/V                                                :Volume of Shale from GR
VSH_SP      .V/V                                                :Volume of Shale from SP
~A        DEPTH           DCAL           DPHI           DRHO             GR        GR_NORM            ILD            ILM           NPHI           SGRD             SP        SP_NORM           TENS         VSH_GR         VSH_SP
# ...
      2202.0000        -2.5393        29.5248         0.1802        36.8393        43.5401         0.5502          0.713        43.8416         1.0615          -51.3      -27.43424       1940.594      0.2242574      0.3552625
      2202.5000          -2.34        30.8911          0.138         34.901       41.05263         0.5452         0.7097        45.2079          1.047          -52.5      -28.63998       1940.594      0.1713325       0.325854
      2203.0000          -1.76         31.604          0.124        31.7822       37.05314         0.5477         0.7032        45.6832         1.0713          -53.4      -29.54573       1940.594     0.08623707      0.3037626
      2203.5000          -0.98        31.0693          0.118        30.8911       35.90693         0.5428            0.7        43.8416         1.0962          -54.4      -30.55148       1940.594     0.06184964      0.2792322
      2204.0000          -0.86        29.6436          0.138        30.5941       35.52168         0.5403         0.6967        41.3465         1.1165          -55.1      -31.25722       1940.594     0.05365282      0.2620189
      2204.5000          -0.86        32.0792          0.122        30.5941       35.51683         0.5354         0.7032        39.9802         1.1372          -55.1      -31.26297       1940.594      0.0535495      0.2618788
      2205.0000          -0.86        30.1188          0.122        30.5941       35.51196         0.5186         0.6903        39.3861         1.1476          -54.9      -31.06872       1940.594     0.05344594      0.2666166
      2205.5000          -0.84        28.6931          0.172          28.95        33.4013         0.5092         0.6807        39.2079         1.1476          -55.6      -31.77446       1940.594    0.008538348      0.2494033
      2206.0000           -0.7        29.0495          0.208           27.6       31.66733         0.4977         0.6681        39.6832         1.1476          -57.1      -33.28021       1940.594              0      0.2126777
      2206.5000          -0.54        30.8317          0.206           27.3       31.27822         0.4865         0.6496        41.0495         1.1319          -58.7      -34.88596       1940.594              0      0.1735132
      2207.0000           -0.3         33.802          0.178           27.3       31.27337         0.4691         0.6376        42.4158         1.1114          -59.2      -35.39171       1930.693              0      0.1611778
      2207.5000           -0.1        33.1485          0.172           28.2       32.42125         0.4606         0.6228         43.604         1.0962          -59.9      -36.09745       1950.495              0      0.1439645
      2208.0000          0.099        32.7921          0.154          29.55       34.14549         0.4482         0.6142        44.2574         1.1063          -60.7       -36.9032       1970.297     0.02437218      0.1243122
      2208.5000         0.2545        34.8119            0.1        30.4271       35.26404         0.4362         0.6113         43.725         1.1319       -62.0106      -38.21955       1940.594     0.04817102     0.09220617
      2209.0000         0.3685        35.6436          0.078        30.3899       35.21154         0.4283            0.6        42.5367         1.1476       -62.4294      -38.64409       1920.792     0.04705397      0.0818514
      2209.5000         0.1657        36.0594           0.06        29.9044       34.58484         0.4205         0.5838        41.8218         1.1476       -62.3492      -38.56964        1900.99     0.03371998     0.08366729
      2210.0000        -0.1166        35.5842          0.058         30.465         35.298         0.4148         0.5681        41.2871         1.1319       -62.2694      -38.49559       1871.287     0.04889362      0.0854735
      2210.5000         -0.297        34.5149           0.06        30.7489       35.65678          0.413         0.5578        41.0495         1.1165       -62.7763      -39.00823       1841.813     0.05652716     0.07296995
      2211.0000        -0.3564        33.8614          0.064        30.5977       35.45826         0.4055         0.5553         41.703         1.1063         -63.28      -39.51768       1842.194     0.05230348     0.06054446
      2211.5000        -0.3762        33.2079          0.078        30.5962       35.45147         0.4055         0.5502          42.12         1.0861       -63.4872      -39.73063       1842.573     0.05215884     0.05535051
      2212.0000        -0.3762        33.3267          0.088        30.5948       35.44482         0.4037         0.5428          43.44         1.0713       -63.0962      -39.34537       1862.581     0.05201754     0.06474704
      2212.5000        -0.3762        35.0495          0.094          29.55       34.10176            0.4         0.5403          45.66         1.0327          -62.1      -38.35492       1862.745     0.02344164      0.0889044
      2213.0000         -0.396        36.9505          0.102          28.35       32.55991         0.3964         0.5403          46.08         1.0046            -61      -37.26067       1862.745              0      0.1155935
      2213.5000        -0.4356        38.0198          0.102           27.9       31.97869          0.391         0.5378          45.66         1.0046            -60      -36.26641       1862.745              0      0.1398436
      2214.0000        -0.4356         38.198           0.09           28.8       33.12656         0.3857         0.5378          44.88         1.0046            -59      -35.27216       1862.745    0.002692852      0.1640937
      2214.5000        -0.4356        37.7822           0.07          29.55       34.08231         0.3787         0.5378          43.62         1.0185          -58.2      -34.47791       1872.549     0.02302795      0.1834657
      2215.0000        -0.3168         37.604          0.036        30.4455       35.22443         0.3787         0.5378          42.84         1.0664          -57.3      -33.58365       1862.745     0.04732838      0.2052768
      2215.5000        -0.2376         37.901          0.014        33.2673        38.8338          0.391         0.5378          42.36         1.0911            -56       -32.2894       1852.941      0.1241234      0.2368439
      2216.0000        -0.3168        38.2574           0.01        35.6436       41.87255         0.3982         0.5403          42.24         1.0812          -54.3      -30.59514       1833.333      0.1887777      0.2781672
      2216.5000        -0.5149        38.3168          0.022        38.4653       45.48179         0.4205         0.5452          42.36          1.047            -52      -28.30089       1833.333        0.26557      0.3341246
      2217.0000        -0.7723        38.9109          0.012        40.9901       48.71075         0.4628         0.5603          42.36         1.0185          -49.7      -26.00664       1852.941      0.3342713       0.390082
      2217.5000        -0.9901        39.2079          0.012         44.703       53.46144         0.4977         0.5785          42.18         1.0046          -46.6      -22.91238       1892.157      0.4353498      0.4655516
      2218.0000        -1.2079        37.2475          0.018          48.45       58.25583         0.5403            0.6        41.6436         0.9818          -42.4      -18.71813       1911.765       0.537358      0.5678504
      2218.5000        -1.4249        34.5149          0.034           49.8       59.98008         0.6466         0.6618        41.4059         0.9552       -38.1146      -14.43848       1921.569      0.5740442      0.6722322
      2219.0000        -1.6223        31.6634          0.048          56.85         69.005         0.6903         0.7229        41.5842         0.9336        -34.739      -11.06862       1921.569      0.7660639      0.7544238
      2219.5000        -1.8007        29.8218          0.054          59.85       72.84261         0.7675         0.7854        43.3118         0.9336       -32.2634      -8.598774       1921.569       0.847715      0.8146641
