#------------------------------------------------------------------------------
# Created by    : vladimir.rabinovich
# Created on    : 09/19/2023 17:22:40
#------------------------------------------------------------------------------
~Version Information Section
VERS.           2.0     :   CWLS log ASCII Standard - VERSION 2.0
WRAP.           NO      :   One line per depth step
~Well Information Section
#MNEM       .UNIT                                         VALUE :DESCRIPTION
#------------------------------------------------------------------------------
STRT        .FT                                             150 :START DEPTH
STOP        .FT                                            6352 :STOP DEPTH
STEP        .FT                                             0.5 :STEP      
NULL        .                                           -999.25 :NULL      
COMP        .                               PG & E RESOURCES CO :COMPANY   
WELL        .                        STATE OF TEXAS - TRACT /J/ :WELL      
FLD         .                                      PRINGLE LAKE :FIELD     
LOC         .                                                   :LOCATION  
CNTY        .                                           CALHOUN :LOCATION  
STAT        .                                             TEXAS :STATE     
CTRY        .                                     UNITED STATES :COUNTRY   
SRVC        .                                                   :SERVICE COMPANY
DATE        .                             9/13/2023 11:19:11 AM :LOG DATE  
API         .                                    42057314270000 :API NUMBER
UWI         .                                    42057314270000 :UNIQUE WELL ID
XCOORD      .                                  502172.533303084 :SURFACE X 
YCOORD      .                                    10284545.23877 :SURFACE Y 
LAT         .                                        28.2945207 :LATITUDE  
LON         .                                       -96.5369185 :LONGITUDE 
ELEV        .FT                                              17 :ELEVATION VALUE
ELEV_TYPE   .                                                KB :ELEVATION REFERENCE TYPE
~Curve Information Section
#MNEM       .UNIT                                      API CODE :CURVE DESCRIPTION
#------------------------------------------------------------------------------
DEPT        .FT                                                 :DEPTH     
DCAL        .IN                                                 :          
DPHI        .%                                                  :          
DRHO        .G/CC                                               :          
GR          .GAPI                                               :          
GR_NORM     .GAPI                                               :GammaRay Normalized
ILD         .OHMM                                               :          
ILM         .OHMM                                               :          
NPHI        .%                                                  :          
SGRD        .OHMM                                               :          
SP          .MV                                                 :          
SP_NORM     .MV                                                 :SP Normalized
TENS        .LB/F                                               :          
VSH_GR      .V/V                                                :Volume of Shale from GR
VSH_SP      .V/V                                                :Volume of Shale from SP
~A        DEPTH           DCAL           DPHI           DRHO             GR        GR_NORM            ILD            ILM           NPHI           SGRD             SP        SP_NORM           TENS         VSH_GR         VSH_SP
# ...
      5496.0000         0.0198        25.2475         -0.002        45.4455       39.99524         0.4205         0.5281        31.7822         0.9166       -79.1986      -49.49236       2903.067       0.148835     0.01036002
      5496.5000              0        29.3564         -0.002        46.0396       40.71046         0.3651         0.4887        34.1089         0.8036       -83.9604      -54.25266       2903.096      0.1640524              0
      5497.0000              0        31.7327         -0.002        48.1188       43.21597         0.3227         0.4381        35.3922          0.757       -84.5545      -54.84525       2885.693       0.217361              0
      5497.5000              0        33.5644         -0.004        50.7921       46.43766         0.3028         0.4111        35.2941         0.7782       -83.7624      -54.05165       2907.665      0.2859077              0
      5498.0000              0        34.5545        -0.0139        51.6832       47.51092         0.2919         0.4037         35.098         0.8146        -80.396      -50.68375       2929.749      0.3087429              0
      5498.5000        -0.0198         34.703        -0.0218        53.0198       49.12122         0.2946         0.4018        34.9505         0.8485       -79.3069      -49.59315       2910.891      0.3430046    0.008303039
      5499.0000        -0.0396        34.6535        -0.0258        53.3168       49.47829         0.3394         0.4186        34.7525          0.868       -76.7327      -47.01745       2910.891      0.3506019      0.0608684
      5499.5000        -0.0396        34.0099        -0.0299         54.505        50.9097         0.3857         0.4586        34.5545         0.8295       -72.8713      -43.15455       2910.891      0.3810574      0.1397031
      5500.0000        -0.0396        33.4653         -0.026        55.9901       52.69902         0.4401         0.5046        34.3564         0.8371       -68.1188      -38.40054       2891.089       0.419128      0.2367236
      5500.5000        -0.0396        31.4408         -0.024        57.0297       53.95129         0.5092         0.5553        33.4181         0.8838       -61.6832      -31.96345       2891.089      0.4457721       0.368093
      5501.0000        -0.0396        29.8703         -0.022        58.3663       55.56159         0.6138         0.6222        32.7315          0.964       -55.3465      -25.62524       2910.891      0.4800339       0.497444
      5501.5000        -0.0396        26.5943          -0.02         60.297       57.88808         0.7065         0.6968        31.9006         1.1005          -49.7      -19.97724       2910.891      0.5295336      0.6127093
      5502.0000        -0.0396        23.9202         -0.018        62.9703       61.10978         0.8146         0.7818        31.0247         1.2056          -45.2      -15.47574       2910.891      0.5980805      0.7045767
      5502.5000        -0.0396        20.9804          -0.01        66.0891       64.86852         0.9125         0.8879        30.8824          1.239          -40.8      -11.07424       2871.287      0.6780537      0.7944033
      5503.0000        -0.0396        19.4554         -0.004        69.2079       68.62727         0.9774         0.9954        30.9804         1.2166          -36.8      -7.072737       2871.287       0.758027      0.8760666
      5503.5000        -0.0396        19.0099          0.004        71.7327       71.66994         0.9954         1.0184        31.9608         1.1518          -32.1      -2.371235       2910.891      0.8227646      0.9720156
      5504.0000        -0.0396        18.5149          0.012          76.35       77.23512         0.9552         1.0046        33.2353         1.0955       -27.6238       2.106464       2871.287      0.9411728              1
      5504.5000        -0.0396        18.1211          0.022             78       79.22323         0.9125         0.9774        35.2475         1.0277       -26.5347       3.197067        2892.46      0.9834729              1
      5505.0000        -0.0396        18.2244          0.032          79.35        80.8497         0.8563         0.9293        36.8317         0.9818       -27.0297       2.703569        2914.92              1              1
      5505.5000        -0.0396        18.3764          0.032           79.8        81.3912         0.8073         0.8838        38.6139         0.9251       -28.2178        1.51697       2917.589              1              1
      5506.0000        -0.0198        18.3804          0.034          79.35       80.84776          0.757         0.8447         39.505            0.9        -29.505      0.2312717       2900.614              1              1
      5506.5000              0        18.4314           0.04           80.7       82.47422          0.713            0.8         40.049         0.8959          -30.1     -0.3622284       2882.353              1              1
      5507.0000        -0.0396        19.0196          0.042          82.35       84.46233            0.7         0.7746        40.7843         0.8838       -28.2178       1.521473       2823.529              1              1
      5507.5000         -0.099         20.049          0.038          83.25       85.54631         0.6968         0.7535        41.8137         0.8563       -26.3366       3.404177       2862.745              1              1
      5508.0000        -0.1188        21.0784          0.038          82.35        84.4604         0.7263         0.7501        42.3039         0.8333       -27.4257       2.316578       2901.961              1              1
      5508.5000        -0.0792        21.9189          0.034          79.65       81.20459         0.7782         0.7605        41.8137          0.864       -28.3168       1.426979        2824.54              1              1
      5509.0000        -0.0396        21.8819          0.032           75.6       76.32135         0.8447         0.8447        40.6373         0.9379       -27.4257        2.31958       2826.568      0.9217309              1
      5509.5000        -0.0396        20.8644          0.036        72.0297        72.0164         0.9293         0.9379        39.4554         1.0184       -26.3366       3.410181       2848.335      0.8301361              1
      5510.0000        -0.0792        20.2881          0.038        69.0594       68.43473         1.0231         1.0419        37.4752         1.1055       -26.3366       3.411684       2889.988      0.7539304              1
      5510.5000         -0.119         19.901          0.044         66.671       65.55454         1.1356         1.1671        36.0396         1.2105       -26.5347       3.215084       2891.089      0.6926498              1
      5511.0000        -0.1193         20.098          0.034        65.0106       63.55197         1.2489         1.2954        33.9216         1.3133       -27.1287       2.622585       2910.891      0.6500419              1
      5511.5000        -0.1594         19.901          0.032        63.6411       61.90007         1.3739         1.4382           32.5         1.4186       -27.3267       2.426086       2910.891      0.6148951              1
      5512.0000        -0.1598        19.2574           0.02        63.4635       61.68502         1.4375          1.554        32.2059         1.4309       -27.3267       2.427588       2910.891      0.6103196              1
      5512.5000          -0.06        17.6733          0.018          64.95       63.47602         1.3726         1.5185        32.0588          1.411       -27.6238       2.131989       2910.891      0.6484259              1
      5513.0000          -0.04        16.4851           0.01           66.6       65.46413         1.2238         1.3415         32.598         1.3292       -29.0099      0.7473927       2910.891      0.6907261              1
      5513.5000              0        15.9406           0.01           67.5       66.54811         1.0046         1.0861        33.4804         1.2071          -32.3      -2.541206       2891.089      0.7137896      0.9738778
