#------------------------------------------------------------------------------
# Created by    : vladimir.rabinovich
# Created on    : 09/19/2023 17:22:40
#------------------------------------------------------------------------------
~Version Information Section
VERS.           2.0     :   CWLS log ASCII Standard - VERSION 2.0
WRAP.           NO      :   One line per depth step
~Well Information Section
#MNEM       .UNIT                                         VALUE :DESCRIPTION
#------------------------------------------------------------------------------
STRT        .FT                                             150 :START DEPTH
STOP        .FT                                            6352 :STOP DEPTH
STEP        .FT                                             0.5 :STEP      
NULL        .                                           -999.25 :NULL      
COMP        .                               PG & E RESOURCES CO :COMPANY   
WELL        .                        STATE OF TEXAS - TRACT /J/ :WELL      
FLD         .                                      PRINGLE LAKE :FIELD     
LOC         .                                                   :LOCATION  
CNTY        .                                           CALHOUN :LOCATION  
STAT        .                                             TEXAS :STATE     
CTRY        .                                     UNITED STATES :COUNTRY   
SRVC        .                                                   :SERVICE COMPANY
DATE        .                             9/13/2023 11:19:11 AM :LOG DATE  
API         .                                    42057314270000 :API NUMBER
UWI         .                                    42057314270000 :UNIQUE WELL ID
XCOORD      .                                  502172.533303084 :SURFACE X 
YCOORD      .                                    10284545.23877 :SURFACE Y 
LAT         .                                        28.2945207 :LATITUDE  
LON         .                                       -96.5369185 :LONGITUDE 
ELEV        .FT                                              17 :ELEVATION VALUE
ELEV_TYPE   .                                                KB :ELEVATION REFERENCE TYPE
~Curve Information Section
#MNEM       .UNIT                                      API CODE :CURVE DESCRIPTION
#------------------------------------------------------------------------------
DEPT        .FT                                                 :DEPTH     
DCAL        .IN                                                 :          
DPHI        .%                                                  :          
DRHO        .G/CC                                               :          
GR          .GAPI                                               :          
GR_NORM     .GAPI                                               :GammaRay Normalized
ILD         .OHMM                                               :          
ILM         .OHMM                                               :          
NPHI        .%                                                  :          
SGRD        .OHMM                                               :          
SP          .MV                                                 :          
SP_NORM     .MV                                                 :SP Normalized
TENS        .LB/F                                               :          
VSH_GR      .V/V                                                :Volume of Shale from GR
VSH_SP      .V/V                                                :Volume of Shale from SP
~A        DEPTH           DCAL           DPHI           DRHO             GR        GR_NORM            ILD            ILM           NPHI           SGRD             SP        SP_NORM           TENS         VSH_GR         VSH_SP
# ...
      1392.0000          -1.14         40.396          0.094        41.1386       43.62542         0.4422         0.5629        49.7228         1.0232       -50.9901      -17.59084       1558.295      0.2260727      0.1338425
      1392.5000          -1.26        40.8713          0.096        41.5842       44.35286         0.4799         0.5733        50.0792         1.0279          -49.6      -16.25867       1558.823      0.2415502      0.2078514
      1393.0000          -1.68        40.9307          0.094           45.6       50.93722         0.5139         0.6028        50.3168         1.0092          -47.9      -14.61662        1549.02       0.381643      0.2990767
      1393.5000        -2.0396        40.8119          0.094           48.9       56.34732         0.5452         0.6258        50.8515         0.9954          -45.3      -12.07456        1549.02      0.4967514      0.4403023
      1394.0000        -2.3366        40.8119           0.08          52.65       62.49566         0.5946         0.6649        51.6238         0.9774          -41.5        -8.3325       1539.216      0.6275673      0.6481944
      1394.5000        -2.6733        40.2772          0.064          58.05       71.35079         0.6618          0.713        52.4554         0.9509          -38.2      -5.090443       1539.216      0.8159743      0.8283088
      1395.0000        -2.8317         39.505           0.05          59.85       74.30015         0.7229         0.7605        53.1683         0.9422          -35.2      -2.148384       1539.216      0.8787265      0.9917564
      1395.5000        -2.9307        38.7327          0.052        60.4455        75.2735         0.7675         0.8073        53.5842         0.9293          -33.7     -0.7063255       1529.412      0.8994361              1
      1396.0000        -3.0099        38.3762          0.058        62.3762       78.43724         0.8109         0.8563        53.6436         0.9293          -32.9     0.03573227       1539.216      0.9667498              1
      1396.5000        -3.0297        38.6733           0.06        65.9406       84.28109         0.8333         0.8798        52.9901         0.9293          -32.6      0.2777977       1539.216              1              1
      1397.0000        -3.0693        39.1485           0.05        67.7228       87.20123         0.8563         0.8959        52.2772         0.9336          -32.5      0.3198547       1519.608              1              1
      1397.5000        -3.0693        39.5644          0.046        67.2772       86.46667         0.8563            0.9        52.0396         0.9336          -33.2     -0.4380875        1549.02              1              1
      1398.0000        -3.0693        39.9802           0.04        66.0891       84.51401         0.8563         0.8879        51.8614         0.9293          -34.1      -1.396027        1549.02              1              1
      1398.5000        -3.0495        40.4554          0.034        63.2522        79.8565         0.8524         0.8759        51.4455         0.9125          -34.7       -2.05397       1558.823      0.9969468      0.9970016
      1399.0000        -3.0099        40.9901          0.028        60.9874       76.13752         0.8447         0.8563        51.6832         0.9125            -35      -2.411911        1549.02      0.9178196       0.977116
      1399.5000        -2.9505        40.9901           0.02        60.8032       75.83178         0.8333         0.8447        51.6832         0.9125          -34.9      -2.369854       1539.216      0.9113144      0.9794526
      1400.0000        -2.9109        40.6337          0.018        60.3183       75.03275         0.8258         0.8371        51.2673         0.9125            -35      -2.527794        1549.02      0.8943138      0.9706781
      1400.5000        -2.8713        39.9802           0.02        59.8515       75.52114          0.822         0.8371        51.3267         0.9083          -34.8      -2.385735       1548.363      0.9047051      0.9785703
      1401.0000        -2.8317         39.505          0.022        59.2574       74.75742          0.822         0.8409        51.6238         0.9125          -34.6      -2.243675       1557.106      0.8884558      0.9864625
      1401.5000        -2.8317        39.2673          0.022         59.703       75.32536          0.822         0.8447         51.505         0.9125          -34.5      -2.148018       1565.891      0.9005396      0.9917768
      1402.0000        -2.8317        39.2079          0.024        59.4059       74.94205          0.822         0.8485         51.802         0.9125          -34.2      -1.821907       1564.829      0.8923842              1
      1402.5000        -2.8317        39.2673          0.026        58.6634       73.98825          0.822         0.8524        51.8614         0.9125          -33.7      -1.295795       1564.356      0.8720905              1
      1403.0000        -2.8317        39.3861          0.028          60.15       75.88956          0.822         0.8524         52.099         0.9166          -33.1     -0.6696854       1544.554      0.9125438              1
      1403.5000        -2.8515        39.5644          0.024          60.45       76.27101         0.8258         0.8524        52.2772         0.9209          -32.5    -0.04357529       1534.653      0.9206598              1
      1404.0000        -2.8911         39.505           0.03           60.6       76.46034         0.8295         0.8524        52.2772         0.9293          -32.1      0.3825378       1544.554      0.9246882              1
      1404.5000        -2.9307        39.5644          0.032           62.4       78.76304         0.8333         0.8563         52.099         0.9293          -32.1      0.4086494       1544.554      0.9736817              1
      1405.0000        -2.9703         39.505          0.028           64.5       81.44998         0.8371          0.864        51.6832         0.9209          -32.4       0.134758       1564.356              1              1
      1405.5000        -2.9901         39.505          0.026             66       83.36843         0.8447         0.8759        51.3861         0.9125          -32.7     -0.1391335       1574.257              1              1
      1406.0000        -2.9703        39.5644          0.024             66       83.36565         0.8524         0.8838        51.4455         0.9209            -33     -0.4130211       1574.257              1              1
      1406.5000        -2.8515        39.5644           0.02          64.95       82.01799          0.864         0.8959        51.9208         0.9293          -33.2     -0.5869102       1564.356              1              1
      1407.0000        -2.7921        39.4455          0.018           62.1       78.36487         0.8719            0.9        52.6337         0.9422          -33.1     -0.4607964       1554.455        0.96521              1
      1407.5000        -2.7129        39.2673          0.016        59.2574       74.72122         0.8798         0.9083        52.5149         0.9509          -32.9     -0.2346878       1544.554      0.8876856              1
      1408.0000        -2.7129        39.3267          0.016        58.0693       73.19672         0.8838         0.9083        52.2178         0.9552          -32.7   -0.008579254       1554.455      0.8552493              1
      1408.5000        -2.7525        39.3267          0.014        56.5985        71.3101         0.8798         0.9125        51.8614         0.9552          -32.6      0.1175346       1554.455      0.8151084              1
      1409.0000        -2.8515        39.3267          0.014         55.882        70.3896         0.8798         0.9166        51.8614         0.9684          -32.6      0.1436462       1544.554      0.7955233              1
      1409.5000        -2.9505        39.3861          0.012         54.863       69.08166         0.8959         0.9209        52.3366         0.9774          -32.6      0.1697578       1544.554      0.7676948              1
