#------------------------------------------------------------------------------
# Created by    : vladimir.rabinovich
# Created on    : 09/19/2023 17:22:40
#------------------------------------------------------------------------------
~Version Information Section
VERS.           2.0     :   CWLS log ASCII Standard - VERSION 2.0
WRAP.           NO      :   One line per depth step
~Well Information Section
#MNEM       .UNIT                                         VALUE :DESCRIPTION
#------------------------------------------------------------------------------
STRT        .FT                                             150 :START DEPTH
STOP        .FT                                            6352 :STOP DEPTH
STEP        .FT                                             0.5 :STEP      
NULL        .                                           -999.25 :NULL      
COMP        .                               PG & E RESOURCES CO :COMPANY   
WELL        .                        STATE OF TEXAS - TRACT /J/ :WELL      
FLD         .                                      PRINGLE LAKE :FIELD     
LOC         .                                                   :LOCATION  
CNTY        .                                           CALHOUN :LOCATION  
STAT        .                                             TEXAS :STATE     
CTRY        .                                     UNITED STATES :COUNTRY   
SRVC        .                                                   :SERVICE COMPANY
DATE        .                             9/13/2023 11:19:11 AM :LOG DATE  
API         .                                    42057314270000 :API NUMBER
UWI         .                                    42057314270000 :UNIQUE WELL ID
XCOORD      .                                  502172.533303084 :SURFACE X 
YCOORD      .                                    10284545.23877 :SURFACE Y 
LAT         .                                        28.2945207 :LATITUDE  
LON         .                                       -96.5369185 :LONGITUDE 
ELEV        .FT                                              17 :ELEVATION VALUE
ELEV_TYPE   .                                                KB :ELEVATION REFERENCE TYPE
~Curve Information Section
#MNEM       .UNIT                                      API CODE :CURVE DESCRIPTION
#------------------------------------------------------------------------------
DEPT        .FT                                                 :DEPTH     
DCAL        .IN                                                 :          
DPHI        .%                                                  :          
DRHO        .G/CC                                               :          
GR          .GAPI                                               :          
GR_NORM     .GAPI                                               :GammaRay Normalized
ILD         .OHMM                                               :          
ILM         .OHMM                                               :          
NPHI        .%                                                  :          
SGRD        .OHMM                                               :          
SP          .MV                                                 :          
SP_NORM     .MV                                                 :SP Normalized
TENS        .LB/F                                               :          
VSH_GR      .V/V                                                :Volume of Shale from GR
VSH_SP      .V/V                                                :Volume of Shale from SP
~A        DEPTH           DCAL           DPHI           DRHO             GR        GR_NORM            ILD            ILM           NPHI           SGRD             SP        SP_NORM           TENS         VSH_GR         VSH_SP
# ...
       564.0000         3.7426        34.7525         -0.002        47.9703       62.02832         2.7702         2.7191        36.8911         2.2678          -50.1      -2.698605       1247.525      0.6176239              1
       564.5000         3.7822        35.4653         -0.002        48.5644        62.8364         2.7081         2.6335        38.0198         2.1964          -50.3      -2.909882       1257.426      0.6348171              1
       565.0000          3.901        35.9406         -0.004        47.9703       62.02548          2.659         2.5267        38.6139          2.158          -50.6      -3.221153       1257.426      0.6175634      0.9368134
       565.5000         3.9802        37.0099         -0.004        45.8911       59.19098         2.6112         2.4249        39.5644           2.17          -50.6      -3.232426       1257.426       0.557255      0.9335927
       566.0000           4.02        41.2871         -0.002          44.55       57.36221         2.6122         2.3277        40.5743         2.1128          -50.6      -3.243698       1277.228      0.5183448      0.9303719
       566.5000           4.28          45.66         -0.002           43.5       55.93008         2.6023          2.298          42.66         1.9563          -50.6      -3.254974       1277.228       0.487874      0.9271502
       567.0000           4.54        48.7723         -0.002          42.45       54.49795         2.6053         2.3434          43.74         1.9058          -50.6      -3.266247        1297.03      0.4574032      0.9239295
       567.5000            4.6        48.8911         -0.002           42.3       54.29214         2.6446         2.4342          42.06         1.9875          -50.6      -3.277519        1297.03      0.4530243      0.9207088
       568.0000            4.3          46.74         -0.002           42.6       54.69949         2.7218         2.4937        39.5644         2.0933          -50.7      -3.388794       1316.832      0.4616913       0.888916
       568.5000           4.32        41.2871         -0.004          42.75       54.90246         2.7868         2.5415        37.4257         2.1931          -50.8      -3.500065       1326.733      0.4660097      0.8571243
       569.0000           4.42        38.6733         -0.004          41.85       53.67471         2.8781         2.5887        35.5248         2.2134          -51.1       -3.81134       1316.832      0.4398875      0.7681885
       569.5000           4.58        37.7822         -0.006          41.25       52.85574         2.9588         2.6248        35.8218         2.2032          -51.3      -4.022614        1297.03      0.4224626      0.7078247
       570.0000           4.02         37.604              0          40.35       51.62799         2.9588         2.6736        36.2376         2.1931          -51.8      -4.533886       1287.129      0.3963403      0.5617469
       570.5000         3.6654         37.539         -0.002           37.5       47.74323         2.9063         2.6871        36.1115         2.1833          -52.3      -5.045158       1306.931      0.3136858       0.415669
       571.0000         4.1075        38.3627         -0.004          33.45       42.22338         2.8561         2.6278        35.8594         2.1637          -52.8      -5.556435       1306.931      0.1962422      0.2695901
       571.5000         4.8076        39.1905         -0.004           31.8        39.9737         2.8064         2.5815        35.4317         2.1244          -53.1      -5.867706       1336.634      0.1483765      0.1806553
       572.0000         5.2665        40.0225         -0.004           31.2       39.15474         2.7445         2.5006        34.9472         2.0855          -53.2      -5.978981       1316.832      0.1309518      0.1488626
       572.5000         5.4653          40.62         -0.004          31.95       40.17524          2.683         2.4789        34.6471         2.0578          -53.3      -6.090252       1306.931      0.1526648      0.1170709
       573.0000         5.4257          40.74         -0.004           32.7       41.19575          2.659         2.4459        34.6471         2.0222          -53.4       -6.20153       1336.634      0.1743777     0.08527701
       573.5000         5.4059          40.02         -0.004           32.1       40.37678         2.6233         2.4248        34.0588         2.0151          -53.4      -6.212803       1326.733      0.1569528     0.08205632
       574.0000         5.4851           39.6         -0.004          31.65        39.7622         2.6002         2.3929        33.7059         2.0081          -53.3      -6.124073       1316.832      0.1438765      0.1074077
       574.5000          5.505          39.72         -0.004           30.6       38.33007         2.5768           2.35        34.1765         1.9818          -53.3      -6.135345       1316.832      0.1134058       0.104187
       575.0000         5.4653          39.96         -0.004          30.45       38.12426         2.5532         2.3071        34.7647         1.9549          -53.2      -6.046623       1316.832      0.1090268      0.1295362
       575.5000         5.4653          40.44         -0.004           30.6       38.32722         2.5298         2.2545        35.3529          1.946          -53.3      -6.157894       1306.931      0.1133452     0.09774453
       576.0000         5.4653          40.86          0.006          30.75       38.53019         2.4951         2.2236           36.3         1.9284          -53.3      -6.169167       1287.129      0.1176635     0.09452384
       576.5000          5.505          40.92           0.02          31.05       38.93753         2.4836         2.2236          38.04         1.9108          -53.2      -6.080441       1267.327      0.1263305      0.1198741
       577.0000         5.5248          41.58          0.032          31.05       38.93611         2.4608         2.2339          39.66         1.8508          -53.1      -5.991711       1277.228      0.1263002      0.1452255
       577.5000         5.5446        42.3564           0.04           30.6       38.32153         2.4608         2.2339          39.36         1.8424          -53.2      -6.102989       1267.327      0.1132239      0.1134317
       578.0000         5.5446        42.1782          0.038           30.6       38.32011         2.4608         2.2339          38.88         1.8935            -53      -5.914261       1257.426      0.1131938       0.167354
       578.5000         5.5466         41.573          0.046           30.6       38.31868         2.4608         2.2236        38.2772         1.9108          -52.8      -5.725533       1247.219      0.1131633      0.2212764
       579.0000         5.5504        41.7983          0.042          30.45       38.11287         2.4836         2.2339        37.9128         1.9022          -52.6      -5.536804       1266.338      0.1087845      0.2751988
       579.5000         5.5543        42.2615          0.028        29.5545       36.89126         2.5182         2.2442        37.9677         1.8935          -52.6       -5.54808       1255.843     0.08279281       0.271977
       580.0000         5.5382         42.367          0.014             30       37.49686         2.5415         2.2545        38.3792         1.8849          -52.7      -5.659355       1255.215     0.09567788      0.2401842
       580.5000           5.52             42          0.008           30.6       38.31298         2.5415         2.2649         37.604         1.8764          -52.6      -5.570625       1264.706      0.1130422      0.2655356
       581.0000           5.54        41.7624          0.016          30.75       38.51595         2.5415         2.2649        37.1287         1.8681          -52.7        -5.6819        1274.51      0.1173606      0.2337428
       581.5000           5.48        40.8713          0.026          30.45       38.10575         2.5415         2.2442        36.9505         1.8683          -52.9      -5.893177        1274.51       0.108633       0.173378
