#------------------------------------------------------------------------------
# Created by    : vladimir.rabinovich
# Created on    : 09/19/2023 17:19:41
#------------------------------------------------------------------------------
~Version Information Section
VERS.           2.0     :   CWLS log ASCII Standard - VERSION 2.0
WRAP.           NO      :   One line per depth step
~Well Information Section
#MNEM       .UNIT                                         VALUE :DESCRIPTION
#------------------------------------------------------------------------------
STRT        .FT                                            1000 :START DEPTH
STOP        .FT                                         10019.5 :STOP DEPTH
STEP        .FT                                             0.5 :STEP      
NULL        .                                           -999.25 :NULL      
COMP        .                                UNION PRODUCING CO :COMPANY   
WELL        .                                            BARROW :WELL      
FLD         .                                           WILDCAT :FIELD     
LOC         .                                                   :LOCATION  
CNTY        .                                          CHAMBERS :LOCATION  
STAT        .                                             TEXAS :STATE     
CTRY        .                                     UNITED STATES :COUNTRY   
SRVC        .                                                   :SERVICE COMPANY
DATE        .                             9/13/2023 11:19:11 AM :LOG DATE  
API         .                                    42071025090000 :API NUMBER
UWI         .                                    42071025090000 :UNIQUE WELL ID
XCOORD      .                                  1126276.26743497 :SURFACE X 
YCOORD      .                                  10763240.3077352 :SURFACE Y 
LAT         .                                        29.6474899 :LATITUDE  
LON         .                                       -94.6189869 :LONGITUDE 
ELEV        .FT                                              18 :ELEVATION VALUE
ELEV_TYPE   .                                                DF :ELEVATION REFERENCE TYPE
~Curve Information Section
#MNEM       .UNIT                                      API CODE :CURVE DESCRIPTION
#------------------------------------------------------------------------------
DEPT        .FT                                                 :DEPTH     
AM64        .OHMM                                               :          
AO18        .OHMM                                               :          
SN16        .OHMM                                               :          
SP          .MV                                                 :          
SP_NORM     .MV                                                 :SP Normalized
VSH_SP      .V/V                                                :Volume of Shale from SP
~A        DEPTH           AM64           AO18           SN16             SP        SP_NORM         VSH_SP
# ...
      9360.0000         1.0137         0.6667         1.3356       -50.0063      -4.533306      0.9627455
      9360.5000         1.0975         0.6667         1.3326       -50.4517      -4.972836      0.9562818
      9361.0000         1.1513          0.706          1.313       -51.0035      -5.518768      0.9482534
      9361.5000         1.1782         0.7222         1.3018       -51.0099      -5.519299      0.9482456
      9362.0000          1.233         0.7222         1.2793       -51.0144      -5.517929      0.9482657
      9362.5000         1.2327         0.7222         1.2791       -51.0199      -5.517563      0.9482712
      9363.0000         1.2324         0.7222         1.2679       -51.0254      -5.517193      0.9482766
      9363.5000         1.2321         0.7222         1.2678       -51.0308      -5.516724      0.9482835
      9364.0000         1.2319         0.7222         1.2676       -50.4891      -4.969158      0.9563359
      9364.5000         1.2316         0.7222         1.2674       -49.3996      -3.873787      0.9724443
      9365.0000         1.2313         0.7222         1.2696       -48.8587      -3.327019       0.980485
      9365.5000          1.231         0.7222         1.2782       -48.7247      -3.187149      0.9825419
      9366.0000         1.2308         0.7222         1.2892       -48.3225      -2.779079       0.988543
      9366.5000         1.2305         0.7273         1.3001       -48.3279       -2.77861      0.9885498
      9367.0000         1.2302         0.7778         1.2999       -48.8813      -3.326145      0.9804978
      9367.5000         1.2069          0.807         1.3154       -48.9385      -3.377472      0.9797431
      9368.0000         1.1746         0.8333          1.444       -50.5337      -4.966805      0.9563705
      9368.5000         1.1743          0.834         1.5711       -51.0853      -5.512535      0.9483451
      9369.0000          1.174         0.8889         1.7104       -51.3511      -5.772469      0.9445225
      9369.5000         1.1738         0.8889         1.7715       -51.6434      -6.058895      0.9403104
      9370.0000         1.1734         0.9279         1.8434       -52.1958      -6.605431      0.9322731
      9370.5000         1.1732              1         1.8766       -52.7487      -7.152458      0.9242285
      9371.0000         1.1729         1.0245         1.8598       -52.7539      -7.151791      0.9242384
      9371.5000         1.1758         1.0556         1.7873       -52.7598      -7.151821      0.9242379
      9372.0000         1.2275         1.0624         1.6472       -52.0888      -6.474953      0.9341919
      9372.5000         1.2272         1.1111         1.4981        -51.676      -6.056282      0.9403488
      9373.0000         1.2036         1.1111         1.3562        -51.134      -5.508415      0.9484057
      9373.5000         1.1715         1.1111         1.2755       -51.1406      -5.509148      0.9483949
      9374.0000         1.0611         1.1111          1.125       -51.1452      -5.507877      0.9484136
      9374.5000         1.0057         1.1111          1.053       -51.0034       -5.36021      0.9505851
      9375.0000         0.8818         1.1667         1.0304        -50.609      -4.959942      0.9564714
      9375.5000         0.7296         1.1667         0.9921       -50.3646      -4.709675      0.9601519
      9376.0000         0.6658         1.1667         0.9636       -49.5259      -3.865105       0.972572
      9376.5000         0.6189         1.1667         0.9523       -49.5311      -3.864437      0.9725818
      9377.0000         0.6186         1.1667         0.9521       -49.5369      -3.864365      0.9725829
      9377.5000         0.6183         1.1303         0.9409        -49.542      -3.863598      0.9725941
      9378.0000         0.6181         1.1111         0.9296       -49.0009      -3.316628      0.9806378
      9378.5000          0.673         1.1111         0.9294       -49.0058      -3.315659      0.9806521
      9379.0000         0.6726         1.1111         0.9292       -48.4649       -2.76889      0.9886928
      9379.5000         0.6724         1.1071         0.9291       -48.3933      -2.691422       0.989832
      9380.0000         0.6721         1.0556         0.9266       -47.3808       -1.67305              1
      9380.5000         0.6718         0.9963         0.9177        -46.839      -1.125385              1
      9381.0000         0.6715         0.9444         0.9175       -46.8457      -1.126213              1
      9381.5000         0.7264         0.8889         0.9284       -46.8501      -1.124748              1
      9382.0000         0.7812         0.7931         0.9292       -46.8555      -1.124275              1
      9382.5000         0.7809         0.7526         0.9392       -46.3138     -0.5767097              1
      9383.0000         0.8357         0.7017         0.9502       -46.3193     -0.5763435              1
      9383.5000         0.8354         0.6667           0.95       -46.3251     -0.5762711              1
      9384.0000         0.8903         0.6111         0.9721       -46.8773      -1.122604              1
      9384.5000         0.9451         0.5973          0.983       -46.8833      -1.122734              1
      9385.0000         0.9448         0.5556         0.9939       -46.9987      -1.232265              1
      9385.5000         0.9996         0.5556         1.0188       -47.4415      -1.669197              1
      9386.0000         0.9994         0.5556         1.0603       -48.5404       -2.76223      0.9887908
      9386.5000          0.999         0.5556         1.1912       -49.0939      -3.309856      0.9807374
      9387.0000         0.9437            0.5         1.4377       -49.6455      -3.855591      0.9727119
      9387.5000         0.9434            0.5         1.4822       -49.9246      -4.128819      0.9686939
      9388.0000         0.8881            0.5          1.493       -50.2037      -4.402054      0.9646757
      9388.5000         0.8326            0.5         1.4706        -50.209      -4.401482      0.9646841
      9389.0000         0.7773            0.5         1.4037       -50.2147      -4.401314      0.9646866
      9389.5000          0.777            0.5         1.1702       -49.6721      -3.852844      0.9727523
      9390.0000         0.7767            0.5         1.0716       -49.1311      -3.305977      0.9807944
      9390.5000         0.7765            0.5         0.9588       -48.0418      -2.210808      0.9968999
      9391.0000         0.7762            0.5         0.9475       -47.5007      -1.663841              1
      9391.5000         0.7759            0.5         0.9362       -47.5061      -1.663368              1
      9392.0000         0.8308            0.5         0.9472       -46.9645      -1.115902              1
      9392.5000         0.8305            0.5         0.9849       -46.9699      -1.115429              1
      9393.0000         0.8302            0.5         1.0024       -46.4283     -0.5679626              1
      9393.5000          0.885            0.5         1.0166       -46.4337     -0.5674973              1
      9394.0000         0.8296            0.5         1.0354       -46.4392     -0.5671272              1
      9394.5000         0.8294            0.5         1.0352       -46.4448     -0.5668602              1
      9395.0000         0.8291            0.5          1.035       -46.4501      -0.566288              1
      9395.5000         0.8288            0.5         1.0349       -46.4558     -0.5661201              1
      9396.0000         0.8285            0.5         1.0347        -46.461     -0.5654488              1
      9396.5000         0.8282         0.5556         1.0346        -47.014      -1.112583              1
      9397.0000          0.828         0.5556         1.0191       -47.8291      -1.921814              1
      9397.5000         0.8277         0.5556         1.0009       -49.2135      -3.300346      0.9808773
