#------------------------------------------------------------------------------
# Created by    : vladimir.rabinovich
# Created on    : 09/19/2023 17:22:28
#------------------------------------------------------------------------------
~Version Information Section
VERS.           2.0     :   CWLS log ASCII Standard - VERSION 2.0
WRAP.           NO      :   One line per depth step
~Well Information Section
#MNEM       .UNIT                                         VALUE :DESCRIPTION
#------------------------------------------------------------------------------
STRT        .FT                                            1650 :START DEPTH
STOP        .FT                                         10241.5 :STOP DEPTH
STEP        .FT                                             0.5 :STEP      
NULL        .                                           -999.25 :NULL      
COMP        .                                 HARRISON DAN J JR :COMPANY   
WELL        .                                    G R CANADA EST :WELL      
FLD         .                                           WILDCAT :FIELD     
LOC         .                                                   :LOCATION  
CNTY        .                                          CHAMBERS :LOCATION  
STAT        .                                             TEXAS :STATE     
CTRY        .                                     UNITED STATES :COUNTRY   
SRVC        .                                                   :SERVICE COMPANY
DATE        .                             9/13/2023 11:19:11 AM :LOG DATE  
API         .                                    42071032580000 :API NUMBER
UWI         .                                    42071032580000 :UNIQUE WELL ID
XCOORD      .                                   1124905.0652959 :SURFACE X 
YCOORD      .                                  10748564.4390152 :SURFACE Y 
LAT         .                                        29.6070806 :LATITUDE  
LON         .                                       -94.6226563 :LONGITUDE 
ELEV        .FT                                            14.3 :ELEVATION VALUE
ELEV_TYPE   .                                                KB :ELEVATION REFERENCE TYPE
~Curve Information Section
#MNEM       .UNIT                                      API CODE :CURVE DESCRIPTION
#------------------------------------------------------------------------------
DEPT        .FT                                                 :DEPTH     
CILD        .MMHO                                               :          
IND         .OHMM                                               :          
SN16        .OHMM                                               :          
SP          .MV                                                 :          
SP_NORM     .MV                                                 :SP Normalized
VSH_SP      .V/V                                                :Volume of Shale from SP
~A        DEPTH           CILD            IND           SN16             SP        SP_NORM         VSH_SP
# ...
      8490.0000       1382.612         0.6096          0.794       -52.6723      -0.820446              1
      8490.5000       1388.636         0.6091         0.8024       -52.4366     -0.5847473              1
      8491.0000       1401.337         0.6087         0.8179       -52.0894     -0.2375488              1
      8491.5000       1454.564         0.5781         0.8204       -51.4964      0.3554535              1
      8492.0000       1502.901         0.5477         0.8299       -50.9063      0.9455528              1
      8492.5000       1544.444         0.5472         0.8213       -50.3132       1.538651              1
      8493.0000        1556.65         0.5468         0.8119       -49.7235       2.128353              1
      8493.5000       1562.468         0.5463         0.7914       -49.7323       2.119553              1
      8494.0000       1562.287         0.5459         0.7701       -49.7415       2.110352              1
      8494.5000       1550.552         0.5756         0.7642       -49.1481       2.703751              1
      8495.0000       1538.189         0.5751         0.7582        -49.159       2.692852              1
      8495.5000       1496.719         0.6047         0.7522       -49.1678       2.684052              1
      8496.0000       1472.324         0.6342         0.7463        -49.177       2.674854              1
      8496.5000       1448.875         0.6337          0.755       -49.1859       2.665951              1
      8497.0000       1418.725         0.6333         0.7701       -49.1951       2.656754              1
      8497.5000       1383.066          0.663         0.7997        -49.204       2.647854              1
      8498.0000       1370.881         0.6925         0.8179       -49.8137       2.038151              1
      8498.5000       1353.186         0.7221         0.8268       -50.1142       1.737652              1
      8499.0000           1341         0.7517         0.8418        -51.033      0.8188515              1
      8499.5000       1317.317         0.7512         0.8656       -52.5391     -0.6872482              1
      8500.0000       1285.532         0.7508         0.9075       -54.6547      -2.802849      0.9738718
      8500.5000       1231.339         0.7504         0.9313       -51.0546      0.7972527              1
      8501.0000       1245.509         0.7502         0.9432       -51.0571       0.794754              1
      8501.5000       1245.509         0.7498         0.9431       -51.6612      0.1906509              1
      8502.0000       1251.497         0.7796          0.949       -52.2643     -0.4124489              1
      8502.5000       1245.509         0.7792         0.9489       -52.8684      -1.016548      0.9997602
      8503.0000       1245.509          0.779         0.9488       -52.9241      -1.072247      0.9989529
      8503.5000       1245.509         0.7786         0.9248       -54.0755      -2.223648      0.9822659
      8504.0000       1245.509         0.7784         0.8578       -54.0781      -2.226246      0.9822283
      8504.5000       1245.509          0.778         0.8232       -54.0815      -2.229649       0.982179
      8505.0000       1245.509         0.7778         0.8236       -54.0841      -2.232246      0.9821414
      8505.5000       1251.497         0.7775         0.8409       -53.2873      -1.435448      0.9936892
      8506.0000       1259.048         0.7772         0.8594       -52.8889      -1.037048      0.9994631
      8506.5000       1269.461         0.7468         0.8825       -52.8923      -1.040447      0.9994138
      8507.0000       1287.425         0.7465         0.8892       -52.8949      -1.043049      0.9993761
      8507.5000       1293.413         0.7462         0.8943       -52.8982      -1.046349      0.9993283
      8508.0000       1287.425         0.7159         0.8942       -52.9009      -1.049049      0.9992892
      8508.5000       1287.425         0.6856         0.8941       -52.9042      -1.052349      0.9992413
      8509.0000       1279.148         0.6553          0.894       -52.9069      -1.055046      0.9992023
      8509.5000       1275.449          0.655         0.8939       -52.9102      -1.058346      0.9991544
      8510.0000       1320.535         0.6472         0.8807       -52.7333     -0.8814468              1
      8510.5000       1443.114         0.6243         0.8579       -52.3153     -0.4634476              1
      8511.0000       1502.524         0.5939         0.8314       -52.3183     -0.4664459              1
      8511.5000       1532.934         0.5937          0.804       -52.0675     -0.2156487              1
      8512.0000       1538.922         0.5933         0.7979       -51.7233      0.1285515              1
      8512.5000       1526.506         0.5931         0.7919       -51.7269      0.1249542              1
      8513.0000       1473.054         0.5928         0.7858       -51.7297      0.1221542              1
      8513.5000       1448.339         0.5925         0.7857       -51.7328      0.1190529              1
      8514.0000        1425.15         0.5922         0.7916       -51.4512      0.4006538              1
      8514.5000       1407.186         0.6219         0.7975       -51.1381      0.7137527              1
      8515.0000       1383.234         0.6216         0.8043       -51.1411      0.7107506              1
      8515.5000       1375.543         0.6309         0.8152       -50.5436       1.308254              1
      8516.0000       1359.281          0.651          0.823       -50.5465       1.305351              1
      8516.5000       1346.219         0.7007          0.827       -50.5496       1.302254              1
      8517.0000       1335.329         0.7105         0.8329       -50.5531       1.298752              1
      8517.5000       1334.008         0.7403         0.8387       -50.5556       1.296253              1
      8518.0000       1329.341           0.77         0.8387        -49.958       1.893852              1
      8518.5000       1317.365         0.7697         0.8445        -49.961       1.890854              1
      8519.0000       1311.377         0.7789         0.8444       -49.9645       1.887352              1
      8519.5000       1309.587         0.8063         0.8444        -49.967       1.884853              1
      8520.0000       1305.389         0.8288         0.8443         -49.97       1.881851              1
      8520.5000       1321.416         0.8285         0.8415        -49.973       1.878853              1
      8521.0000       1365.269         0.8282         0.8381        -49.976       1.875851              1
      8521.5000       1399.752         0.8366         0.8321        -49.979       1.872852              1
      8522.0000       1419.162         0.8577          0.832        -49.982       1.869854              1
      8522.5000       1419.162         0.8573         0.8259        -49.985       1.866852              1
      8523.0000       1407.186         0.8571         0.8245        -49.988       1.863853              1
      8523.5000       1395.711         0.8567         0.8138       -50.3525       1.499352              1
      8524.0000       1365.269         0.8565         0.8137       -50.5949       1.256954              1
      8524.5000       1317.365         0.8562         0.8136       -50.5976       1.254253              1
      8525.0000       1293.325         0.8559         0.8165       -50.6006       1.251251              1
      8525.5000       1269.461         0.8556         0.8254       -50.9843      0.8675537              1
      8526.0000       1263.473         0.8553         0.8372       -51.2072      0.6446533              1
      8526.5000       1254.013          0.855         0.8492       -51.5983      0.2535515              1
      8527.0000       1244.946         0.8547         0.8669       -51.8138     0.03805161              1
      8527.5000       1239.521         0.8543         0.8791       -51.8168     0.03505325              1
