#------------------------------------------------------------------------------
# Created by    : vladimir.rabinovich
# Created on    : 09/19/2023 17:19:41
#------------------------------------------------------------------------------
~Version Information Section
VERS.           2.0     :   CWLS log ASCII Standard - VERSION 2.0
WRAP.           NO      :   One line per depth step
~Well Information Section
#MNEM       .UNIT                                         VALUE :DESCRIPTION
#------------------------------------------------------------------------------
STRT        .FT                                            1000 :START DEPTH
STOP        .FT                                         10019.5 :STOP DEPTH
STEP        .FT                                             0.5 :STEP      
NULL        .                                           -999.25 :NULL      
COMP        .                                UNION PRODUCING CO :COMPANY   
WELL        .                                            BARROW :WELL      
FLD         .                                           WILDCAT :FIELD     
LOC         .                                                   :LOCATION  
CNTY        .                                          CHAMBERS :LOCATION  
STAT        .                                             TEXAS :STATE     
CTRY        .                                     UNITED STATES :COUNTRY   
SRVC        .                                                   :SERVICE COMPANY
DATE        .                             9/13/2023 11:19:11 AM :LOG DATE  
API         .                                    42071025090000 :API NUMBER
UWI         .                                    42071025090000 :UNIQUE WELL ID
XCOORD      .                                  1126276.26743497 :SURFACE X 
YCOORD      .                                  10763240.3077352 :SURFACE Y 
LAT         .                                        29.6474899 :LATITUDE  
LON         .                                       -94.6189869 :LONGITUDE 
ELEV        .FT                                              18 :ELEVATION VALUE
ELEV_TYPE   .                                                DF :ELEVATION REFERENCE TYPE
~Curve Information Section
#MNEM       .UNIT                                      API CODE :CURVE DESCRIPTION
#------------------------------------------------------------------------------
DEPT        .FT                                                 :DEPTH     
AM64        .OHMM                                               :          
AO18        .OHMM                                               :          
SN16        .OHMM                                               :          
SP          .MV                                                 :          
SP_NORM     .MV                                                 :SP Normalized
VSH_SP      .V/V                                                :Volume of Shale from SP
~A        DEPTH           AM64           AO18           SN16             SP        SP_NORM         VSH_SP
# ...
      9968.0000         1.2121         1.0948         1.2239       -44.1879      -4.681728      0.9605628
      9968.5000         1.2121         1.0944         1.0906       -43.6423      -4.136127      0.9685864
      9969.0000         1.1387          1.094         0.9014        -42.322      -2.815826      0.9880025
      9969.5000         1.0468         1.0937         0.8767       -41.4564       -1.95023              1
      9970.0000         0.9772         1.0933         0.8678       -41.4576      -1.951427              1
      9970.5000         0.9366         1.0929         0.8677        -41.459      -1.952827              1
      9971.0000         0.9258         1.0122         0.8565       -41.4601      -1.953926              1
      9971.5000         0.8815          0.981          0.756       -41.4615      -1.955326              1
      9972.0000         0.8264         0.9053         0.7451       -41.4626      -1.956429              1
      9972.5000         0.8264         0.8691         0.7561        -41.464      -1.957829              1
      9973.0000         0.8264         0.8541         0.8005       -41.4651      -1.958927              1
      9973.5000         0.8815         0.8128         0.8114       -41.4666      -1.960426              1
      9974.0000         0.8815         0.8125         0.8079       -41.4676       -1.96143              1
      9974.5000         0.8815         0.8676         0.7778       -41.4691      -1.962929              1
      9975.0000         0.8815         0.8673         0.7531       -42.0172      -2.511028      0.9924849
      9975.5000         0.8815         0.8668         0.7331       -42.0185      -2.512329      0.9924657
      9976.0000         0.8815         0.9221         0.7455       -42.0198      -2.513626      0.9924467
      9976.5000         0.8815         0.9217         0.7773        -42.021      -2.514828       0.992429
      9977.0000         0.8815         0.9213         0.7998       -42.0223      -2.516129      0.9924099
      9977.5000         0.8815         0.9209          0.827       -41.4762      -1.970028              1
      9978.0000         0.8815         0.9205         0.8325       -41.4777      -1.971527              1
      9978.5000         0.8815         0.9202          0.828       -41.4789      -1.972729              1
      9979.0000         0.9366         0.9198         0.8212       -41.4802       -1.97403              1
      9979.5000         0.9366         0.9194         0.8065       -41.4814      -1.975227              1
      9980.0000         0.9366         0.8634         0.7765       -41.4828      -1.976627              1
      9980.5000         0.9396         0.8075         0.7517       -40.9367      -1.430527              1
      9981.0000         0.9917          0.696         0.7318        -40.938      -1.431828              1
      9981.5000         0.9917         0.6957         0.7206       -40.9392      -1.433029              1
      9982.0000         0.9917         0.6397         0.7204       -40.9407      -1.434528              1
      9982.5000         0.9917         0.6394         0.7203       -40.9417      -1.435528              1
      9983.0000         0.9917         0.6946         0.7202        -40.943      -1.436829              1
      9983.5000         0.9917         0.6941         0.7312       -40.9443      -1.438129              1
      9984.0000         0.9917         0.8049         0.7533       -40.9455      -1.439327              1
      9984.5000         0.9917         0.8601         0.7865       -40.9468      -1.440628              1
      9985.0000         0.9917         0.9804         0.8154        -40.948       -1.44183              1
      9985.5000         0.9917         1.0815         0.8529       -40.9492      -1.443027              1
      9986.0000         0.9917         1.1367         0.8996       -40.9505      -1.444328              1
      9986.5000         0.9917         1.1363         0.9193       -40.9519      -1.445728              1
      9987.0000         0.9366          1.136         0.9303        -40.953      -1.446827              1
      9987.5000         0.9366           1.08         0.9302       -40.9542      -1.448029              1
      9988.0000         0.9354         1.0241         0.9301       -41.0186      -1.512428              1
      9988.5000         0.8815         1.0039         0.9411       -41.5041      -1.997929              1
      9989.0000         0.8815         0.9122         0.9409       -42.0522      -2.546028      0.9919702
      9989.5000         0.8815         0.8972         0.9519       -42.6008      -3.094627      0.9839025
      9990.0000         0.8815         0.8003         0.9518       -42.6018      -3.095627      0.9838879
      9990.5000         0.9366         0.7904         0.9517       -43.1502      -3.644028      0.9758231
      9991.0000         0.9366         0.6884         0.9404       -43.1515      -3.645329       0.975804
      9991.5000         0.9366         0.6836         0.9379       -43.1527      -3.646526      0.9757864
      9992.0000         0.9366         0.6321         0.9291       -43.7011      -4.194927      0.9677216
      9992.5000         0.9366         0.6318          0.929       -43.7023      -4.196129       0.967704
      9993.0000         0.9917         0.6314         0.9177       -43.7036       -4.19743      0.9676849
      9993.5000         0.9917         0.5755         0.9176       -43.5759      -4.069729      0.9695628
      9994.0000         0.9917         0.5751         0.9175       -43.1589      -3.652729      0.9756951
      9994.5000         1.0468         0.5747         0.9173       -43.1602      -3.654026      0.9756761
      9995.0000         1.0468          0.589         0.9705       -42.6143      -3.108128       0.983704
      9995.5000         1.1019         0.6295          1.106       -42.6156      -3.109428      0.9836849
      9996.0000         1.1019         0.6339         1.2562        -42.617      -3.110828      0.9836643
      9996.5000         1.1019         0.6843         1.4057       -42.0709      -2.564728      0.9916952
      9997.0000         1.1019         0.6885          1.818       -42.0722      -2.566029       0.991676
      9997.5000         1.1019         0.7946         2.0388       -42.0735      -2.567329      0.9916569
      9998.0000         1.1019         0.8498          2.108       -42.0747      -2.568527      0.9916393
      9998.5000         1.1019         0.9853         2.1608        -42.076      -2.569828      0.9916202
      9999.0000         1.1186         1.1269         2.1597       -46.6961      -7.189926      0.9236776
      9999.5000         1.2121         1.1265         1.7808       -48.6439       -9.13773      0.8950334
     10000.0000         1.2672         1.1817         1.5715       -48.4846      -8.978428      0.8973761
     10000.5000         1.3223         1.2369         1.5004       -48.0992      -8.593029      0.9030437
     10001.0000         1.3774         1.1253          1.438       -47.3101      -7.803928      0.9146481
     10001.5000         1.3774         1.0694         1.4011       -45.9134      -6.407227      0.9351878
     10002.0000         1.3774         1.0134          1.371       -44.7357      -5.229527       0.952507
     10002.5000         1.3774         0.9575         1.3598       -43.7275      -4.221329      0.9673334
     10003.0000         1.3774         0.9015         1.3486       -43.1341       -3.62793      0.9760599
     10003.5000         1.3774         0.9012         1.3249       -42.6355       -3.12933      0.9833922
     10004.0000         1.3774         0.8453         1.2705       -42.0897      -2.583527      0.9914187
     10004.5000         1.3774         0.8449         1.1698       -42.0909      -2.584728      0.9914011
     10005.0000         1.3774         0.8445         1.1205       -42.0922      -2.586029      0.9913819
     10005.5000         1.3774         0.7886         1.0813       -42.0934      -2.587227      0.9913643
