#------------------------------------------------------------------------------
# Created by    : vladimir.rabinovich
# Created on    : 09/19/2023 17:22:55
#------------------------------------------------------------------------------
~Version Information Section
VERS.           2.0     :   CWLS log ASCII Standard - VERSION 2.0
WRAP.           NO      :   One line per depth step
~Well Information Section
#MNEM       .UNIT                                         VALUE :DESCRIPTION
#------------------------------------------------------------------------------
STRT        .FT                                            1527 :START DEPTH
STOP        .FT                                            8498 :STOP DEPTH
STEP        .FT                                             0.5 :STEP      
NULL        .                                           -999.25 :NULL      
COMP        .                           SAN JUAN EXPLORATION CO :COMPANY   
WELL        .                                MIDDLETON ETAL R M :WELL      
FLD         .                                           WILDCAT :FIELD     
LOC         .                                                   :LOCATION  
CNTY        .                                          CHAMBERS :LOCATION  
STAT        .                                             TEXAS :STATE     
CTRY        .                                     UNITED STATES :COUNTRY   
SRVC        .                                                   :SERVICE COMPANY
DATE        .                             9/13/2023 11:19:11 AM :LOG DATE  
API         .                                    42071022810000 :API NUMBER
UWI         .                                    42071022810000 :UNIQUE WELL ID
XCOORD      .                                  1136491.54221464 :SURFACE X 
YCOORD      .                                  10781024.2027564 :SURFACE Y 
LAT         .                                        29.6967824 :LATITUDE  
LON         .                                       -94.5875983 :LONGITUDE 
ELEV        .FT                                              24 :ELEVATION VALUE
ELEV_TYPE   .                                                DF :ELEVATION REFERENCE TYPE
~Curve Information Section
#MNEM       .UNIT                                      API CODE :CURVE DESCRIPTION
#------------------------------------------------------------------------------
DEPT        .FT                                                 :DEPTH     
LAT         .OHMM                                               :          
LN          .OHMM                                               :          
SN          .OHMM                                               :          
SP          .MV                                                 :          
SP_NORM     .MV                                                 :SP Normalized
VSH_SP      .V/V                                                :Volume of Shale from SP
~A        DEPTH            LAT             LN             SN             SP        SP_NORM         VSH_SP
# ...
      3845.0000         0.4476         0.5455         0.6946       -79.6687      -2.817383      0.9769952
      3845.5000         0.4368         0.5499         0.6895       -80.6736      -3.826111      0.9642264
      3846.0000          0.426         0.5581         0.6757        -81.679      -4.835342      0.9514514
      3846.5000         0.4151         0.5675         0.6619       -82.6844      -5.844574      0.9386763
      3847.0000         0.4028         0.5768         0.6481       -83.6898      -6.853798      0.9259013
      3847.5000         0.3905         0.5862         0.6645       -84.1787      -7.346535      0.9196641
      3848.0000         0.3781         0.5956         0.6901       -83.6898      -6.861458      0.9258043
      3848.5000         0.3658         0.6049         0.7156        -83.201      -6.376488      0.9319432
      3849.0000         0.3535         0.6143         0.7412       -82.5842      -5.763519      0.9397023
      3849.5000         0.3412         0.6255         0.7668       -81.9644      -5.147552      0.9474993
      3850.0000         0.3289         0.6396         0.7924       -81.3444       -4.53138       0.955299
      3850.5000         0.3166         0.6538          0.795        -80.724      -3.914803      0.9631038
      3851.0000         0.3043         0.6679          0.797        -80.104       -3.29863      0.9709034
      3851.5000         0.3034          0.682          0.799       -79.5566      -2.755066       0.977784
      3852.0000         0.3039         0.6962         0.7986       -79.2288      -2.431091      0.9818849
      3852.5000         0.3045         0.7103          0.788        -78.901      -2.107124      0.9859858
      3853.0000          0.305         0.7249         0.7773       -78.5732       -1.78315      0.9900867
      3853.5000         0.3056         0.7413         0.7668       -78.9611      -2.174881      0.9851281
      3854.0000         0.3061         0.7578         0.8032        -80.099      -3.316612      0.9706758
      3854.5000         0.3472         0.7742         0.8503       -81.2363      -4.457741      0.9562311
      3855.0000         0.3942         0.7907         0.8975       -83.1882      -6.413475       0.931475
      3855.5000         0.4401         0.8071         0.9447       -85.9758      -9.204903      0.8961405
      3856.0000         0.4318         0.8236         0.9919       -90.7404      -13.97334      0.8357806
      3856.5000         0.4235         0.8414         1.0391       -93.7477      -16.98447       0.797665
      3857.0000         0.4152         0.8595         1.0059       -96.0144      -19.25499      0.7689242
      3857.5000         0.4069         0.8777         0.9792       -95.3396      -18.58402      0.7774174
      3858.0000         0.3986         0.8958          0.954       -92.7128      -15.96105      0.8106196
      3858.5000         0.3903          0.914         0.9288       -86.1956      -9.447685      0.8930673
      3859.0000         0.3959         0.9318         0.9131       -79.2729      -2.528816      0.9806479
      3859.5000         0.4203         0.9417         0.9273       -76.0778      0.6624603              1
      3860.0000         0.4448         0.9515         0.9336       -73.6904       3.046028              1
      3860.5000         0.4692         0.9614         0.9303        -72.501       4.231598              1
      3861.0000         0.4936         0.9713         0.9271       -71.3115       5.417267              1
      3861.5000         0.5064         0.9812         0.9238       -71.5369       5.188034              1
      3862.0000          0.519         0.9911         0.9205         -71.97       4.751106              1
      3862.5000         0.5315         1.0009         0.9167       -72.4027       4.314575              1
      3863.0000         0.5441          1.009         0.9068       -72.6626       4.050858              1
      3863.5000         0.5567         1.0171         0.8969       -72.8452       3.864426              1
      3864.0000         0.5692         1.0252          0.887       -73.0277       3.678093              1
      3864.5000         0.5927         1.0333         0.8803       -73.2103       3.491669              1
      3865.0000         0.6169         1.0414         0.9014       -73.3929       3.305237              1
      3865.5000         0.6411         1.0496         0.9225       -73.4979       3.196404              1
      3866.0000         0.6652         1.0577         0.9437       -73.1104       3.580078              1
      3866.5000         0.7264         1.0725         1.0062       -72.7231       3.963547              1
      3867.0000         0.7918         1.0881         1.1087       -72.3357       4.347115              1
      3867.5000         0.8573         1.1038         1.2647       -71.9485       4.730484              1
      3868.0000         0.9124         1.1194         1.3268       -71.5609       5.114258              1
      3868.5000         0.9523         1.1351         1.3739       -71.1737       5.497627              1
      3869.0000         0.9922          1.151         1.4218       -70.6927       5.974792              1
      3869.5000         1.0321          1.157         1.4717       -69.8702       6.793465              1
      3870.0000         1.0728          1.061         1.5099       -69.0482       7.611633              1
      3870.5000         1.1185         0.9601         1.5341       -68.2262        8.42981              1
      3871.0000         1.1643         0.8495          1.528       -67.5214       9.130775              1
      3871.5000           1.21         0.7132         1.5062       -68.3185       8.329849              1
      3872.0000         1.2557         0.6409         1.4845        -69.115       7.529518              1
      3872.5000         1.3118         0.6345         1.4055       -69.9121       6.728584              1
      3873.0000         1.3697         0.6281         1.3001       -70.7092       5.927658              1
      3873.5000         1.4275         0.6204         1.2222       -70.0887       6.544327              1
      3874.0000         1.4853         0.6125         1.1686       -69.2927       7.336494              1
      3874.5000         1.5997         0.6046          1.115       -69.9036       6.721764              1
      3875.0000         1.7159         0.5967          1.075       -71.8013       4.820236              1
      3875.5000         1.8878         0.5888         1.0577       -73.7034       2.914314              1
      3876.0000         2.0532         0.5702         1.0404       -75.6305      0.9833832              1
      3876.5000         2.2152         0.5499         1.0231       -77.5587     -0.9486465              1
      3877.0000         2.2318         0.5297         1.0058       -78.3938      -1.787575      0.9900307
      3877.5000         2.1804         0.5094         0.9721       -78.7844      -2.182007      0.9850379
      3878.0000          2.129         0.4891         0.9347       -79.1753      -2.576736      0.9800413
      3878.5000           1.96         0.4672         0.8973        -78.246      -1.651268      0.9917561
      3879.0000         1.7692         0.4452         0.8418        -76.859     -0.2680969              1
      3879.5000         1.5542         0.4231         0.7639       -75.4517       1.135376              1
      3880.0000         1.3103         0.4011         0.7273       -73.8937       2.689545              1
      3880.5000         1.1709         0.3865         0.6967       -72.2938       4.285614              1
      3881.0000         1.1112         0.3866          0.666       -70.8625       5.713081              1
      3881.5000         1.1454         0.3867          0.648       -69.6578       6.913956              1
      3882.0000         1.1796         0.3892         0.6352       -68.7202       7.847725              1
      3882.5000         1.2139         0.4051         0.6224       -68.5372       8.026894              1
