#------------------------------------------------------------------------------
# Created by    : vladimir.rabinovich
# Created on    : 09/19/2023 17:22:55
#------------------------------------------------------------------------------
~Version Information Section
VERS.           2.0     :   CWLS log ASCII Standard - VERSION 2.0
WRAP.           NO      :   One line per depth step
~Well Information Section
#MNEM       .UNIT                                         VALUE :DESCRIPTION
#------------------------------------------------------------------------------
STRT        .FT                                            1527 :START DEPTH
STOP        .FT                                            8498 :STOP DEPTH
STEP        .FT                                             0.5 :STEP      
NULL        .                                           -999.25 :NULL      
COMP        .                           SAN JUAN EXPLORATION CO :COMPANY   
WELL        .                                MIDDLETON ETAL R M :WELL      
FLD         .                                           WILDCAT :FIELD     
LOC         .                                                   :LOCATION  
CNTY        .                                          CHAMBERS :LOCATION  
STAT        .                                             TEXAS :STATE     
CTRY        .                                     UNITED STATES :COUNTRY   
SRVC        .                                                   :SERVICE COMPANY
DATE        .                             9/13/2023 11:19:11 AM :LOG DATE  
API         .                                    42071022810000 :API NUMBER
UWI         .                                    42071022810000 :UNIQUE WELL ID
XCOORD      .                                  1136491.54221464 :SURFACE X 
YCOORD      .                                  10781024.2027564 :SURFACE Y 
LAT         .                                        29.6967824 :LATITUDE  
LON         .                                       -94.5875983 :LONGITUDE 
ELEV        .FT                                              24 :ELEVATION VALUE
ELEV_TYPE   .                                                DF :ELEVATION REFERENCE TYPE
~Curve Information Section
#MNEM       .UNIT                                      API CODE :CURVE DESCRIPTION
#------------------------------------------------------------------------------
DEPT        .FT                                                 :DEPTH     
LAT         .OHMM                                               :          
LN          .OHMM                                               :          
SN          .OHMM                                               :          
SP          .MV                                                 :          
SP_NORM     .MV                                                 :SP Normalized
VSH_SP      .V/V                                                :Volume of Shale from SP
~A        DEPTH            LAT             LN             SN             SP        SP_NORM         VSH_SP
# ...
      3389.0000         0.3263          0.294         0.4465      -157.8193      -75.72598              0
      3389.5000         0.2851         0.2758         0.4031      -157.2141      -75.12962              0
      3390.0000         0.2828         0.2575         0.3724       -156.447       -74.3714    0.008494609
      3390.5000         0.2954         0.2208         0.3614      -155.6799      -73.61315      0.0187412
      3391.0000         0.3359         0.1802         0.3504      -154.2437      -72.18581     0.03802954
      3391.5000         0.3873         0.1395         0.3394      -142.9709      -60.92188      0.1902449
      3392.0000         0.4387         0.1128         0.3284      -121.5444      -39.50423      0.4796725
      3392.5000         0.4901         0.1248         0.3174      -114.6875       -32.6562      0.5722135
      3393.0000         0.5396         0.1368         0.3165      -105.8446      -23.82215      0.6915926
      3393.5000         0.5838         0.1488         0.3281       -102.124      -20.11042      0.7417511
      3394.0000         0.6281         0.1608         0.3396      -109.6648      -27.66008      0.6397287
      3394.5000         0.5975         0.1727         0.3512      -116.2772      -34.28133      0.5502523
      3395.0000         0.5284         0.1847         0.3627      -143.0889       -61.1019      0.1878122
      3395.5000         0.4593         0.1958         0.3743      -155.0884      -73.11025     0.02553713
      3396.0000         0.3902          0.199         0.4017      -155.8481      -73.87882     0.01515105
      3396.5000         0.3517         0.2022         0.4315      -154.3999      -72.43948     0.03460157
      3397.0000         0.3253         0.2054         0.4612      -153.3877      -71.43613     0.04816035
      3397.5000         0.2988         0.2087         0.4909      -152.3755      -70.43281     0.06171881
      3398.0000         0.2724         0.2119         0.5195       -153.116      -71.18216     0.05159244
      3398.5000          0.246         0.2151         0.5481      -154.7681      -72.84312     0.02914697
      3399.0000         0.2279         0.2104          0.557      -156.4199      -74.50379    0.006705516
      3399.5000         0.2254         0.1991         0.5455      -157.8738      -75.96654              0
      3400.0000         0.2229         0.1878         0.5258      -159.3152      -77.41681              0
      3400.5000         0.2203         0.1765         0.5052      -159.4204      -77.53086              0
      3401.0000         0.2178         0.1652         0.4846       -158.042      -76.16134              0
      3401.5000         0.2153         0.1539         0.4639      -155.7292      -73.85739     0.01544066
      3402.0000         0.2327         0.1538         0.4433      -152.8806      -71.01765     0.05381558
      3402.5000         0.2615         0.1565         0.4227      -148.5259      -66.67181      0.1125432
      3403.0000         0.2902         0.1592         0.4052      -144.5493      -62.70407      0.1661612
      3403.5000         0.3189         0.1619         0.3877      -141.6191      -59.78273      0.2056388
      3404.0000         0.3476         0.1646         0.3703      -138.7681      -56.94059      0.2440461
      3404.5000         0.3764         0.1682         0.3528      -136.2229      -54.40425      0.2783209
      3405.0000          0.404         0.1749         0.3354      -134.4192      -52.60942      0.3025754
      3405.5000         0.4291         0.1816         0.3314      -137.9348      -56.13387      0.2549477
      3406.0000         0.4463         0.1883         0.3454      -143.9436      -62.15154      0.1736278
      3406.5000         0.4085         0.1949         0.3595      -146.4629       -64.6797      0.1394635
      3407.0000         0.3708         0.2016         0.3719      -147.0334      -65.25906      0.1316344
      3407.5000          0.333         0.2083         0.3841      -147.8374      -66.07192      0.1206497
      3408.0000         0.2952          0.215         0.3963      -149.7612      -68.00458     0.09453274
      3408.5000         0.2575         0.2217         0.4084      -151.4414      -69.69365     0.07170744
      3409.0000         0.2346         0.2242         0.4206       -152.936      -71.19711     0.05139047
      3409.5000         0.2231         0.2223         0.4321      -153.9392      -72.20915     0.03771416
      3410.0000         0.2116         0.2204         0.4437      -154.6501      -72.92892     0.02798751
      3410.5000         0.2001         0.2185         0.4553      -155.3613      -73.64898     0.01825704
      3411.0000         0.1886         0.2166         0.4668      -155.2073      -73.50385      0.0202182
      3411.5000         0.1771         0.2147         0.4784      -154.9282      -73.23361     0.02387011
      3412.0000         0.1837         0.2129         0.4883      -154.6492      -72.96346     0.02752077
      3412.5000         0.2015          0.211         0.4835      -154.3704      -72.69353     0.03116845
      3413.0000         0.2193         0.2091         0.4786      -153.6052      -71.93718     0.04138947
      3413.5000         0.2371         0.2077         0.4737      -152.2896      -70.63045     0.05904801
      3414.0000         0.2549         0.2074         0.4689      -150.9731      -69.32281     0.07671882
      3414.5000         0.2728          0.207         0.4553      -149.6558      -68.01437     0.09440035
      3415.0000         0.2877         0.2066         0.4386      -147.1367      -65.50414      0.1283225
      3415.5000         0.2994         0.2062         0.4219      -143.9788      -62.35509      0.1708771
      3416.0000         0.3062         0.2058         0.4052      -140.0771      -58.46225      0.2234831
      3416.5000         0.3012         0.2054         0.3885      -137.6614      -56.05542      0.2560079
      3417.0000         0.2961          0.205         0.4004      -136.4963      -54.89918      0.2716327
      3417.5000         0.2911         0.2168         0.4328      -135.4399      -53.85163      0.2857888
      3418.0000          0.286         0.2313         0.4653      -137.8262       -56.2468      0.2534217
      3418.5000         0.2973         0.2459         0.4977      -147.5408      -65.97025      0.1220236
      3419.0000         0.3402         0.2605         0.5302       -150.958      -69.39631     0.07572556
      3419.5000         0.3831         0.2751         0.5344      -152.3733      -70.82048     0.05647999
      3420.0000         0.3951         0.2897         0.5312      -153.4873      -71.94334     0.04130616
      3420.5000         0.3549         0.3043          0.518      -154.2556       -72.7205     0.03080409
      3421.0000         0.3148         0.3055         0.4982      -154.9934      -73.46715     0.02071422
      3421.5000         0.2825         0.3043         0.4784      -155.5793      -74.06192     0.01267675
      3422.0000         0.2621         0.3026         0.4587      -155.8938      -74.38528     0.00830707
      3422.5000         0.2417         0.2941         0.4389      -154.4749      -72.97524     0.02736159
      3423.0000         0.2213         0.2856         0.4191      -153.0085       -71.5177     0.04705811
      3423.5000         0.2009         0.2771         0.3998      -151.4402      -69.95826     0.06813163
      3424.0000         0.1945         0.2685         0.3867      -149.0376      -67.56452      0.1004794
      3424.5000         0.2062           0.26         0.3737      -146.6418      -65.17758      0.1327354
      3425.0000          0.218         0.2515         0.3606      -145.2559      -63.80055      0.1513439
      3425.5000         0.2297          0.243         0.3475      -147.0801       -65.6336       0.126573
      3426.0000         0.2423         0.2372         0.3344      -145.1677      -63.73006      0.1522965
      3426.5000         0.2651         0.2338         0.3345      -139.4746      -58.04582      0.2291105
