#------------------------------------------------------------------------------
# Created by    : vladimir.rabinovich
# Created on    : 09/19/2023 17:22:55
#------------------------------------------------------------------------------
~Version Information Section
VERS.           2.0     :   CWLS log ASCII Standard - VERSION 2.0
WRAP.           NO      :   One line per depth step
~Well Information Section
#MNEM       .UNIT                                         VALUE :DESCRIPTION
#------------------------------------------------------------------------------
STRT        .FT                                            1527 :START DEPTH
STOP        .FT                                            8498 :STOP DEPTH
STEP        .FT                                             0.5 :STEP      
NULL        .                                           -999.25 :NULL      
COMP        .                           SAN JUAN EXPLORATION CO :COMPANY   
WELL        .                                MIDDLETON ETAL R M :WELL      
FLD         .                                           WILDCAT :FIELD     
LOC         .                                                   :LOCATION  
CNTY        .                                          CHAMBERS :LOCATION  
STAT        .                                             TEXAS :STATE     
CTRY        .                                     UNITED STATES :COUNTRY   
SRVC        .                                                   :SERVICE COMPANY
DATE        .                             9/13/2023 11:19:11 AM :LOG DATE  
API         .                                    42071022810000 :API NUMBER
UWI         .                                    42071022810000 :UNIQUE WELL ID
XCOORD      .                                  1136491.54221464 :SURFACE X 
YCOORD      .                                  10781024.2027564 :SURFACE Y 
LAT         .                                        29.6967824 :LATITUDE  
LON         .                                       -94.5875983 :LONGITUDE 
ELEV        .FT                                              24 :ELEVATION VALUE
ELEV_TYPE   .                                                DF :ELEVATION REFERENCE TYPE
~Curve Information Section
#MNEM       .UNIT                                      API CODE :CURVE DESCRIPTION
#------------------------------------------------------------------------------
DEPT        .FT                                                 :DEPTH     
LAT         .OHMM                                               :          
LN          .OHMM                                               :          
SN          .OHMM                                               :          
SP          .MV                                                 :          
SP_NORM     .MV                                                 :SP Normalized
VSH_SP      .V/V                                                :Volume of Shale from SP
~A        DEPTH            LAT             LN             SN             SP        SP_NORM         VSH_SP
# ...
      6125.0000         0.2563          0.305         0.6873      -155.8777       -86.7419     0.02566025
      6125.5000         0.2654         0.3034         0.7028       -156.207       -87.0712     0.02191821
      6126.0000         0.2745         0.3004         0.7184      -156.5369      -87.40109      0.0181694
      6126.5000         0.2837         0.2952         0.7202      -156.2959       -87.1601     0.02090801
      6127.0000         0.2953           0.29          0.703      -155.6589       -86.5231     0.02814657
      6127.5000         0.3116         0.2849         0.6859      -155.0215       -85.8857     0.03538981
      6128.0000         0.3278         0.2797         0.6688      -154.4536      -85.31779     0.04184324
      6128.5000         0.3442         0.2745         0.6517       -153.905       -84.7692     0.04807732
      6129.0000         0.3605         0.2694         0.6359      -153.3569       -84.2211     0.05430568
      6129.5000         0.3768         0.2642         0.6337      -152.8081       -83.6723     0.06054202
      6130.0000          0.393          0.259         0.6315      -152.2595       -83.1237      0.0667761
      6130.5000         0.4091         0.2559         0.6292      -151.8364      -82.70059     0.07158418
      6131.0000         0.4246         0.2539         0.6403      -152.0718      -82.93599     0.06890921
      6131.5000           0.44          0.252         0.6641      -152.3074       -83.1716     0.06623182
      6132.0000         0.4425           0.25         0.6878       -152.543       -83.4072     0.06355459
      6132.5000         0.4103          0.248         0.7115      -152.7783       -83.6425     0.06088066
      6133.0000         0.3782          0.246         0.7353      -153.0139       -83.8781     0.05820344
      6133.5000          0.346          0.244         0.7564      -153.4277       -84.2919     0.05350113
      6134.0000         0.3138          0.242         0.7532        -153.95      -84.81419     0.04756598
      6134.5000         0.3003         0.2432         0.7499      -154.4717      -85.33589      0.0416376
      6135.0000         0.3009         0.2476         0.7467      -154.9939      -85.85809     0.03570348
      6135.5000         0.3015         0.2519         0.7291      -155.5164       -86.3806     0.02976591
      6136.0000         0.3022         0.2562         0.6983      -156.0386       -86.9028      0.0238318
      6136.5000         0.3028         0.2605         0.6675      -156.5198        -87.384     0.01836361
      6137.0000         0.3031         0.2648         0.6367      -156.7271      -87.59129     0.01600803
      6137.5000         0.3022         0.2691         0.6059      -156.9341      -87.79829     0.01365575
      6138.0000         0.3012          0.272         0.5833      -157.1414       -88.0056         0.0113
      6138.5000         0.3002         0.2723         0.5626      -157.3484       -88.2126    0.008947719
      6139.0000         0.2992         0.2726          0.542      -156.8093      -87.67349     0.01507395
      6139.5000         0.2982         0.2729         0.5213      -155.7253      -86.58949     0.02739213
      6140.0000         0.2972         0.2732         0.5006      -154.6414       -85.5056     0.03970909
      6140.5000         0.2962         0.2735         0.4964      -153.0002       -83.8644     0.05835915
      6141.0000         0.2934         0.2738         0.4946      -152.1106      -82.97479     0.06846827
      6141.5000         0.2894         0.2737         0.4928      -153.0823       -83.9465     0.05742611
      6142.0000         0.2853         0.2719         0.4911      -153.7725       -84.6367     0.04958291
      6142.5000         0.2813         0.2701          0.492      -154.4626       -85.3268     0.04174094
      6143.0000         0.2772         0.2684         0.4991      -155.1531       -86.0173     0.03389428
      6143.5000         0.2732         0.2666         0.5063      -155.8433       -86.7075     0.02605109
      6144.0000         0.2691         0.2648         0.5134      -156.5339       -87.3981     0.01820339
      6144.5000         0.2723          0.263         0.5206      -157.2244      -88.08859      0.0103569
      6145.0000         0.2852         0.2619         0.5277      -157.4585      -88.32269    0.007696672
      6145.5000         0.2981         0.2627         0.5623      -157.4602       -88.3244    0.007677251
      6146.0000          0.311         0.2635         0.5992      -157.4622       -88.3264    0.007654537
      6146.5000         0.2953         0.2643         0.6487        -157.23      -88.09419     0.01029327
      6147.0000         0.2729         0.2651         0.6267      -156.7485       -87.6127     0.01576476
      6147.5000         0.2504          0.266         0.5921      -156.2673       -87.1315     0.02123295
      6148.0000          0.228         0.2668         0.5576      -155.7859       -86.6501      0.0267034
      6148.5000         0.2183         0.2677         0.5296      -155.3047       -86.1689      0.0321716
      6149.0000          0.223          0.269         0.5019      -155.0396      -85.90379     0.03518417
      6149.5000         0.2276         0.2702         0.4742       -155.342      -86.20619     0.03174782
      6150.0000         0.2323         0.2715         0.4465      -155.6443       -86.5085     0.02831251
      6150.5000         0.2369         0.2727         0.4188      -155.9468      -86.81099     0.02487512
      6151.0000         0.2383          0.274         0.3911      -156.2493      -87.11349     0.02143756
      6151.5000         0.2392         0.2752         0.3704      -156.7329      -87.59709     0.01594214
      6152.0000         0.2401         0.2765         0.3535      -157.2827       -88.1469    0.009694359
      6152.5000          0.241         0.2779         0.3365       -157.833      -88.69719     0.00344103
      6153.0000         0.2419         0.2792         0.3196      -158.3828      -89.24699              0
      6153.5000         0.2428         0.2806         0.3026      -158.9087       -89.7729              0
      6154.0000         0.2436          0.282         0.3051      -157.3696       -88.2338    0.008706873
      6154.5000         0.2441         0.2834         0.3094      -156.1521       -87.0163     0.02254209
      6155.0000         0.2401         0.2848         0.3137      -155.4585      -86.32269     0.03042394
      6155.5000         0.2361         0.2861          0.318      -154.7654      -85.62959     0.03830008
      6156.0000         0.2321         0.2874         0.3223      -154.0723      -84.93649     0.04617622
      6156.5000         0.2281         0.2887         0.3266      -152.9226       -83.7868     0.05924086
      6157.0000         0.2241           0.29         0.3252      -151.6277       -82.4919     0.07395571
      6157.5000         0.2201         0.2913          0.319      -149.1228        -79.987      0.1024205
      6158.0000         0.2161         0.2926         0.3127       -146.104       -76.9682       0.136725
      6158.5000         0.2121         0.2939         0.3064      -145.6865      -76.55069      0.1414694
      6159.0000         0.2182         0.2952         0.3001      -145.2693       -76.1335      0.1462102
      6159.5000         0.2252         0.2978         0.2939      -144.8521      -75.71629      0.1509512
      6160.0000         0.2321         0.3004         0.2876      -144.0928        -74.957      0.1595795
      6160.5000         0.2391          0.303          0.293      -143.2693       -74.1335      0.1689375
      6161.0000         0.2461         0.3056         0.2984       -142.447       -73.3112      0.1782818
      6161.5000         0.2531         0.3082         0.3039      -141.1182      -71.98239      0.1933819
      6162.0000         0.2601         0.3108         0.3471      -139.4717      -70.33589      0.2120921
      6162.5000         0.2671         0.3161         0.3992       -137.825      -68.68919      0.2308046
