#------------------------------------------------------------------------------
# Created by    : vladimir.rabinovich
# Created on    : 09/19/2023 17:22:50
#------------------------------------------------------------------------------
~Version Information Section
VERS.           2.0     :   CWLS log ASCII Standard - VERSION 2.0
WRAP.           NO      :   One line per depth step
~Well Information Section
#MNEM       .UNIT                                         VALUE :DESCRIPTION
#------------------------------------------------------------------------------
STRT        .FT                                          1999.5 :START DEPTH
STOP        .FT                                            9645 :STOP DEPTH
STEP        .FT                                             0.5 :STEP      
NULL        .                                           -999.25 :NULL      
COMP        .                          STANDARD OIL CO OF TEXAS :COMPANY   
WELL        .                                  STATE TRACT 1-4D :WELL      
FLD         .                                           WILDCAT :FIELD     
LOC         .                                                   :LOCATION  
CNTY        .                                          CHAMBERS :LOCATION  
STAT        .                                             TEXAS :STATE     
CTRY        .                                     UNITED STATES :COUNTRY   
SRVC        .                                                   :SERVICE COMPANY
DATE        .                             9/13/2023 11:19:11 AM :LOG DATE  
API         .                                    42071032270000 :API NUMBER
UWI         .                                    42071032270000 :UNIQUE WELL ID
XCOORD      .                                  1086986.65859336 :SURFACE X 
YCOORD      .                                  10762945.0682871 :SURFACE Y 
LAT         .                                        29.6451099 :LATITUDE  
LON         .                                       -94.7426468 :LONGITUDE 
ELEV        .FT                                              20 :ELEVATION VALUE
ELEV_TYPE   .                                                DF :ELEVATION REFERENCE TYPE
~Curve Information Section
#MNEM       .UNIT                                      API CODE :CURVE DESCRIPTION
#------------------------------------------------------------------------------
DEPT        .FT                                                 :DEPTH     
DT          .US/F                                               :          
IND         .OHMM                                               :          
SN          .OHMM                                               :          
SP          .MV                                                 :          
SP_NORM     .MV                                                 :SP Normalized
VSH_SP      .V/V                                                :Volume of Shale from SP
~A        DEPTH             DT            IND             SN             SP        SP_NORM         VSH_SP
      1999.5000        -999.25         2.9663        -999.25        -999.25        -999.25        -999.25
      2000.0000       124.0333         2.8605          1.098       -37.2549        2.25127              1
      2000.5000       107.6426         2.4542          1.098       -38.4314       1.074772              1
      2001.0000         91.252         2.0322          1.098            -40     -0.4938278              1
      2001.5000        74.8614         1.2575          1.098            -40     -0.4938278              1
      2002.0000        55.3535          1.041         1.1176            -40     -0.4938278              1
      2002.5000        84.2289         0.9175         1.1412       -40.3922     -0.8860283              1
      2003.0000       119.8858         0.9955         1.1608       -40.3922     -0.8860283              1
      2003.5000       152.1813         1.3253         1.1804       -40.3922     -0.8860283              1
      2004.0000       179.7439         1.3996            1.2       -40.3922     -0.8860283              1
      2004.5000       207.3065         1.2145          1.212       -40.3922     -0.8860283              1
      2005.0000       239.7276         0.9946          1.216            -40     -0.4938278              1
      2005.5000        81.3358         0.9206          1.224            -40     -0.4938278              1
      2006.0000       156.9813         0.9212           1.24            -40     -0.4938278              1
      2006.5000       166.5017         0.9218          1.256            -40     -0.4938278              1
      2007.0000       138.1197         0.9224          1.272            -40     -0.4938278              1
      2007.5000       109.7377         0.9384          1.292       -39.6078     -0.1016273              1
      2008.0000        82.2807          0.939          1.304       -39.6078     -0.1016273              1
      2008.5000        77.0014          0.955          1.316       -39.6078     -0.1016273              1
      2009.0000        76.2113         0.9555          1.324       -39.6078     -0.1016273              1
      2009.5000         77.324          0.956          1.336       -42.3529      -2.846729      0.9711449
      2010.0000       102.1485         0.9566          1.344       -43.1373      -3.631126      0.9588886
      2010.5000       126.9731         0.9571          1.348       -43.9216      -4.415428      0.9466339
      2011.0000       151.7976         0.9617          1.348       -44.7059      -5.199726      0.9343793
      2011.5000       180.2464         0.9945          1.344       -45.4902      -5.984028      0.9221246
      2012.0000       185.9159         1.0338           1.34       -45.8824      -6.376228      0.9159964
      2012.5000       195.0946         1.0833          1.348       -45.8824      -6.376228      0.9159964
      2013.0000       190.9176         1.1329          1.372        -45.098      -5.591827      0.9282527
      2013.5000       186.3294         1.2085         1.4078       -43.9216      -4.415428      0.9466339
      2014.0000       177.4373           1.24         1.4157       -42.3529      -2.846729      0.9711449
      2014.5000       174.7236         1.2716         1.4353       -42.3529      -2.846729      0.9711449
      2015.0000       172.0099         1.2721         1.4549       -46.2745       -6.76833      0.9098698
      2015.5000       166.6303         1.3036         1.4784       -47.0588      -7.552628      0.8976152
      2016.0000       158.6332         1.3206          1.502       -47.0588      -7.551888      0.8976268
      2016.5000       154.5147         1.3667         1.5255       -45.8824      -6.372078      0.9160613
      2017.0000        154.177         1.3983         1.5451       -44.7059      -5.192162      0.9344975
      2017.5000        153.654         1.4298         1.5647       -44.7059      -5.188747      0.9345508
      2018.0000       152.3198         1.4363         1.5804       -44.7059      -5.185333      0.9346042
      2018.5000       152.9379         1.4535         1.5961       -44.7059      -5.181923      0.9346575
      2019.0000        154.355         1.4625          1.612       -45.8824      -6.355011       0.916328
      2019.5000       155.4118         1.4786          1.624       -46.2745      -6.743698      0.9102547
      2020.0000       155.1018         1.4791          1.632       -47.0588      -7.524582      0.8980534
      2020.5000       154.9858         1.4641          1.636       -47.8431      -8.305473       0.885852
      2021.0000        155.126         1.4337          1.636       -47.8431      -8.302059      0.8859053
      2021.5000       157.9617         1.3722           1.62       -48.6275      -9.083042      0.8737025
      2022.0000       158.5019         1.3255         1.5961       -48.6275      -9.079632      0.8737558
      2022.5000       157.2686         1.2616         1.5608       -45.8824       -6.33112      0.9167013
      2023.0000        152.933         1.2004         1.5294       -42.7451      -3.190403       0.965775
      2023.5000       149.3799         1.1687         1.4784       -39.6078    -0.04969025              1
      2024.0000       147.1026          1.137         1.4392       -40.7843      -1.222782       0.996519
      2024.5000       147.2856         1.1208         1.4353       -41.9608      -2.395866      0.9781896
      2025.0000       150.9907         1.1124         1.4275       -43.1373      -3.568951      0.9598601
      2025.5000        157.116         1.1129         1.4275       -43.9216      -4.349838      0.9476588
      2026.0000       161.6691         1.1135         1.4275       -44.7059      -5.130726      0.9354574
      2026.5000       161.8527         1.1141         1.4275        -45.098      -5.519413      0.9293842
      2027.0000       161.2774         1.1301         1.4353       -45.8824        -6.3004      0.9171813
      2027.5000        160.198         1.1461         1.4392       -46.2745      -6.689087       0.911108
      2028.0000       159.0136         1.1621         1.4549       -46.6667      -7.077873      0.9050332
      2028.5000       158.8049         1.2101         1.4745        -47.451      -7.858761      0.8928319
      2029.0000       160.1963         1.2429         1.4941       -49.0196      -9.423946      0.8683758
      2029.5000       164.1988         1.2602         1.5137       -48.2353      -8.636234      0.8806838
      2030.0000       164.9904         1.2728         1.5294       -49.8039      -10.20142      0.8562278
      2030.5000       158.6479         1.2734          1.549       -51.7647      -12.15881      0.8256436
      2031.0000       150.5664         1.2739         1.5686       -58.8235       -19.2142      0.7154032
      2031.5000       141.9931         1.2745         1.5882       -63.1373      -23.52458      0.6480534
      2032.0000       133.4198         1.2906         1.5922       -65.8824      -26.26627      0.6052145
      2032.5000       128.1739         1.2911         1.5882       -69.0196      -29.40005      0.5562491
      2033.0000       126.3807         1.2761         1.5647       -73.3333      -33.71034       0.488901
      2033.5000       126.2395         1.2146         1.5412       -76.8627      -37.23633      0.4338073
      2034.0000       127.0895         1.1376         1.4314       -81.9608      -42.33102      0.3542029
      2034.5000       133.0719         0.9974          1.348       -85.4902        -45.857      0.2991094
      2035.0000       139.4759         0.8534           1.28       -88.2353      -48.59869      0.2562705
      2035.5000       143.5612         0.7504            1.2       -89.8039      -50.16388      0.2318144
      2036.0000       146.6626         0.5851         1.0941       -93.3333      -53.68986      0.1767209
      2036.5000       148.6082         0.5304          1.051       -96.4706      -56.82375       0.127754
      2037.0000        149.128         0.4767         1.0196       -96.8627      -57.21244      0.1216806
