#------------------------------------------------------------------------------
# Created by    : vladimir.rabinovich
# Created on    : 09/19/2023 17:22:53
#------------------------------------------------------------------------------
~Version Information Section
VERS.           2.0     :   CWLS log ASCII Standard - VERSION 2.0
WRAP.           NO      :   One line per depth step
~Well Information Section
#MNEM       .UNIT                                         VALUE :DESCRIPTION
#------------------------------------------------------------------------------
STRT        .FT                                            1498 :START DEPTH
STOP        .FT                                           11000 :STOP DEPTH
STEP        .FT                                             0.5 :STEP      
NULL        .                                           -999.25 :NULL      
COMP        .                                     CANNAN MORRIS :COMPANY   
WELL        .                                             GARTH :WELL      
FLD         .                                           WILDCAT :FIELD     
LOC         .                                                   :LOCATION  
CNTY        .                                          CHAMBERS :LOCATION  
STAT        .                                             TEXAS :STATE     
CTRY        .                                     UNITED STATES :COUNTRY   
SRVC        .                                                   :SERVICE COMPANY
DATE        .                             9/13/2023 11:19:11 AM :LOG DATE  
API         .                                    42071310360000 :API NUMBER
UWI         .                                    42071310360000 :UNIQUE WELL ID
XCOORD      .                                  1175356.83007784 :SURFACE X 
YCOORD      .                                  10818692.0839896 :SURFACE Y 
LAT         .                                        29.8017803 :LATITUDE  
LON         .                                       -94.4666967 :LONGITUDE 
ELEV        .FT                                              25 :ELEVATION VALUE
ELEV_TYPE   .                                                GL :ELEVATION REFERENCE TYPE
~Curve Information Section
#MNEM       .UNIT                                      API CODE :CURVE DESCRIPTION
#------------------------------------------------------------------------------
DEPT        .FT                                                 :DEPTH     
ILD         .OHMM                                               :          
SFL         .OHMM                                               :          
SP          .MV                                                 :          
SP_NORM     .MV                                                 :SP Normalized
VSH_SP      .V/V                                                :Volume of Shale from SP
~A        DEPTH            ILD            SFL             SP        SP_NORM         VSH_SP
# ...
      9682.0000         0.3567          0.465          0.187          0.187              1
      9682.5000         0.3601         0.4675         0.2143         0.2143              1
      9683.0000         0.3635           0.47         0.2416         0.2416              1
      9683.5000         0.3669         0.4725         0.2689         0.2689              1
      9684.0000         0.3703         0.4748         0.2962         0.2962              1
      9684.5000         0.3737         0.4738         0.3234         0.3234              1
      9685.0000         0.3773         0.4728         0.3354         0.3354              1
      9685.5000         0.3831         0.4718         0.3474         0.3474              1
      9686.0000         0.3888         0.4707         0.3594         0.3594              1
      9686.5000         0.3945         0.4707         0.3714         0.3714              1
      9687.0000         0.4003         0.4716         0.3835         0.3835              1
      9687.5000          0.406         0.4725         0.3955         0.3955              1
      9688.0000          0.415         0.4734         0.4075         0.4075              1
      9688.5000         0.4248         0.4832         0.4195         0.4195              1
      9689.0000         0.4346         0.4953         0.4315         0.4315              1
      9689.5000         0.4444         0.5097         0.4436         0.4436              1
      9690.0000         0.4542         0.5314         0.4565         0.4565              1
      9690.5000          0.464          0.553         0.4707         0.4707              1
      9691.0000          0.468         0.5746          0.485          0.485              1
      9691.5000         0.4714         0.6025         0.4992         0.4992              1
      9692.0000         0.4748         0.6456         0.5134         0.5134              1
      9692.5000         0.4782         0.6673         0.5276         0.5276              1
      9693.0000         0.4816         0.6436         0.5418         0.5418              1
      9693.5000         0.4829         0.6292          0.556          0.556              1
      9694.0000         0.4807         0.6148         0.5702         0.5702              1
      9694.5000         0.4785         0.6005          0.575          0.575              1
      9695.0000         0.4764         0.5861         0.5431         0.5431              1
      9695.5000         0.4742         0.5717         0.5111         0.5111              1
      9696.0000         0.4721         0.5582         0.4792         0.4792              1
      9696.5000          0.468          0.547         0.4474         0.4474              1
      9697.0000         0.4619         0.5358         0.4154         0.4154              1
      9697.5000         0.4559         0.5246         0.3835         0.3835              1
      9698.0000         0.4497         0.5134         0.3516         0.3516              1
      9698.5000         0.4429         0.5022         0.3287         0.3287              1
      9699.0000         0.4361         0.5022         0.3493         0.3493              1
      9699.5000         0.4422         0.5098         0.3701         0.3701              1
      9700.0000          0.451         0.5175         0.3907         0.3907              1
      9700.5000         0.4598         0.5251          0.443          0.443              1
      9701.0000         0.4686         0.5332         0.5015         0.5015              1
      9701.5000         0.4763         0.5475           0.56           0.56              1
      9702.0000          0.484         0.5619         0.6185         0.6185              1
      9702.5000         0.4916         0.5763         0.6769         0.6769              1
      9703.0000         0.4992         0.5906         0.6683         0.6683              1
      9703.5000         0.5047          0.605         0.6349         0.6349              1
      9704.0000         0.5063         0.6065         0.6015         0.6015              1
      9704.5000          0.508         0.6072         0.5681         0.5681              1
      9705.0000         0.5096         0.6079         0.5347         0.5347              1
      9705.5000         0.5113         0.6086         0.5039         0.5039              1
      9706.0000         0.5129         0.6056         0.4746         0.4746              1
      9706.5000         0.5146         0.5978         0.4453         0.4453              1
      9707.0000         0.5127         0.5899          0.416          0.416              1
      9707.5000         0.5103         0.5792         0.3866         0.3866              1
      9708.0000         0.5079          0.568         0.3573         0.3573              1
      9708.5000         0.5042         0.5569          0.364          0.364              1
      9709.0000         0.4982         0.5458         0.3822         0.3822              1
      9709.5000         0.4922         0.5347         0.4005         0.4005              1
      9710.0000         0.4861         0.5235          0.415          0.415              1
      9710.5000         0.4801         0.5206         0.3126         0.3126              1
      9711.0000         0.4741         0.5196         0.1767         0.1767              1
      9711.5000          0.468         0.5185         0.0251         0.0251              1
      9712.0000         0.4599         0.5175          0.082          0.082              1
      9712.5000         0.4509         0.5264          0.139          0.139              1
      9713.0000         0.4574         0.5451          0.196          0.196              1
      9713.5000         0.4649         0.5638         0.2484         0.2484              1
      9714.0000         0.4725         0.5826         0.2788         0.2788              1
      9714.5000         0.4825         0.6008         0.3093         0.3093              1
      9715.0000         0.4959         0.6181         0.2585         0.2585              1
      9715.5000         0.5095         0.6355         0.1892         0.1892              1
      9716.0000         0.5217         0.6529         0.1022         0.1022              1
      9716.5000         0.5302         0.6702        -0.0046        -0.0046              1
      9717.0000         0.5387         0.6876        -0.1116        -0.1116              1
      9717.5000         0.5472         0.7049        -0.2184        -0.2184              1
      9718.0000         0.5557          0.706        -0.3253        -0.3253              1
      9718.5000         0.5591         0.6982        -0.2888        -0.2888              1
      9719.0000         0.5604         0.6905        -0.2473        -0.2473              1
      9719.5000         0.5618         0.6828        -0.2057        -0.2057              1
      9720.0000         0.5631          0.675        -0.1538        -0.1538              1
      9720.5000         0.5645         0.6673        -0.0884        -0.0884              1
      9721.0000         0.5658         0.6608        -0.0229        -0.0229              1
      9721.5000         0.5671         0.6544         0.0425         0.0425              1
      9722.0000         0.5685          0.648          0.108          0.108              1
      9722.5000         0.5646         0.6416         0.1735         0.1735              1
      9723.0000         0.5599         0.6352         0.2389         0.2389              1
      9723.5000         0.5552         0.6288         0.2751         0.2751              1
      9724.0000         0.5504         0.6224         0.2883         0.2883              1
      9724.5000         0.5457          0.616         0.3015         0.3015              1
      9725.0000          0.541         0.6096         0.3147         0.3147              1
      9725.5000         0.5363          0.604         0.3279         0.3279              1
