#------------------------------------------------------------------------------
# Created by    : vladimir.rabinovich
# Created on    : 09/19/2023 17:22:50
#------------------------------------------------------------------------------
~Version Information Section
VERS.           2.0     :   CWLS log ASCII Standard - VERSION 2.0
WRAP.           NO      :   One line per depth step
~Well Information Section
#MNEM       .UNIT                                         VALUE :DESCRIPTION
#------------------------------------------------------------------------------
STRT        .FT                                          1999.5 :START DEPTH
STOP        .FT                                            9645 :STOP DEPTH
STEP        .FT                                             0.5 :STEP      
NULL        .                                           -999.25 :NULL      
COMP        .                          STANDARD OIL CO OF TEXAS :COMPANY   
WELL        .                                  STATE TRACT 1-4D :WELL      
FLD         .                                           WILDCAT :FIELD     
LOC         .                                                   :LOCATION  
CNTY        .                                          CHAMBERS :LOCATION  
STAT        .                                             TEXAS :STATE     
CTRY        .                                     UNITED STATES :COUNTRY   
SRVC        .                                                   :SERVICE COMPANY
DATE        .                             9/13/2023 11:19:11 AM :LOG DATE  
API         .                                    42071032270000 :API NUMBER
UWI         .                                    42071032270000 :UNIQUE WELL ID
XCOORD      .                                  1086986.65859336 :SURFACE X 
YCOORD      .                                  10762945.0682871 :SURFACE Y 
LAT         .                                        29.6451099 :LATITUDE  
LON         .                                       -94.7426468 :LONGITUDE 
ELEV        .FT                                              20 :ELEVATION VALUE
ELEV_TYPE   .                                                DF :ELEVATION REFERENCE TYPE
~Curve Information Section
#MNEM       .UNIT                                      API CODE :CURVE DESCRIPTION
#------------------------------------------------------------------------------
DEPT        .FT                                                 :DEPTH     
DT          .US/F                                               :          
IND         .OHMM                                               :          
SN          .OHMM                                               :          
SP          .MV                                                 :          
SP_NORM     .MV                                                 :SP Normalized
VSH_SP      .V/V                                                :Volume of Shale from SP
~A        DEPTH             DT            IND             SN             SP        SP_NORM         VSH_SP
# ...
      9599.5000        99.5888         1.0078         1.1767       -37.6471       4.328209              1
      9600.0000       107.5189         0.9922         1.1882       -39.2157       2.759609              1
      9600.5000        113.109         0.9457         1.1569       -44.3317      -2.356392      0.9838525
      9601.0000       117.5144         0.8992          1.102       -45.5276      -3.552292      0.9696156
      9601.5000       118.0588         0.8191         1.0471       -44.3719      -2.396591      0.9833739
      9602.0000       112.7224         0.7227         0.9646       -42.8241      -0.848793              1
      9602.5000       110.8269         0.6294         0.9133       -42.0503    -0.07499313              1
      9603.0000       110.5568         0.5651         0.8226       -40.5025       1.472809              1
      9603.5000       113.0317         0.5062         0.7202       -38.9548       3.020508              1
      9604.0000       114.0462         0.4961         0.7083        -38.191       3.784306              1
      9604.5000       113.6853         0.4961         0.7277       -38.2111       3.764206              1
      9605.0000       111.2529         0.4961         0.7432       -38.6231       3.352207              1
      9605.5000       107.0809         0.5116         0.7626       -39.0352       2.940109              1
      9606.0000        80.3944         0.5271          0.778       -39.8392       2.136108              1
      9606.5000        -999.25         0.5426         0.7661       -40.2513       1.724007              1
      9607.0000        -999.25         0.5581         0.7463       -40.6633       1.312008              1
      9607.5000        -999.25         0.5736         0.7461       -41.4673       0.508007              1
      9608.0000        -999.25         0.5891          0.789       -41.4874      0.4879074              1
      9608.5000        -999.25         0.5891         0.8087       -41.5075      0.4678078              1
      9609.0000        -999.25         0.5736         0.8523       -40.3518       1.623508              1
      9609.5000        -999.25         0.5736         0.9001        -38.804       3.171307              1
      9610.0000        -999.25         0.5736          0.912       -38.0302       3.945107              1
      9610.5000        -999.25         0.5736          0.916       -36.4824       5.492908              1
      9611.0000        -999.25         0.5736          0.868       -34.9347       7.040607              1
      9611.5000        -999.25         0.5736           0.82       -34.9548       7.020508              1
      9612.0000        -999.25         0.5736         0.7451       -35.7588       6.216507              1
      9612.5000        -999.25         0.5736         0.7451       -42.8216     -0.8462944              1
      9613.0000        -999.25         0.5736          0.749       -43.2286      -1.253292      0.9969846
      9613.5000        -999.25         0.5736         0.7529       -38.1709       3.804409              1
      9614.0000        -999.25         0.5581         0.7569       -35.4472       6.528107              1
      9614.5000        -999.25         0.5581         0.7608       -40.1709       1.804409              1
      9615.0000        -999.25         0.5581         0.7647       -40.9657       1.009609              1
      9615.5000        -999.25         0.5581         0.7686       -41.7604      0.2149086              1
      9616.0000        -999.25         0.5581         0.7725       -42.5536     -0.5782928              1
      9616.5000        -999.25         0.5581         0.7725       -42.5709     -0.5955925              1
      9617.0000        -999.25         0.5581         0.7765       -41.0412      0.9341087              1
      9617.5000        -999.25         0.5581         0.7765       -39.1156       2.859707              1
      9618.0000        -999.25         0.5581         0.7765       -37.5678       4.407509              1
      9618.5000        -999.25         0.5581         0.7765        -36.402       5.573307              1
      9619.0000        -999.25         0.5581         0.7765       -36.8141       5.161209              1
      9619.5000        -999.25         0.5581         0.7765        -38.402       3.573307              1
      9620.0000        -999.25         0.5581         0.7765        -39.206       2.769306              1
      9620.5000        -999.25         0.5581         0.7765            -40       1.975307              1
      9621.0000        -999.25        -999.25         0.7765       -40.7692       1.206108              1
      9621.5000        -999.25        -999.25         0.7765       -40.7692       1.206108              1
      9622.0000        -999.25        -999.25         0.7765       -38.8235       3.151806              1
      9622.5000        -999.25        -999.25         0.7725       -38.0392       3.936108              1
      9623.0000        -999.25        -999.25         0.7725       -38.8235       3.151806              1
      9623.5000        -999.25        -999.25         0.7725            -40       1.975307              1
      9624.0000        -999.25        -999.25         0.7725       -41.1538      0.8215065              1
      9624.5000        -999.25        -999.25         0.7725       -41.9231     0.05220795              1
      9625.0000        -999.25        -999.25         0.7725       -41.5385      0.4368057              1
      9625.5000        -999.25        -999.25         0.7725       -40.3846       1.590706              1
      9626.0000        -999.25        -999.25         0.7725       -39.2157       2.759609              1
      9626.5000        -999.25        -999.25         0.7725       -38.0392       3.936108              1
      9627.0000        -999.25        -999.25         0.7725       -36.4706       5.504707              1
      9627.5000        -999.25        -999.25         0.7686       -38.4314       3.543907              1
      9628.0000        -999.25        -999.25         0.7686       -41.9231     0.05220795              1
      9628.5000        -999.25        -999.25         0.7686       -38.4314       3.543907              1
      9629.0000        -999.25        -999.25         0.7686       -36.4706       5.504707              1
      9629.5000        -999.25        -999.25         0.7686       -35.6863       6.289009              1
      9630.0000        -999.25        -999.25         0.7686       -36.0784       5.896908              1
      9630.5000        -999.25        -999.25         0.7686       -38.4422       3.533108              1
      9631.0000        -999.25        -999.25         0.7686       -40.8079       1.167408              1
      9631.5000        -999.25        -999.25         0.7686       -40.8177       1.157608              1
      9632.0000        -999.25        -999.25         0.7686       -37.7186       4.256706              1
      9632.5000        -999.25        -999.25         0.7686       -36.1709       5.804409              1
      9633.0000        -999.25        -999.25         0.7686       -36.9749       5.000408              1
      9633.5000        -999.25        -999.25         0.7686       -38.9548       3.020508              1
      9634.0000        -999.25        -999.25         0.7686       -39.7588       2.216507              1
      9634.5000        -999.25        -999.25         0.7686       -40.1709       1.804409              1
      9635.0000        -999.25        -999.25         0.7647       -39.0151       2.960209              1
      9635.5000        -999.25        -999.25         0.7647       -36.6834       5.291908              1
      9636.0000        -999.25        -999.25         0.7647       -34.3518       7.623508              1
      9636.5000        -999.25        -999.25         0.7647       -31.6281       10.34721              1
      9637.0000        -999.25        -999.25         0.7608       -32.0302       9.945107              1
