#------------------------------------------------------------------------------
# Created by    : vladimir.rabinovich
# Created on    : 09/19/2023 17:22:50
#------------------------------------------------------------------------------
~Version Information Section
VERS.           2.0     :   CWLS log ASCII Standard - VERSION 2.0
WRAP.           NO      :   One line per depth step
~Well Information Section
#MNEM       .UNIT                                         VALUE :DESCRIPTION
#------------------------------------------------------------------------------
STRT        .FT                                          1999.5 :START DEPTH
STOP        .FT                                            9645 :STOP DEPTH
STEP        .FT                                             0.5 :STEP      
NULL        .                                           -999.25 :NULL      
COMP        .                          STANDARD OIL CO OF TEXAS :COMPANY   
WELL        .                                  STATE TRACT 1-4D :WELL      
FLD         .                                           WILDCAT :FIELD     
LOC         .                                                   :LOCATION  
CNTY        .                                          CHAMBERS :LOCATION  
STAT        .                                             TEXAS :STATE     
CTRY        .                                     UNITED STATES :COUNTRY   
SRVC        .                                                   :SERVICE COMPANY
DATE        .                             9/13/2023 11:19:11 AM :LOG DATE  
API         .                                    42071032270000 :API NUMBER
UWI         .                                    42071032270000 :UNIQUE WELL ID
XCOORD      .                                  1086986.65859336 :SURFACE X 
YCOORD      .                                  10762945.0682871 :SURFACE Y 
LAT         .                                        29.6451099 :LATITUDE  
LON         .                                       -94.7426468 :LONGITUDE 
ELEV        .FT                                              20 :ELEVATION VALUE
ELEV_TYPE   .                                                DF :ELEVATION REFERENCE TYPE
~Curve Information Section
#MNEM       .UNIT                                      API CODE :CURVE DESCRIPTION
#------------------------------------------------------------------------------
DEPT        .FT                                                 :DEPTH     
DT          .US/F                                               :          
IND         .OHMM                                               :          
SN          .OHMM                                               :          
SP          .MV                                                 :          
SP_NORM     .MV                                                 :SP Normalized
VSH_SP      .V/V                                                :Volume of Shale from SP
~A        DEPTH             DT            IND             SN             SP        SP_NORM         VSH_SP
# ...
      4545.5000        78.6944         1.9732         3.3922       -57.0969       -14.4357      0.8184364
      4546.0000        79.1697         1.7721         3.2157       -59.0573      -16.39863      0.7919104
      4546.5000        79.9484         1.5554         3.0588       -62.2146      -19.55846      0.7492101
      4547.0000        80.8357         1.3841         2.8051        -64.978      -22.32438      0.7118326
      4547.5000        82.4929          1.191         2.6293       -68.1333      -25.48222      0.6691592
      4548.0000        85.0534         1.0187         2.5118       -70.8966      -28.24804      0.6317832
      4548.5000        88.8541         0.9094         2.3941         -73.66      -31.01397      0.5944058
      4549.0000        91.6589         0.8129         2.2762       -76.4233       -33.7798      0.5570298
      4549.5000        94.4637          0.723          2.158       -79.9706      -37.32962      0.5090592
      4550.0000        97.2685         0.6666         2.0397       -79.5982      -36.95975      0.5140575
      4550.5000        100.011         0.6347         1.7239       -72.1569      -29.52098      0.6145814
      4551.0000       101.2035         0.5977         1.5489       -64.7059      -22.07251      0.7152364
      4551.5000       101.2513          0.598         1.3715       -60.7843      -18.15343      0.7681968
      4552.0000       102.1245         0.5829         1.3673       -61.5686      -18.94026      0.7575641
      4552.5000       105.6095         0.5988         1.4857       -68.6275      -26.00169      0.6621393
      4553.0000       113.6231         0.6146         1.5763       -75.6863      -33.06301       0.566716
      4553.5000       113.3249         0.6472         1.5921            -80      -37.37924      0.5083886
      4554.0000       110.0928         0.6822          1.596       -76.8627      -34.24447      0.5507504
      4554.5000       108.7705          0.728         1.5842       -70.5882       -27.9725      0.6355067
      4555.0000       107.0176         0.7811         1.4456       -64.7059      -22.09273      0.7149631
      4555.5000       106.3007         0.8305         1.3306       -58.4482      -15.83755      0.7994925
      4556.0000       107.0703          0.888          1.287       -55.3471      -12.73898      0.8413652
      4556.5000       113.3674         0.9207          1.279       -49.5426      -6.937004      0.9197702
      4557.0000       124.7051         0.9434          1.275       -43.3642     -0.7611351              1
      4557.5000       136.5965         0.9438          1.271       -40.2897       2.310841              1
      4558.0000       144.0423         0.9441         1.2551       -40.3087        2.28931              1
      4558.5000       144.8883          0.929         1.2393       -41.0988       1.496685              1
      4559.0000       143.9953         0.9294         1.2197       -42.2726      0.3203583              1
      4559.5000       143.0191         0.9298         1.2039       -43.4442     -0.8537712              1
      4560.0000       141.7924         0.9146         1.1843       -44.2292      -1.641296      0.9913338
      4560.5000        141.583         0.8962         1.1686       -43.0769     -0.4915276              1
      4561.0000       141.9422         0.8688         1.1529       -40.3846       2.198246              1
      4561.5000       142.4087         0.8693         1.1529       -39.2157        3.36462              1
      4562.0000       143.3544         0.8697         1.1529       -38.0392       4.538593              1
      4562.5000       144.5625         0.8856         1.1569       -39.2157       3.359566              1
      4563.0000       147.5107          0.917         1.1725            -40       2.572739              1
      4563.5000       151.0113         0.9484         1.1882       -41.1538       1.416409              1
      4564.0000       151.0652         0.9953         1.2196       -41.9231      0.6445847              1
      4564.5000         151.53         1.0887         1.2549       -39.6078       2.957355              1
      4565.0000       151.1194         1.1511         1.3059       -38.4314       4.131229              1
      4565.5000       149.6255         1.2775         1.3647       -37.2549       5.305199              1
      4566.0000       146.7325         1.4034            1.4       -38.0392       4.518372              1
      4566.5000       141.8869         1.4684          1.472       -39.6078       2.947247              1
      4567.0000       130.0973         1.5531          1.536       -41.5385       1.014015              1
      4567.5000       116.7452         1.6181         1.6039       -42.6923     -0.1423073              1
      4568.0000       103.3988         1.6185         1.6157       -43.8462      -1.298737       0.995963
      4568.5000         91.972         1.5717         1.6275       -45.3846      -2.839664      0.9751397
      4569.0000         92.419         1.4953         1.6275       -45.3846      -2.842194      0.9751055
      4569.5000       101.7541         1.4647         1.6235       -45.3846      -2.844719      0.9750714
      4570.0000       112.9286         1.4495         1.6196       -44.6154      -2.078045      0.9854318
      4570.5000       116.7746         1.4499         1.6275       -43.4615     -0.9266701              1
      4571.0000       111.0902         1.4813         1.6392       -43.0769     -0.5446014              1
      4571.5000       100.0878         1.5439         1.6667       -44.6154      -2.085629      0.9853293
      4572.0000        94.7059         1.5935         1.6902       -46.1538      -3.626556       0.964506
      4572.5000        93.0394         1.6739         1.7333       -47.3077      -4.782986      0.9488786
      4573.0000        91.7328         1.7349         1.7765       -46.9231      -4.400909      0.9540418
      4573.5000        90.8693         1.7778         1.8392       -42.6923     -0.1726379              1
      4574.0000        89.7923         1.7782         1.8549       -40.3846       2.132534              1
      4574.5000        90.4156         1.7786         1.8902       -41.1538       1.360806              1
      4575.0000        91.7811         1.7609          1.902       -43.0769     -0.5648193              1
      4575.5000          93.84         1.7329          1.902            -45      -2.490448      0.9798588
      4576.0000         95.595         1.7023         1.8902       -46.5385      -4.031475      0.9590341
      4576.5000        95.6439         1.6871         1.8745       -46.5385      -4.034004      0.9589999
      4577.0000        95.1143         1.6875         1.8588       -42.6923     -0.1903267              1
      4577.5000        94.0458         1.6724          1.851       -40.3846       2.114841              1
      4578.0000        93.3853         1.6572         1.8471       -41.9231      0.5738144              1
      4578.5000        92.4832         1.6397         1.8471       -43.4615     -0.9671097              1
      4579.0000        91.8005         1.6234         1.8431       -45.3846      -2.892742      0.9744224
      4579.5000        91.6452         1.5915            1.8       -46.9231      -4.433765      0.9535978
      4580.0000        91.9749         1.5534         1.7647       -48.8462      -6.359394      0.9275758
      4580.5000        93.7316         1.5041         1.7412       -50.3846      -7.900322      0.9067524
      4581.0000        96.1102         1.4735         1.7176       -51.5385      -9.056751       0.891125
      4581.5000        98.5802         1.4429         1.6902       -50.7692      -8.289974      0.9014868
      4582.0000       100.3804         1.4123         1.6667       -48.4615      -5.984802      0.9326378
      4582.5000        99.4634         1.3817          1.651       -48.4615      -5.987328      0.9326037
      4583.0000        98.6002          1.351         1.6745       -48.4615      -5.989857      0.9325695
