#------------------------------------------------------------------------------
# Created by    : vladimir.rabinovich
# Created on    : 09/19/2023 17:22:50
#------------------------------------------------------------------------------
~Version Information Section
VERS.           2.0     :   CWLS log ASCII Standard - VERSION 2.0
WRAP.           NO      :   One line per depth step
~Well Information Section
#MNEM       .UNIT                                         VALUE :DESCRIPTION
#------------------------------------------------------------------------------
STRT        .FT                                          1999.5 :START DEPTH
STOP        .FT                                            9645 :STOP DEPTH
STEP        .FT                                             0.5 :STEP      
NULL        .                                           -999.25 :NULL      
COMP        .                          STANDARD OIL CO OF TEXAS :COMPANY   
WELL        .                                  STATE TRACT 1-4D :WELL      
FLD         .                                           WILDCAT :FIELD     
LOC         .                                                   :LOCATION  
CNTY        .                                          CHAMBERS :LOCATION  
STAT        .                                             TEXAS :STATE     
CTRY        .                                     UNITED STATES :COUNTRY   
SRVC        .                                                   :SERVICE COMPANY
DATE        .                             9/13/2023 11:19:11 AM :LOG DATE  
API         .                                    42071032270000 :API NUMBER
UWI         .                                    42071032270000 :UNIQUE WELL ID
XCOORD      .                                  1086986.65859336 :SURFACE X 
YCOORD      .                                  10762945.0682871 :SURFACE Y 
LAT         .                                        29.6451099 :LATITUDE  
LON         .                                       -94.7426468 :LONGITUDE 
ELEV        .FT                                              20 :ELEVATION VALUE
ELEV_TYPE   .                                                DF :ELEVATION REFERENCE TYPE
~Curve Information Section
#MNEM       .UNIT                                      API CODE :CURVE DESCRIPTION
#------------------------------------------------------------------------------
DEPT        .FT                                                 :DEPTH     
DT          .US/F                                               :          
IND         .OHMM                                               :          
SN          .OHMM                                               :          
SP          .MV                                                 :          
SP_NORM     .MV                                                 :SP Normalized
VSH_SP      .V/V                                                :Volume of Shale from SP
~A        DEPTH             DT            IND             SN             SP        SP_NORM         VSH_SP
# ...
      4013.5000       135.5384         0.8225         1.2627       -56.1538      -11.06352      0.8640065
      4014.0000       129.3725         0.6722         1.2039        -65.098      -20.00952      0.7431146
      4014.5000       121.2714         0.5224         1.1765        -72.549      -27.46233      0.6424009
      4015.0000       117.5163          0.458         1.1569            -80      -34.91513      0.5416875
      4015.5000       118.8234         0.4417         1.1294       -88.6275      -43.54443      0.4250753
      4016.0000       125.3404          0.441         1.1059       -89.0196      -43.93833      0.4197523
      4016.5000       137.3131         0.4866         1.0824       -80.7843      -35.70483      0.5310158
      4017.0000       138.2411         0.5323         1.0627       -76.4706      -31.39293      0.5892847
      4017.5000       126.9606         0.5781         1.0471       -68.2353      -23.15944      0.7005482
      4018.0000       122.3072         0.6385         1.0392       -59.6154      -14.54134       0.817009
      4018.5000        120.955         0.7049         1.0431       -55.7692      -10.69694      0.8689603
      4019.0000       120.3725         0.7714         1.0588       -47.3077      -2.237244      0.9832805
      4019.5000       122.5372         0.8372         1.0745       -42.6923       2.376358              1
      4020.0000       129.4209         0.9007         1.0941       -42.6923       2.374557              1
      4020.5000       138.1485         0.9334         1.1216       -42.3098       2.755253              1
      4021.0000        145.737          0.962         1.1765        -42.312       2.751251              1
      4021.5000       145.7309         0.9989         1.2039       -42.3142        2.74725              1
      4022.0000       145.0125         1.0385         1.2667       -42.3165       2.743145              1
      4022.5000       142.6414           1.12         1.3333       -40.7729       4.284946              1
      4023.0000       140.0909         1.2736         1.3961       -39.6078       5.448246              1
      4023.5000       137.1269         1.3825          1.424       -37.2549       7.799339              1
      4024.0000       135.4468         1.4604          1.472       -37.2549       7.797539              1
      4024.5000       135.5856         1.5228          1.508       -38.8235       6.227139              1
      4025.0000       135.2481         1.5542          1.536        -41.165       3.883835              1
      4025.5000       131.3458         1.5856          1.564       -42.7209       2.326134              1
      4026.0000         126.16         1.5684          1.592       -44.2797      0.7655296              1
      4026.5000       120.9699         1.5331            1.6       -45.8414     -0.7979698              1
      4027.0000       116.3399         1.4844            1.6       -47.0163       -1.97467      0.9868288
      4027.5000       113.6253         1.4296          1.564       -47.4133      -2.373474      0.9814395
      4028.0000       110.2152         1.3411          1.544        -47.811      -2.772976      0.9760408
      4028.5000       106.5157         1.2692           1.52       -48.6003      -3.564075      0.9653503
      4029.0000        107.573         1.2163          1.492       -52.9118       -7.87738      0.9070624
      4029.5000       112.2139         1.1236          1.488        -54.099       -9.06638      0.8909948
      4030.0000       118.8107         1.0775          1.476       -55.6802      -10.64938       0.869603
      4030.5000       122.3643         1.0313          1.448       -57.2549      -12.22589      0.8482988
      4031.0000       125.2286         1.0007           1.42       -58.4314      -13.40419      0.8323759
      4031.5000       124.4544         0.9224         1.3804            -60      -14.97459      0.8111542
      4032.0000       122.1823         0.8904         1.3529       -63.1373      -18.11369      0.7687339
      4032.5000        119.122          0.843         1.3216        -65.098      -20.07619      0.7422136
      4033.0000       114.8623         0.8059          1.302        -67.451      -22.43099      0.7103921
      4033.5000       112.6531         0.7636          1.302       -69.4118      -24.39359      0.6838704
      4034.0000       110.7443         0.7316         1.3294       -71.7647       -26.7483        0.65205
      4034.5000       110.2199         0.6934         1.3216       -74.1176        -29.103      0.6202298
      4035.0000       110.5179         0.6472         1.2745       -75.6863       -30.6735      0.5990067
      4035.5000        111.425         0.6011         1.2471       -77.6471       -32.6361      0.5724851
      4036.0000       113.7755         0.5705         1.2157       -79.2157       -34.2065      0.5512635
      4036.5000       114.7508         0.5243         1.1647       -81.5686      -36.56121      0.5194431
      4037.0000       115.4851         0.4934         1.1255       -83.9216      -38.91601      0.4876215
      4037.5000       116.0163         0.4443         1.0863       -86.2745      -41.27071      0.4558013
      4038.0000       116.3929          0.414         1.0431       -88.6275      -43.62551      0.4239795
      4038.5000       117.2085          0.382         1.0078       -90.9804      -45.98021      0.3921593
      4039.0000       119.0305         0.3556           0.96       -95.2941      -50.29571      0.3338417
      4039.5000       120.2306         0.3406          0.932           -100      -55.00342      0.2702241
      4040.0000       122.1713          0.341            0.9           -100      -55.00522      0.2701997
      4040.5000       127.4585         0.3414         0.8839       -95.6982      -50.70522      0.3283079
      4041.0000       131.2553         0.3418         0.8679       -91.0142      -46.02302      0.3915808
      4041.5000       134.0842         0.3422         0.8479       -89.4659      -44.47652      0.4124795
      4042.0000       139.8307         0.3425         0.8279       -86.3498      -41.36222      0.4545645
      4042.5000       141.3955         0.3739         0.8438       -82.8417      -37.85593      0.5019469
      4043.0000       139.5984         0.4215         1.0067       -78.9261      -33.94213      0.5548361
      4043.5000       128.4598         0.4739         1.0575       -71.0533      -26.07113      0.6612009
      4044.0000       122.4446         0.5627         1.2221       -63.1618      -18.18143      0.7678185
      4044.5000       108.6767         0.7794         1.2892       -59.2157      -14.23713      0.8211198
      4045.0000        102.317         1.1094         1.4317       -51.3725      -6.395737      0.9270846
      4045.5000       101.3166         1.3745         1.4317        -47.451       -2.47604      0.9800535
      4046.0000       102.3971         1.4464         1.4316        -47.451       -2.47784      0.9800292
      4046.5000       101.5416         1.3848         1.3245       -47.8431      -2.871742      0.9747062
      4047.0000       101.6544         1.2922         1.2966       -48.2353      -3.265743      0.9693819
      4047.5000       103.7681         1.1995         1.2488       -48.6275      -3.659744      0.9640575
      4048.0000       112.2124         1.1223         1.2168       -48.6275      -3.661545      0.9640332
      4048.5000       120.6156         1.0297         1.1771       -48.2353      -3.271149      0.9693088
      4049.0000       129.5435         0.9501         1.1573       -47.0588      -2.096451      0.9851831
      4049.5000       140.5166         0.9039         1.1414       -46.2745      -1.313953      0.9957574
      4050.0000       142.4537         0.8913         1.1255        -45.098     -0.1392555              1
      4050.5000       141.7311         0.9072         1.1098       -43.9392       1.017742              1
      4051.0000       140.9786         0.9231          1.102       -43.1749       1.780243              1
