#------------------------------------------------------------------------------
# Created by    : vladimir.rabinovich
# Created on    : 09/19/2023 17:22:53
#------------------------------------------------------------------------------
~Version Information Section
VERS.           2.0     :   CWLS log ASCII Standard - VERSION 2.0
WRAP.           NO      :   One line per depth step
~Well Information Section
#MNEM       .UNIT                                         VALUE :DESCRIPTION
#------------------------------------------------------------------------------
STRT        .FT                                            1498 :START DEPTH
STOP        .FT                                           11000 :STOP DEPTH
STEP        .FT                                             0.5 :STEP      
NULL        .                                           -999.25 :NULL      
COMP        .                                     CANNAN MORRIS :COMPANY   
WELL        .                                             GARTH :WELL      
FLD         .                                           WILDCAT :FIELD     
LOC         .                                                   :LOCATION  
CNTY        .                                          CHAMBERS :LOCATION  
STAT        .                                             TEXAS :STATE     
CTRY        .                                     UNITED STATES :COUNTRY   
SRVC        .                                                   :SERVICE COMPANY
DATE        .                             9/13/2023 11:19:11 AM :LOG DATE  
API         .                                    42071310360000 :API NUMBER
UWI         .                                    42071310360000 :UNIQUE WELL ID
XCOORD      .                                  1175356.83007784 :SURFACE X 
YCOORD      .                                  10818692.0839896 :SURFACE Y 
LAT         .                                        29.8017803 :LATITUDE  
LON         .                                       -94.4666967 :LONGITUDE 
ELEV        .FT                                              25 :ELEVATION VALUE
ELEV_TYPE   .                                                GL :ELEVATION REFERENCE TYPE
~Curve Information Section
#MNEM       .UNIT                                      API CODE :CURVE DESCRIPTION
#------------------------------------------------------------------------------
DEPT        .FT                                                 :DEPTH     
ILD         .OHMM                                               :          
SFL         .OHMM                                               :          
SP          .MV                                                 :          
SP_NORM     .MV                                                 :SP Normalized
VSH_SP      .V/V                                                :Volume of Shale from SP
~A        DEPTH            ILD            SFL             SP        SP_NORM         VSH_SP
# ...
      6558.0000         0.8268         0.8481        -6.5885      -1.447043      0.9954844
      6558.5000         0.8197         0.8417        -6.8235      -1.683527      0.9930957
      6559.0000         0.8126         0.8176        -7.0582      -1.919712        0.99071
      6559.5000         0.8055         0.7935        -7.2932      -2.156197      0.9883212
      6560.0000         0.7984         0.7693        -7.1076      -1.972081       0.990181
      6560.5000          0.775         0.7452         -6.691      -1.556965      0.9943741
      6561.0000         0.7501         0.7211        -6.2824       -1.14985      0.9984863
      6561.5000         0.7258         0.7058        -5.8866     -0.7555346              1
      6562.0000          0.702         0.6909        -5.4908     -0.3612189              1
      6562.5000         0.6891         0.6871        -5.0951     0.03299618              1
      6563.0000         0.6826         0.6897        -4.9708      0.1558118              1
      6563.5000         0.6761         0.6924        -5.0896     0.03552723              1
      6564.0000         0.6708         0.6951        -5.2083    -0.08465767              1
      6564.5000         0.6723         0.6978         -5.327     -0.2048421              1
      6565.0000         0.6739         0.7047        -5.4493     -0.3286262              1
      6565.5000         0.6754         0.7125        -5.6024      -0.483211              1
      6566.0000         0.6769         0.7203        -5.7556     -0.6378956              1
      6566.5000         0.6784         0.7281        -5.9087       -0.79248              1
      6567.0000           0.68         0.7359        -6.0156     -0.9008651              1
      6567.5000         0.6833         0.7441        -6.0961     -0.9828491              1
      6568.0000         0.6867         0.7525        -6.1765      -1.064734      0.9993461
      6568.5000           0.69         0.7609         -6.257      -1.146719       0.998518
      6569.0000         0.6934         0.7694        -6.1434      -1.034603      0.9996505
      6569.5000         0.6967         0.7778        -6.0264     -0.9190874              1
      6570.0000         0.7001         0.7862        -5.9091     -0.8032722              1
      6570.5000         0.7034         0.7843        -5.7921     -0.6877565              1
      6571.0000         0.7068          0.781        -5.5415     -0.4386411              1
      6571.5000         0.7098         0.7777        -5.2488     -0.1474257              1
      6572.0000         0.7111         0.7699        -4.9561      0.1437898              1
      6572.5000         0.7124         0.7592        -4.6634      0.4350052              1
      6573.0000         0.7136         0.7513        -4.3634      0.7335205              1
      6573.5000         0.7149         0.7467         -4.063       1.032436              1
      6574.0000         0.7162         0.7421        -3.7627       1.331251              1
      6574.5000         0.7174         0.7375        -3.4624       1.630067              1
      6575.0000         0.7187          0.738         -3.162       1.928982              1
      6575.5000         0.7179         0.7456        -2.8617       2.227798              1
      6576.0000         0.7146         0.7547        -2.9964       2.091613              1
      6576.5000         0.7112         0.7672        -3.2353       1.851229              1
      6577.0000         0.7078         0.7798        -3.5664       1.518644              1
      6577.5000         0.7044         0.7923        -3.9097        1.17386              1
      6578.0000          0.701         0.8048         -4.253      0.8290753              1
      6578.5000         0.6976         0.8134        -4.5963      0.4842901              1
      6579.0000         0.6942         0.8182        -4.5154      0.5637059              1
      6579.5000         0.6897         0.7847        -4.3461      0.7315216              1
      6580.0000         0.6851         0.7438        -4.1767      0.8994365              1
      6580.5000         0.6805         0.7173        -3.9962       1.078452              1
      6581.0000         0.6758         0.6908        -4.0873       0.985868              1
      6581.5000         0.6712         0.6685        -4.3533      0.7183828              1
      6582.0000         0.6666         0.6468        -5.4387     -0.3685017              1
      6582.5000          0.662         0.6524        -6.6401      -1.571386      0.9942284
      6583.0000         0.6573         0.6685        -7.8427      -2.775471       0.982066
      6583.5000         0.6527         0.6847        -9.0453      -3.979555      0.9699035
      6584.0000         0.6481         0.7001       -10.0332       -4.96894      0.9599097
      6584.5000         0.6447         0.7133       -10.8854      -5.822624      0.9512866
      6585.0000         0.6427         0.7259       -11.0462      -5.984909      0.9496474
      6585.5000         0.6407         0.7349       -10.5117      -5.451893      0.9550314
      6586.0000         0.6387         0.7507        -9.9773      -4.918978      0.9604144
      6586.5000         0.6367         0.7525        -9.4515      -4.394662      0.9657105
      6587.0000         0.6347          0.747        -8.9318      -3.876447       0.970945
      6587.5000         0.6327         0.7414         -8.508      -3.454132      0.9752108
      6588.0000         0.6307         0.7359        -8.3162      -3.263816      0.9771332
      6588.5000         0.6287         0.7312        -8.1306        -3.0797      0.9789929
      6589.0000         0.6289         0.7269        -7.9715      -2.922085       0.980585
      6589.5000         0.6295         0.7227        -7.5101       -2.46217      0.9852306
      6590.0000         0.6301         0.7184         -6.856      -1.809554      0.9918227
      6590.5000         0.6308         0.7142        -5.9909     -0.9459391              1
      6591.0000         0.6314         0.7126        -5.1245    -0.08102322              1
      6591.5000          0.632         0.7149        -5.3289     -0.2869077              1
      6592.0000         0.6327         0.7172        -5.6964     -0.6558928              1
      6592.5000         0.6333         0.7195        -5.9869     -0.9478769              1
      6593.0000          0.634         0.7206        -6.1265      -1.088962      0.9991014
      6593.5000         0.6346         0.7209        -5.5724     -0.5363464              1
      6594.0000          0.637         0.7181        -4.8902      0.1443691              1
      6594.5000         0.6407         0.7116        -4.0594      0.9736848              1
      6595.0000         0.6443         0.7052        -2.9439         2.0877              1
      6595.5000          0.648          0.698        -1.7253       3.304816              1
      6596.0000         0.6516         0.6903        -0.6258       4.402831              1
      6596.5000         0.6552         0.6827         0.0663       5.093446              1
      6597.0000         0.6589          0.675         0.4947       5.520362              1
      6597.5000         0.6625         0.6681         0.5002       5.524377              1
      6598.0000         0.6659         0.6684         0.4911       5.513793              1
      6598.5000         0.6689         0.6686         0.3107       5.331908              1
      6599.0000          0.672         0.6689         0.1301       5.149824              1
      6599.5000          0.675         0.6691        -0.0504       4.967839              1
      6600.0000         0.6781         0.6704        -0.2308       4.785954              1
      6600.5000         0.6811         0.6742        -1.1031        3.91217              1
      6601.0000         0.6842         0.6781        -7.1997      -2.185915      0.9880211
      6601.5000         0.6872         0.6819        -8.2065      -3.194199      0.9778364
