#------------------------------------------------------------------------------
# Created by    : vladimir.rabinovich
# Created on    : 09/19/2023 17:22:50
#------------------------------------------------------------------------------
~Version Information Section
VERS.           2.0     :   CWLS log ASCII Standard - VERSION 2.0
WRAP.           NO      :   One line per depth step
~Well Information Section
#MNEM       .UNIT                                         VALUE :DESCRIPTION
#------------------------------------------------------------------------------
STRT        .FT                                          1999.5 :START DEPTH
STOP        .FT                                            9645 :STOP DEPTH
STEP        .FT                                             0.5 :STEP      
NULL        .                                           -999.25 :NULL      
COMP        .                          STANDARD OIL CO OF TEXAS :COMPANY   
WELL        .                                  STATE TRACT 1-4D :WELL      
FLD         .                                           WILDCAT :FIELD     
LOC         .                                                   :LOCATION  
CNTY        .                                          CHAMBERS :LOCATION  
STAT        .                                             TEXAS :STATE     
CTRY        .                                     UNITED STATES :COUNTRY   
SRVC        .                                                   :SERVICE COMPANY
DATE        .                             9/13/2023 11:19:11 AM :LOG DATE  
API         .                                    42071032270000 :API NUMBER
UWI         .                                    42071032270000 :UNIQUE WELL ID
XCOORD      .                                  1086986.65859336 :SURFACE X 
YCOORD      .                                  10762945.0682871 :SURFACE Y 
LAT         .                                        29.6451099 :LATITUDE  
LON         .                                       -94.7426468 :LONGITUDE 
ELEV        .FT                                              20 :ELEVATION VALUE
ELEV_TYPE   .                                                DF :ELEVATION REFERENCE TYPE
~Curve Information Section
#MNEM       .UNIT                                      API CODE :CURVE DESCRIPTION
#------------------------------------------------------------------------------
DEPT        .FT                                                 :DEPTH     
DT          .US/F                                               :          
IND         .OHMM                                               :          
SN          .OHMM                                               :          
SP          .MV                                                 :          
SP_NORM     .MV                                                 :SP Normalized
VSH_SP      .V/V                                                :Volume of Shale from SP
~A        DEPTH             DT            IND             SN             SP        SP_NORM         VSH_SP
# ...
      3519.5000        144.305         1.0504         1.2118       -48.2353      -1.364811      0.9950701
      3520.0000       143.7574         1.0511         1.2157       -47.8431     -0.9744148              1
      3520.5000       143.0048         1.0518         1.2196       -47.0588     -0.1919174              1
      3521.0000       142.3826         1.0526         1.2235       -47.0588      -0.193718              1
      3521.5000       141.8139         1.0533         1.2314       -48.2353      -1.372017      0.9949728
      3522.0000       141.1489          1.054         1.2353       -49.4118      -2.550323      0.9790497
      3522.5000       140.3259         1.0236         1.2392       -51.3725      -4.512825      0.9525294
      3523.0000       138.8047         0.9623         1.2314       -53.3333      -6.475426      0.9260077
      3523.5000       136.6635         0.8852         1.2235       -56.0784      -9.222328      0.8888875
      3524.0000       133.8451         0.7918         1.2235       -59.2157      -12.36143      0.8464672
      3524.5000       129.9311         0.7447         1.2431       -63.1373      -16.28483      0.7934482
      3525.0000       122.5107         0.7324         1.2588       -66.6667      -19.81604      0.7457293
      3525.5000        121.297         0.7332         1.2627       -70.5882      -23.73934      0.6927117
      3526.0000       120.4254         0.7339         1.2588        -72.549      -25.70194        0.66619
      3526.5000       119.9426         0.7501         1.2431       -72.1569      -25.31164      0.6714643
      3527.0000       120.1791         0.7597         1.2314       -67.0588      -20.21534      0.7403333
      3527.5000       120.8249         0.7826         1.2157       -61.5686      -14.72694      0.8145007
      3528.0000       122.5886         0.7833            1.2       -56.0784      -9.238544      0.8886683
      3528.5000       123.6638         0.7374         1.1765       -56.4706      -9.632545       0.883344
      3529.0000       123.1135         0.6916         1.1608       -56.8627      -10.02645      0.8780209
      3529.5000       120.4234         0.6302         1.1569       -59.6078      -12.77335      0.8409007
      3530.0000       120.0712         0.6144         1.1569       -64.7059      -17.87325      0.7719831
      3530.5000       121.7507         0.5696         1.1882       -69.8039      -22.97306      0.7030668
      3531.0000       124.7547         0.5547         1.2118        -74.902      -28.07296      0.6341493
      3531.5000       127.6608         0.5603         1.2588            -80      -33.17276      0.5652331
      3532.0000       131.3852         0.5561         1.2824       -85.8824      -39.05696      0.4857167
      3532.5000       132.1022         0.5569         1.2353       -85.8824      -39.05876      0.4856924
      3533.0000       130.0146         0.5731         1.1176       -83.5294      -36.70757      0.5174654
      3533.5000       126.1399         0.6049         1.0784       -79.2157      -32.39566      0.5757343
      3534.0000       123.6725         0.6366         1.0706       -77.2549      -30.43666      0.6022072
      3534.5000       123.6406         0.6683         1.0706       -72.9412      -26.12477      0.6604761
      3535.0000       123.8273         0.6999         1.0706       -68.6275      -21.81287      0.7187449
      3535.5000       123.3634         0.7316         1.0667       -66.2745      -19.46167       0.750518
      3536.0000       121.7329         0.7478         1.0627       -66.2745      -19.46347      0.7504936
      3536.5000       121.5848         0.7485          1.051       -66.2745      -19.46527      0.7504693
      3537.0000       121.5849         0.7084         1.0314       -67.0588      -20.25138      0.7398462
      3537.5000       121.7483         0.6123              1       -69.8039      -22.99828      0.7027259
      3538.0000       122.2317         0.5317          0.952        -72.549      -25.74519      0.6656056
      3538.5000       123.7507         0.4356          0.916       -75.2941      -28.49208      0.6284854
      3539.0000       126.6951         0.3871           0.88       -77.2549      -30.45468      0.6019638
      3539.5000       130.3568         0.3342          0.848       -85.4902      -38.69178      0.4906516
      3540.0000       133.9432         0.2884          0.812       -93.7255      -46.92889      0.3793393
      3540.5000       137.5295         0.2735         0.7647      -106.0096      -59.21479      0.2133137
      3541.0000       141.1158         0.2432         0.7294      -119.6006      -72.80759      0.0296271
      3541.5000        144.865         0.2439          0.702       -119.601      -72.80979     0.02959741
      3542.0000       149.2882          0.229         0.6784      -116.4131       -69.6237     0.07265276
      3542.5000       145.6379         0.2297         0.6549      -113.2325       -66.4449      0.1156095
      3543.0000       142.1584         0.2304         0.6392      -110.0589       -63.2731      0.1584716
      3543.5000       140.2146         0.2311         0.6275      -106.8923       -60.1083      0.2012392
      3544.0000       138.7463         0.2318         0.6235      -105.3116       -58.5294      0.2225756
      3544.5000       138.2917         0.2325         0.6392      -103.7404      -56.96001      0.2437837
      3545.0000       139.3318         0.2332         0.6588      -105.7361       -58.9575      0.2167905
      3545.5000       142.2895         0.2495          0.702       -112.481      -65.70421      0.1256188
      3546.0000       144.0151         0.2502         0.6902      -112.4884      -65.71341      0.1254945
      3546.5000       149.2332         0.2509         0.6392      -110.5215      -63.74831      0.1520499
      3547.0000       146.5981         0.2515         0.6078      -106.9813      -60.20992       0.199866
      3547.5000       144.8661         0.2522         0.5688      -103.4486      -56.67902      0.2475809
      3548.0000       142.7804         0.2529         0.5648      -101.8818      -55.11401      0.2687295
      3548.5000       140.5446         0.2536         0.5648      -100.7194      -53.95342      0.2844132
      3549.0000       141.1541         0.2543         0.5648      -104.2819      -57.51772       0.236247
      3549.5000       144.0338          0.255         0.5726      -106.6517      -59.88932      0.2041983
      3550.0000       146.0268         0.2557            0.6      -109.0172      -62.25662      0.1722078
      3550.5000        146.649         0.2564         0.6273      -111.3804      -64.62163      0.1402483
      3551.0000       148.5791         0.2571         0.6467      -113.3548      -66.59782      0.1135429
      3551.5000       148.2367         0.2578          0.674      -114.1537      -67.39853      0.1027226
      3552.0000       147.7285         0.2586         0.7169      -115.7409      -68.98753     0.08124955
      3552.5000         148.27         0.2592         0.7677      -121.6635      -74.91193    0.001190186
      3553.0000       148.7341         0.2599         0.8186      -124.0344      -77.28464              0
      3553.5000       148.5652         0.2606         0.8658      -126.4054      -79.65744              0
      3554.0000       147.4969         0.2612         0.8696      -126.0325      -79.28635              0
      3554.5000       146.7823         0.2619         0.9011      -125.2677      -78.52335              0
      3555.0000        146.337         0.2626         0.9327      -124.5029      -77.76035              0
      3555.5000       148.1159         0.2633         0.9564      -123.3461      -76.60535              0
      3556.0000       151.4178         0.2592         0.9921      -123.3652      -76.62624              0
      3556.5000       158.1702         0.2491         0.9921      -123.3843      -76.64715              0
      3557.0000        157.629         0.2499         0.9801      -123.4034      -76.66805              0
