#------------------------------------------------------------------------------
# Created by    : vladimir.rabinovich
# Created on    : 09/19/2023 17:22:55
#------------------------------------------------------------------------------
~Version Information Section
VERS.           2.0     :   CWLS log ASCII Standard - VERSION 2.0
WRAP.           NO      :   One line per depth step
~Well Information Section
#MNEM       .UNIT                                         VALUE :DESCRIPTION
#------------------------------------------------------------------------------
STRT        .FT                                            1527 :START DEPTH
STOP        .FT                                            8498 :STOP DEPTH
STEP        .FT                                             0.5 :STEP      
NULL        .                                           -999.25 :NULL      
COMP        .                           SAN JUAN EXPLORATION CO :COMPANY   
WELL        .                                MIDDLETON ETAL R M :WELL      
FLD         .                                           WILDCAT :FIELD     
LOC         .                                                   :LOCATION  
CNTY        .                                          CHAMBERS :LOCATION  
STAT        .                                             TEXAS :STATE     
CTRY        .                                     UNITED STATES :COUNTRY   
SRVC        .                                                   :SERVICE COMPANY
DATE        .                             9/13/2023 11:19:11 AM :LOG DATE  
API         .                                    42071022810000 :API NUMBER
UWI         .                                    42071022810000 :UNIQUE WELL ID
XCOORD      .                                  1136491.54221464 :SURFACE X 
YCOORD      .                                  10781024.2027564 :SURFACE Y 
LAT         .                                        29.6967824 :LATITUDE  
LON         .                                       -94.5875983 :LONGITUDE 
ELEV        .FT                                              24 :ELEVATION VALUE
ELEV_TYPE   .                                                DF :ELEVATION REFERENCE TYPE
~Curve Information Section
#MNEM       .UNIT                                      API CODE :CURVE DESCRIPTION
#------------------------------------------------------------------------------
DEPT        .FT                                                 :DEPTH     
LAT         .OHMM                                               :          
LN          .OHMM                                               :          
SN          .OHMM                                               :          
SP          .MV                                                 :          
SP_NORM     .MV                                                 :SP Normalized
VSH_SP      .V/V                                                :Volume of Shale from SP
~A        DEPTH            LAT             LN             SN             SP        SP_NORM         VSH_SP
# ...
      8443.0000         0.3733         0.4264         0.3749      -142.2664      -88.25938     0.01955757
      8443.5000         0.3331         0.4173         0.3644      -131.1279      -77.16999      0.1441574
      8444.0000         0.2921         0.4082         0.3515      -126.6978      -72.78901      0.1933819
      8444.5000         0.3065         0.3991         0.3205      -123.7683      -69.90863      0.2257457
      8445.0000         0.3586           0.39         0.2946      -125.1566      -71.34605      0.2095949
      8445.5000         0.4106         0.3809         0.3016      -129.2588      -75.49738      0.1629508
      8446.0000         0.4644         0.3746         0.3086      -126.7651      -73.05279      0.1904181
      8446.5000         0.5217         0.3889         0.3156      -123.9121      -70.24891      0.2219224
      8447.0000         0.5791         0.4033         0.3226      -121.0635      -67.44942      0.2533773
      8447.5000         0.6202         0.4176         0.3469      -101.3074      -47.74245      0.4748039
      8448.0000         0.6413          0.432          0.386      -122.3755      -68.85966      0.2375319
      8448.5000         0.6138         0.4464         0.4251      -129.6677      -76.20097      0.1550452
      8449.0000         0.5863         0.4613         0.4711      -133.2036        -79.786       0.114764
      8449.5000         0.5588         0.4763         0.5014      -137.1396      -83.77113     0.06998735
      8450.0000         0.5314         0.4912         0.4635       -140.415      -87.09563     0.03263332
      8450.5000         0.5039         0.4885         0.4257      -141.8328      -88.56256       0.016151
      8451.0000         0.4849         0.4691         0.3889      -142.8132      -89.59209    0.004583295
      8451.5000         0.4684         0.4497         0.3524      -141.7292      -88.55721     0.01621118
      8452.0000         0.4519         0.4323         0.3937      -139.8289      -86.70602     0.03701096
      8452.5000         0.4354         0.4167          0.439      -137.9282      -84.85445     0.05781521
      8453.0000          0.419         0.4012         0.5119      -131.2178      -78.19316      0.1326611
      8453.5000         0.4025         0.4101         0.6414      -127.6368      -74.66129      0.1723451
      8454.0000          0.386         0.4274         1.1225      -124.3973       -71.4709      0.2081921
      8454.5000         0.4062         0.4447         1.4401      -127.6234      -74.74612      0.1713919
      8455.0000         0.4284          0.462         1.7342      -131.7974      -78.96923      0.1239412
      8455.5000         0.4506         0.4793         2.2577      -126.9404      -74.16135      0.1779623
      8456.0000         0.4748         0.4944         3.2685      -122.7933      -70.06337      0.2240071
      8456.5000         0.5252         0.4956          3.578      -118.6462      -65.96539      0.2700518
      8457.0000         0.5753         0.4968         3.7256      -115.8134      -63.18171      0.3013291
      8457.5000         0.5643         0.4894         2.1009      -118.1071      -65.52454      0.2750052
      8458.0000         0.5532         0.4655         1.7433      -121.1332      -68.59975      0.2404522
      8458.5000         0.5422         0.4416          1.468      -123.0719      -70.58757      0.2181172
      8459.0000         0.5563         0.4238         1.7419      -123.7863      -71.35109      0.2095383
      8459.5000         0.6101         0.4357         2.0356      -118.6372      -66.25111      0.2668414
      8460.0000          0.664         0.4501         2.3748       -113.587      -61.25003      0.3230334
      8460.5000         0.7179         0.4686         2.5552      -108.5997      -56.31185      0.3785185
      8461.0000         0.7685          0.487         1.7074       -93.9613      -41.72257       0.542443
      8461.5000         0.8149         0.5055         1.5266       -67.2095      -15.01989      0.8424731
      8462.0000         0.8029          0.524         1.3992       -56.3453      -4.204807      0.9639909
      8462.5000         0.7515         0.5424         1.2901        -48.114       3.977375              1
      8463.0000         0.7002         0.5609         1.1644       -44.9463       7.095951              1
      8463.5000          0.656         0.5599         1.0376        -49.381       2.612133              1
      8464.0000         0.6212         0.5526         0.9189        -53.564      -1.619984      0.9930339
      8464.5000         0.5864         0.5453         0.8337       -56.7496      -4.854706      0.9566887
      8465.0000         0.5515          0.538         0.7764       -59.5533      -7.707523      0.9246346
      8465.5000         0.5167         0.5307         0.7457       -61.8717      -10.07504      0.8980332
      8466.0000         0.5062         0.5235          0.715       -65.6638      -13.91627      0.8548734
      8466.5000         0.5237         0.5163         0.6874       -70.1389      -18.44048      0.8040395
      8467.0000         0.5413         0.5092         0.6659        -72.983       -21.3337      0.7715315
      8467.5000         0.5501          0.502         0.6444       -75.4274      -23.82722      0.7435144
      8468.0000         0.5569         0.4948         0.6229       -77.0852      -25.53414      0.7243356
      8468.5000         0.5637         0.4899         0.6014       -70.1525      -18.65055      0.8016791
      8469.0000         0.5663         0.4938         0.5878       -70.2468      -18.79398      0.8000676
      8469.5000         0.5483         0.4995         0.5745       -68.2968       -16.8931      0.8214259
      8470.0000         0.5302         0.5079         0.5612       -56.3093       -4.95472       0.955565
      8470.5000         0.5122         0.5162         0.5719       -53.1013      -1.795837       0.991058
      8471.0000         0.4941         0.5266          0.583       -51.7803     -0.5239563              1
      8471.5000         0.4761           0.54         0.5941       -50.7941      0.4131203              1
      8472.0000          0.458         0.5535         0.6052       -50.7783      0.3798027              1
      8472.5000         0.4362         0.5669         0.6156       -52.0184     -0.9094124              1
      8473.0000         0.4116         0.5844         0.6258       -53.8224      -2.762535      0.9801962
      8473.5000         0.3869         0.6079         0.6361       -55.6263      -4.615555      0.9593758
      8474.0000         0.3622         0.6314         0.6463       -59.3287      -8.367073      0.9172239
      8474.5000         0.3379         0.6557         0.6366       -71.6755      -20.76299      0.7779439
      8475.0000         0.3159         0.6836         0.6128       -78.7028      -27.83941      0.6984336
      8475.5000         0.2982         0.6934         0.5889       -82.2208      -31.40653      0.6583536
      8476.0000         0.2884         0.6736          0.565       -85.1368      -34.37165      0.6250376
      8476.5000         0.2786         0.6538         0.5412       -93.6377      -42.92167      0.5289699
      8477.0000         0.2688          0.634         0.5173      -106.9867      -56.31979      0.3784293
      8477.5000          0.259         0.6143         0.5215        -94.824      -44.20621       0.514537
      8478.0000         0.2366         0.6023         0.5315       -77.7142      -27.14553        0.70623
      8478.5000         0.2172         0.5922         0.5414       -59.0995      -8.579945      0.9148321
      8479.0000         0.2876         0.5821         0.5514       -56.1341       -5.66367      0.9475992
      8479.5000         0.3581         0.5777         0.5613       -53.6449      -3.223587      0.9750159
      8480.0000          0.405         0.5931          0.574       -51.6365      -1.264309      0.9970303
      8480.5000         0.4388         0.6084         0.5902        -50.028      0.2950745              1
