#------------------------------------------------------------------------------
# Created by    : vladimir.rabinovich
# Created on    : 09/19/2023 17:22:53
#------------------------------------------------------------------------------
~Version Information Section
VERS.           2.0     :   CWLS log ASCII Standard - VERSION 2.0
WRAP.           NO      :   One line per depth step
~Well Information Section
#MNEM       .UNIT                                         VALUE :DESCRIPTION
#------------------------------------------------------------------------------
STRT        .FT                                            1498 :START DEPTH
STOP        .FT                                           11000 :STOP DEPTH
STEP        .FT                                             0.5 :STEP      
NULL        .                                           -999.25 :NULL      
COMP        .                                     CANNAN MORRIS :COMPANY   
WELL        .                                             GARTH :WELL      
FLD         .                                           WILDCAT :FIELD     
LOC         .                                                   :LOCATION  
CNTY        .                                          CHAMBERS :LOCATION  
STAT        .                                             TEXAS :STATE     
CTRY        .                                     UNITED STATES :COUNTRY   
SRVC        .                                                   :SERVICE COMPANY
DATE        .                             9/13/2023 11:19:11 AM :LOG DATE  
API         .                                    42071310360000 :API NUMBER
UWI         .                                    42071310360000 :UNIQUE WELL ID
XCOORD      .                                  1175356.83007784 :SURFACE X 
YCOORD      .                                  10818692.0839896 :SURFACE Y 
LAT         .                                        29.8017803 :LATITUDE  
LON         .                                       -94.4666967 :LONGITUDE 
ELEV        .FT                                              25 :ELEVATION VALUE
ELEV_TYPE   .                                                GL :ELEVATION REFERENCE TYPE
~Curve Information Section
#MNEM       .UNIT                                      API CODE :CURVE DESCRIPTION
#------------------------------------------------------------------------------
DEPT        .FT                                                 :DEPTH     
ILD         .OHMM                                               :          
SFL         .OHMM                                               :          
SP          .MV                                                 :          
SP_NORM     .MV                                                 :SP Normalized
VSH_SP      .V/V                                                :Volume of Shale from SP
~A        DEPTH            ILD            SFL             SP        SP_NORM         VSH_SP
# ...
     10342.0000         0.4646         0.4967        -1.3378        -1.3378      0.9964064
     10342.5000         0.4638         0.4967        -1.3384        -1.3384         0.9964
     10343.0000          0.463         0.4967         -1.339         -1.339      0.9963936
     10343.5000         0.4622         0.4967        -1.3396        -1.3396      0.9963872
     10344.0000         0.4615         0.4979        -1.3402        -1.3402      0.9963809
     10344.5000         0.4647         0.5003        -1.3408        -1.3408      0.9963745
     10345.0000         0.4683         0.5028        -1.3249        -1.3249      0.9965436
     10345.5000         0.4772         0.5053        -1.3082        -1.3082      0.9967213
     10346.0000         0.4878         0.5078        -1.2916        -1.2916      0.9968979
     10346.5000         0.4984         0.5145        -1.2749        -1.2749      0.9970756
     10347.0000         0.5097         0.5222        -1.2656        -1.2656      0.9971744
     10347.5000         0.5221         0.5312        -1.2662        -1.2662      0.9971681
     10348.0000         0.5344         0.5439        -1.2668        -1.2668      0.9971617
     10348.5000         0.5251         0.5565        -1.2673        -1.2673      0.9971564
     10349.0000         0.5136         0.5692         -1.227         -1.227      0.9975851
     10349.5000         0.5022         0.5867        -1.1427        -1.1427      0.9984819
     10350.0000         0.4907         0.6078        -1.0584        -1.0584      0.9993787
     10350.5000         0.4796         0.6289        -1.0639        -1.0639      0.9993202
     10351.0000         0.4687           0.65        -1.1041        -1.1041      0.9988925
     10351.5000         0.4724         0.6615        -1.3049        -1.3049      0.9967564
     10352.0000         0.4838         0.6715        -1.5589        -1.5589      0.9940543
     10352.5000         0.4953         0.6814         -1.886         -1.886      0.9905745
     10353.0000         0.4994         0.6903        -2.2626        -2.2626      0.9865681
     10353.5000         0.5029         0.6898        -2.6392        -2.6392      0.9825617
     10354.0000         0.5064         0.6742        -2.8586        -2.8586      0.9802276
     10354.5000         0.5053         0.6509        -2.6523        -2.6523      0.9824224
     10355.0000         0.5013         0.6229         -2.446         -2.446       0.984617
     10355.5000         0.4973         0.5948          -2.24          -2.24      0.9868085
     10356.0000         0.4909         0.5668        -2.0172        -2.0172      0.9891787
     10356.5000         0.4833         0.5428        -1.6657        -1.6657      0.9929181
     10357.0000         0.4758         0.5206        -1.3141        -1.3141      0.9966585
     10357.5000         0.4693         0.5288        -0.9619        -0.9619              1
     10358.0000         0.4638         0.5414         -0.718         -0.718              1
     10358.5000         0.4583         0.5581         -0.679         -0.679              1
     10359.0000         0.4528         0.5748        -0.6596        -0.6596              1
     10359.5000         0.4474         0.5915        -0.6734        -0.6734              1
     10360.0000         0.4419         0.6083        -0.6872        -0.6872              1
     10360.5000         0.4364         0.6073         -0.701         -0.701              1
     10361.0000         0.4309          0.599        -0.7148        -0.7148              1
     10361.5000         0.4254         0.5907        -0.7286        -0.7286              1
     10362.0000         0.4199         0.5816        -0.7397        -0.7397              1
     10362.5000         0.4144         0.5712        -0.7478        -0.7478              1
     10363.0000         0.4115         0.5609        -0.7559        -0.7559              1
     10363.5000         0.4092         0.5505         -0.764         -0.764              1
     10364.0000          0.407         0.5401         -0.772         -0.772              1
     10364.5000         0.4047         0.5297        -0.7801        -0.7801              1
     10365.0000         0.4025          0.525        -0.7882        -0.7882              1
     10365.5000         0.4002         0.5226        -0.7962        -0.7962              1
     10366.0000         0.3979         0.5201        -0.8043        -0.8043              1
     10366.5000         0.3993         0.5177        -0.8124        -0.8124              1
     10367.0000         0.4016         0.5152        -0.8203        -0.8203              1
     10367.5000         0.4039          0.524        -0.8208        -0.8208              1
     10368.0000         0.4103         0.5349        -0.8214        -0.8214              1
     10368.5000         0.4214         0.5458         -0.822         -0.822              1
     10369.0000         0.4374         0.5568        -0.8226        -0.8226              1
     10369.5000         0.4555          0.575        -0.8232        -0.8232              1
     10370.0000         0.4732         0.5993        -0.8238        -0.8238              1
     10370.5000         0.4907         0.6235        -0.8244        -0.8244              1
     10371.0000         0.5083         0.6478        -0.8249        -0.8249              1
     10371.5000         0.5258          0.672        -0.8255        -0.8255              1
     10372.0000         0.5429         0.6901        -0.8261        -0.8261              1
     10372.5000         0.5549         0.7073        -0.8451        -0.8451              1
     10373.0000          0.567         0.7245        -0.8645        -0.8645              1
     10373.5000         0.5778         0.7417         -0.884         -0.884              1
     10374.0000         0.5821         0.7355        -0.9035        -0.9035              1
     10374.5000         0.5863         0.7227         -0.923         -0.923              1
     10375.0000          0.586         0.7042        -0.9424        -0.9424              1
     10375.5000         0.5793         0.6824        -0.9619        -0.9619              1
     10376.0000         0.5725         0.6605        -0.9814        -0.9814              1
     10376.5000         0.5658         0.6386        -1.0061        -1.0061      0.9999351
     10377.0000         0.5528         0.6195        -1.0332        -1.0332      0.9996468
     10377.5000         0.5392         0.6061        -1.0602        -1.0602      0.9993595
     10378.0000         0.5255         0.5928        -1.0872        -1.0872      0.9990723
     10378.5000         0.5119         0.5794        -1.1143        -1.1143      0.9987841
     10379.0000         0.4982         0.5687        -1.1413        -1.1413      0.9984968
     10379.5000         0.4842         0.5587        -1.1684        -1.1684      0.9982085
     10380.0000         0.4703         0.5486        -1.1954        -1.1954      0.9979213
     10380.5000         0.4563         0.5386        -1.2224        -1.2224      0.9976341
     10381.0000         0.4424         0.5345        -1.2494        -1.2494      0.9973468
     10381.5000         0.4317         0.5312        -1.2765        -1.2765      0.9970585
     10382.0000         0.4239         0.5278        -1.3035        -1.3035      0.9967713
     10382.5000         0.4162         0.5233        -1.3305        -1.3305       0.996484
     10383.0000         0.4119         0.5169        -1.3576        -1.3576      0.9961957
     10383.5000         0.4076         0.5105        -1.3846        -1.3846      0.9959085
     10384.0000         0.4034         0.5042        -1.4116        -1.4116      0.9956213
     10384.5000          0.401         0.5021        -1.4386        -1.4386       0.995334
     10385.0000         0.4037         0.5021        -1.4657        -1.4657      0.9950457
     10385.5000         0.4063         0.5078        -1.4562        -1.4562      0.9951468
