#------------------------------------------------------------------------------
# Created by    : vladimir.rabinovich
# Created on    : 09/19/2023 17:22:55
#------------------------------------------------------------------------------
~Version Information Section
VERS.           2.0     :   CWLS log ASCII Standard - VERSION 2.0
WRAP.           NO      :   One line per depth step
~Well Information Section
#MNEM       .UNIT                                         VALUE :DESCRIPTION
#------------------------------------------------------------------------------
STRT        .FT                                            1527 :START DEPTH
STOP        .FT                                            8498 :STOP DEPTH
STEP        .FT                                             0.5 :STEP      
NULL        .                                           -999.25 :NULL      
COMP        .                           SAN JUAN EXPLORATION CO :COMPANY   
WELL        .                                MIDDLETON ETAL R M :WELL      
FLD         .                                           WILDCAT :FIELD     
LOC         .                                                   :LOCATION  
CNTY        .                                          CHAMBERS :LOCATION  
STAT        .                                             TEXAS :STATE     
CTRY        .                                     UNITED STATES :COUNTRY   
SRVC        .                                                   :SERVICE COMPANY
DATE        .                             9/13/2023 11:19:11 AM :LOG DATE  
API         .                                    42071022810000 :API NUMBER
UWI         .                                    42071022810000 :UNIQUE WELL ID
XCOORD      .                                  1136491.54221464 :SURFACE X 
YCOORD      .                                  10781024.2027564 :SURFACE Y 
LAT         .                                        29.6967824 :LATITUDE  
LON         .                                       -94.5875983 :LONGITUDE 
ELEV        .FT                                              24 :ELEVATION VALUE
ELEV_TYPE   .                                                DF :ELEVATION REFERENCE TYPE
~Curve Information Section
#MNEM       .UNIT                                      API CODE :CURVE DESCRIPTION
#------------------------------------------------------------------------------
DEPT        .FT                                                 :DEPTH     
LAT         .OHMM                                               :          
LN          .OHMM                                               :          
SN          .OHMM                                               :          
SP          .MV                                                 :          
SP_NORM     .MV                                                 :SP Normalized
VSH_SP      .V/V                                                :Volume of Shale from SP
~A        DEPTH            LAT             LN             SN             SP        SP_NORM         VSH_SP
      1527.0000         0.0392              0         0.0522      -103.7245      -7.428207      0.8109351
      1527.5000         0.0439         0.0274         0.1172       -105.655      -9.358704      0.7541558
      1528.0000         0.0485           0.11         0.2239      -108.8032       -12.5069      0.6615616
      1528.5000         0.0531         0.6023          0.362      -114.1372       -17.8409      0.5046793
      1529.0000         0.0578         0.7814         0.5426      -116.9976       -20.7013        0.42055
      1529.5000         0.0508         1.0019         0.7884      -115.8175       -19.5212      0.4552588
      1530.0000         0.0438         1.1502         1.0466      -114.6375       -18.3412      0.4899647
      1530.5000         0.0368          1.238         1.1511      -112.7457       -16.4494      0.5456058
      1531.0000         0.0298          1.298         1.2363      -110.8538       -14.5575      0.6012499
      1531.5000         0.0228         1.3367         1.2958      -109.0161       -12.7198      0.6552999
      1532.0000         0.0158         1.3755         1.3366      -107.1903        -10.894      0.7089999
      1532.5000         0.0081          1.409         1.3774      -105.4319      -9.135605      0.7607175
      1533.0000              0         1.4352         1.4123      -103.6981      -7.401802      0.8117117
      1533.5000              0         1.4613         1.4274      -102.1968      -5.900505      0.8558675
      1534.0000              0         1.4872         1.4425      -100.6965      -4.400208      0.8999939
      1534.5000              0         1.5122         1.4576       -99.1995      -2.903206      0.9440234
      1535.0000              0         1.5372         1.4727       -97.6301      -1.333801      0.9901823
      1535.5000              0         1.5624         1.4926       -96.0977      0.1985931              1
      1536.0000              0          1.589         1.5178       -97.2545     -0.9582062              1
      1536.5000              0         1.6157         1.5429        -98.197      -1.900703      0.9735087
      1537.0000              0         1.6423          1.568       -97.6487      -1.352402      0.9896352
      1537.5000              0          1.668         1.5993       -97.1002     -0.8039017              1
      1538.0000              0         1.6938         1.6428       -96.5518     -0.2555084              1
      1538.5000              0          1.719         1.6864       -97.4221      -1.125801         0.9963
      1539.0000              0         1.7427         1.7426       -98.5734      -2.277107       0.962438
      1539.5000              0         1.7609         1.8025      -100.0316      -3.735306      0.9195498
      1540.0000              0         1.7753         1.8983      -101.4902      -5.193901        0.87665
      1540.5000              0         1.7874         2.0104      -102.1646      -5.868301      0.8568147
      1541.0000              0         1.7963         2.0031      -101.3651      -5.068802      0.8803294
      1541.5000              0         1.8046         1.9442      -100.5658      -4.269508       0.903838
      1542.0000              0          1.811         1.8954       -99.7098      -3.413506      0.9290146
      1542.5000              0         1.8118         1.8746       -98.5756      -2.279305      0.9623734
      1543.0000              0         1.8126         1.8537       -97.4417      -1.145409      0.9957232
      1543.5000              0         1.8134         1.8328       -96.3074     -0.0111084              1
      1544.0000              0         1.8109         1.8142       -95.2731       1.023193              1
      1544.5000              0         1.8002         1.8169       -94.3903       1.905998              1
      1545.0000              0         1.7895         1.8195        -93.526       2.770294              1
      1545.5000              0         1.7787         1.8221       -93.9708       2.325493              1
      1546.0000         0.0167          1.768         1.8205        -94.488       1.808296              1
      1546.5000         0.0636         1.7574         1.7921       -95.2516       1.044693              1
      1547.0000         0.2626         1.7467         1.7637       -96.0151      0.2811966              1
      1547.5000         0.9224         1.7361         1.7353       -96.7787     -0.4824066              1
      1548.0000         1.0308         1.7255         1.7069       -97.5183      -1.222008      0.9934704
      1548.5000         1.1269         1.7299         1.6784       -97.8607      -1.564407      0.9833998
      1549.0000         1.2062         1.7389         1.6492       -98.2031      -1.906807      0.9733292
      1549.5000         1.2848          1.748         1.6201       -98.5455      -2.249207      0.9632586
      1550.0000           1.36         1.7548          1.591       -98.8348      -2.538506      0.9547498
      1550.5000         1.4151         1.7533         1.5635       -99.0992      -2.802902      0.9469734
      1551.0000         1.4314         1.7518         1.5427       -99.1715      -2.875206      0.9448469
      1551.5000         1.4363         1.7333          1.522       -99.0488      -2.767471      0.9480156
      1552.0000         1.4176          1.705         1.5013       -98.9606      -2.695587      0.9501298
      1552.5000          1.399         1.6766         1.4805        -99.142      -2.893303      0.9443146
      1553.0000         1.3803          1.649          1.478       -99.4281      -3.195717      0.9354201
      1553.5000         1.3617         1.6334         1.4792      -100.4305      -4.214424      0.9054581
      1554.0000          1.343         1.6177         1.4861       -99.2881      -3.088348       0.938578
      1554.5000          1.335          1.602         1.5899       -99.3167      -3.133263       0.937257
      1555.0000         1.3309         1.5863         1.6936      -101.4595      -5.292374      0.8737537
      1555.5000         1.3332          1.588         1.8775      -104.3885      -8.237679      0.7871271
      1556.0000         1.3842         1.5919          2.151      -108.7704       -12.6359      0.6577676
      1556.5000         1.4351         1.5957         2.3639      -116.9441      -20.82591      0.4168849
      1557.0000         1.4861         1.5996         2.4349      -118.8309      -22.72903       0.360911
      1557.5000         1.5156         1.6077         2.4961      -120.5396      -24.45404      0.3101753
      1558.0000         1.4779         1.6243         2.4096      -122.5068      -26.43755      0.2518367
      1558.5000         1.4331         1.6409           2.29      -124.9517      -28.89877      0.1794481
      1559.0000         1.3884         1.6574         2.1415      -126.4702      -30.43359      0.1343063
      1559.5000         1.3585          1.674         1.9927      -127.0948       -31.0745      0.1154559
      1560.0000         1.3308         1.7003         1.8428      -126.5891      -30.58511      0.1298496
      1560.5000         1.3031         1.7292          1.744      -125.3391      -29.35143      0.1661343
      1561.0000         1.3007         1.7581         1.6768      -122.3669      -26.39554      0.2530724
      1561.5000          1.302         1.7923         1.6096      -117.0776      -21.12255      0.4081603
      1562.0000         1.3033         1.8334         1.5678      -113.5326      -17.59386      0.5119452
      1562.5000         1.3327         1.8739         1.5314      -109.4362      -13.51379      0.6319475
      1563.0000         1.3766         1.9036         1.4951      -104.4735      -8.567398      0.7774295
      1563.5000         1.4205         1.9011         1.4776      -100.3492      -4.459404      0.8982528
      1564.0000         1.4647         1.8985         1.4706       -98.4745      -2.601028      0.9529109
      1564.5000         1.5279         1.8957         1.4637       -97.4093      -1.552139      0.9837606
