#------------------------------------------------------------------------------
# Created by    : vladimir.rabinovich
# Created on    : 09/19/2023 17:22:50
#------------------------------------------------------------------------------
~Version Information Section
VERS.           2.0     :   CWLS log ASCII Standard - VERSION 2.0
WRAP.           NO      :   One line per depth step
~Well Information Section
#MNEM       .UNIT                                         VALUE :DESCRIPTION
#------------------------------------------------------------------------------
STRT        .FT                                          1999.5 :START DEPTH
STOP        .FT                                            9645 :STOP DEPTH
STEP        .FT                                             0.5 :STEP      
NULL        .                                           -999.25 :NULL      
COMP        .                          STANDARD OIL CO OF TEXAS :COMPANY   
WELL        .                                  STATE TRACT 1-4D :WELL      
FLD         .                                           WILDCAT :FIELD     
LOC         .                                                   :LOCATION  
CNTY        .                                          CHAMBERS :LOCATION  
STAT        .                                             TEXAS :STATE     
CTRY        .                                     UNITED STATES :COUNTRY   
SRVC        .                                                   :SERVICE COMPANY
DATE        .                             9/13/2023 11:19:11 AM :LOG DATE  
API         .                                    42071032270000 :API NUMBER
UWI         .                                    42071032270000 :UNIQUE WELL ID
XCOORD      .                                  1086986.65859336 :SURFACE X 
YCOORD      .                                  10762945.0682871 :SURFACE Y 
LAT         .                                        29.6451099 :LATITUDE  
LON         .                                       -94.7426468 :LONGITUDE 
ELEV        .FT                                              20 :ELEVATION VALUE
ELEV_TYPE   .                                                DF :ELEVATION REFERENCE TYPE
~Curve Information Section
#MNEM       .UNIT                                      API CODE :CURVE DESCRIPTION
#------------------------------------------------------------------------------
DEPT        .FT                                                 :DEPTH     
DT          .US/F                                               :          
IND         .OHMM                                               :          
SN          .OHMM                                               :          
SP          .MV                                                 :          
SP_NORM     .MV                                                 :SP Normalized
VSH_SP      .V/V                                                :Volume of Shale from SP
~A        DEPTH             DT            IND             SN             SP        SP_NORM         VSH_SP
# ...
      6559.5000        111.068         0.4569         0.5797        -72.012      -30.03669       0.673745
      6560.0000        114.744         0.5179         0.6038        -55.696      -13.72069      0.8570709
      6560.5000       117.1621         0.5485         0.6196       -39.2157       2.759609              1
      6561.0000       117.2226          0.579         0.6353       -39.2157       2.759609              1
      6561.5000       116.7523         0.5941          0.651       -39.6078       2.367508              1
      6562.0000       116.1577         0.5937         0.6667       -39.6078       2.367508              1
      6562.5000       115.6878         0.5932         0.6784       -40.3922       1.583107              1
      6563.0000       114.8779         0.5772         0.6902       -41.1765      0.7988091              1
      6563.5000       112.9105         0.5768          0.698       -42.3529      -0.377594              1
      6564.0000       112.6458         0.5608         0.7098       -43.1373      -1.161991      0.9981799
      6564.5000       112.6017         0.5603         0.7176       -44.3137      -2.338394      0.9849619
      6565.0000       113.0662         0.5599         0.7255        -45.098      -3.122692      0.9761495
      6565.5000        114.713         0.5594         0.7373       -46.2745      -4.299194      0.9629304
      6566.0000       117.6723         0.5589         0.7451       -46.6667      -4.691391      0.9585237
      6566.5000       120.6465         0.5584         0.7569       -46.6667      -4.691391      0.9585237
      6567.0000       123.0924         0.5425         0.7569       -44.7059      -2.730591      0.9805552
      6567.5000       125.6742         0.5265         0.7412       -40.3922       1.583107              1
      6568.0000       125.2105         0.5261         0.7098       -36.0784       5.896908              1
      6568.5000       123.7528         0.5101         0.6784       -32.1569       9.818409              1
      6569.0000       120.9721         0.5097         0.6588       -32.1569       9.818409              1
      6569.5000       117.1682         0.5092         0.6667        -32.549       9.426308              1
      6570.0000       115.1578         0.5243         0.6745       -33.3333       8.642006              1
      6570.5000       115.0033         0.5238         0.6824       -35.2918       6.683506              1
      6571.0000       117.9426         0.5373         0.6902       -37.2509       4.724407              1
      6571.5000         121.21         0.5539          0.698       -39.2138       2.761509              1
      6572.0000       124.3685         0.5689         0.7098       -40.7843       1.191006              1
      6572.5000       126.9924         0.5684         0.7098       -42.7451     -0.7697906              1
      6573.0000        128.924         0.5679         0.7098       -44.7059      -2.730591      0.9805552
      6573.5000       127.9957         0.5675          0.702       -45.8824      -3.907093      0.9673361
      6574.0000       126.0653          0.567          0.702       -40.3922       1.583107              1
      6574.5000       124.6376         0.5666         0.6941       -40.3922       1.583107              1
      6575.0000       123.5526         0.5661         0.6941       -41.5686      0.4067078              1
      6575.5000       122.7407         0.5657         0.6941       -42.7451     -0.7697906              1
      6576.0000       122.7029         0.5652         0.6902       -43.9216      -1.946293      0.9893675
      6576.5000       123.0558         0.5492         0.6863       -44.7059      -2.730591      0.9805552
      6577.0000       123.9018         0.5488         0.6824        -45.098      -3.122692      0.9761495
      6577.5000       124.8004         0.5483         0.6824       -43.9216      -1.946293      0.9893675
      6578.0000       125.1399         0.5477         0.6784       -42.3529      -0.377594              1
      6578.5000       124.9083         0.5473         0.6745       -40.7843       1.191006              1
      6579.0000       124.5585         0.5469         0.6706        -39.202       2.773308              1
      6579.5000       124.6605         0.5464         0.6667       -39.2012       2.774109              1
      6580.0000       125.4506          0.546         0.6667       -39.6002       2.375107              1
      6580.5000        125.683         0.5455         0.6667       -42.3529      -0.377594              1
      6581.0000       125.3872         0.5471         0.6706        -45.098      -3.122692      0.9761495
      6581.5000       124.5236         0.5635         0.6745       -46.6667      -4.691391      0.9585237
      6582.0000       123.5176         0.5752         0.6784       -46.6667      -4.691391      0.9585237
      6582.5000       121.6157         0.5807         0.6863       -43.9216      -1.946293      0.9893675
      6583.0000       118.8015         0.6052          0.698       -40.7843       1.191006              1
      6583.5000       117.0729         0.6133         0.7137          -37.6       4.375309              1
      6584.0000       114.7845         0.6662         0.7294          -37.6       4.375309              1
      6584.5000       113.5434         0.6813         0.7451          -38.8       3.175308              1
      6585.0000       113.4664         0.6964         0.7608       -41.5686      0.4067078              1
      6585.5000       112.4821         0.7269         0.7725       -44.3137      -2.338394      0.9849619
      6586.0000       108.9041         0.7265         0.7843       -47.0588      -5.083492      0.9541181
      6586.5000       106.8998         0.7095         0.7882       -49.8039      -7.828594      0.9232742
      6587.0000       105.6183         0.6923         0.7922       -48.6275      -6.652191      0.9364922
      6587.5000       105.7341         0.6631         0.7882       -45.4902      -3.514893      0.9717428
      6588.0000       107.6152         0.6316         0.7843       -42.7451     -0.7697906              1
      6588.5000       110.3476         0.6156         0.7725          -39.6       2.375309              1
      6589.0000       113.3144         0.5996         0.7529          -38.4       3.575306              1
      6589.5000       116.2928         0.5992         0.7294          -39.2       2.775307              1
      6590.0000        119.744         0.5831          0.702       -43.1373      -1.161991      0.9981799
      6590.5000       122.9055         0.5672         0.6824       -47.0394      -5.064091       0.954336
      6591.0000       125.1401         0.5667         0.6667       -44.2747      -2.299393      0.9854001
      6591.5000       127.1068         0.5508         0.6588       -41.5099      0.4654083              1
      6592.0000        127.413         0.5503         0.6549       -39.9302       2.045109              1
      6592.5000       126.1603         0.5499         0.6549       -37.1229       4.852409              1
      6593.0000       125.3929         0.5494         0.6588       -35.5147       6.460606              1
      6593.5000       125.1504          0.549         0.6667       -36.6915       5.283806              1
      6594.0000       125.5281         0.5535         0.6706       -39.0571       2.918209              1
      6594.5000       125.3773         0.5636         0.6745       -42.5692     -0.5938911              1
      6595.0000       124.5327         0.5631         0.6784       -44.1187      -2.143391      0.9871529
      6595.5000       123.6467         0.5626         0.6824       -44.0991      -2.123791      0.9873731
      6596.0000       122.8035         0.5931         0.6902       -42.9028      -0.927494              1
      6596.5000       121.7495         0.5926         0.6941       -40.1382       1.837109              1
      6597.0000       120.9628         0.5922          0.702       -38.5496       3.425709              1
