#------------------------------------------------------------------------------
# Created by    : vladimir.rabinovich
# Created on    : 09/19/2023 17:22:55
#------------------------------------------------------------------------------
~Version Information Section
VERS.           2.0     :   CWLS log ASCII Standard - VERSION 2.0
WRAP.           NO      :   One line per depth step
~Well Information Section
#MNEM       .UNIT                                         VALUE :DESCRIPTION
#------------------------------------------------------------------------------
STRT        .FT                                            1527 :START DEPTH
STOP        .FT                                            8498 :STOP DEPTH
STEP        .FT                                             0.5 :STEP      
NULL        .                                           -999.25 :NULL      
COMP        .                           SAN JUAN EXPLORATION CO :COMPANY   
WELL        .                                MIDDLETON ETAL R M :WELL      
FLD         .                                           WILDCAT :FIELD     
LOC         .                                                   :LOCATION  
CNTY        .                                          CHAMBERS :LOCATION  
STAT        .                                             TEXAS :STATE     
CTRY        .                                     UNITED STATES :COUNTRY   
SRVC        .                                                   :SERVICE COMPANY
DATE        .                             9/13/2023 11:19:11 AM :LOG DATE  
API         .                                    42071022810000 :API NUMBER
UWI         .                                    42071022810000 :UNIQUE WELL ID
XCOORD      .                                  1136491.54221464 :SURFACE X 
YCOORD      .                                  10781024.2027564 :SURFACE Y 
LAT         .                                        29.6967824 :LATITUDE  
LON         .                                       -94.5875983 :LONGITUDE 
ELEV        .FT                                              24 :ELEVATION VALUE
ELEV_TYPE   .                                                DF :ELEVATION REFERENCE TYPE
~Curve Information Section
#MNEM       .UNIT                                      API CODE :CURVE DESCRIPTION
#------------------------------------------------------------------------------
DEPT        .FT                                                 :DEPTH     
LAT         .OHMM                                               :          
LN          .OHMM                                               :          
SN          .OHMM                                               :          
SP          .MV                                                 :          
SP_NORM     .MV                                                 :SP Normalized
VSH_SP      .V/V                                                :Volume of Shale from SP
~A        DEPTH            LAT             LN             SN             SP        SP_NORM         VSH_SP
# ...
      4757.0000         0.5768         1.1748         0.9217       -66.3508       3.714073              1
      4757.5000         0.5649          1.133         0.9397       -67.1964        2.86615              1
      4758.0000         0.5868         1.0879         0.9578       -69.4314      0.6288376              1
      4758.5000         0.6226         1.0395         0.9758       -73.0841      -3.026184      0.9743521
      4759.0000         0.6583         0.9698         1.0904       -76.3789      -6.323303      0.9326164
      4759.5000         0.6941         0.9001         1.2116       -79.5153      -9.462021      0.8928858
      4760.0000         0.7584         0.8321         1.5013       -82.2281      -12.17715      0.8585171
      4760.5000         0.8779         0.7751         1.7648         -84.23      -14.18137      0.8331473
      4761.0000         0.9974          0.718          1.912       -86.3789      -16.33258      0.8059167
      4761.5000         1.4825          0.661         2.0146       -87.6613      -17.61731      0.7896543
      4762.0000         1.6501         0.6179         2.0947       -86.9712      -16.92953      0.7983604
      4762.5000         1.7856          0.587         2.1589       -85.9204      -15.88105      0.8116323
      4763.0000         1.8946         0.5561         2.2312       -84.4371      -14.40007      0.8303788
      4763.5000         2.0124         0.5252         2.3059       -83.3434      -13.30869      0.8441939
      4764.0000         2.1497         0.4989         2.3514       -84.0488       -14.0164      0.8352354
      4764.5000         2.2533         0.4817         2.2274       -86.2748      -16.24473      0.8070288
      4765.0000         2.3359         0.4645          1.976       -88.5574      -18.52965      0.7781057
      4765.5000         2.3804         0.4474          1.755       -90.8627      -20.83727      0.7488954
      4766.0000         2.4248         0.4318         1.5572       -94.3296      -24.30648      0.7049813
      4766.5000         2.4609         0.4264         1.3742      -100.6431       -30.6223      0.6250342
      4767.0000         2.4652         0.4246         1.2024      -113.3605      -43.34202      0.4640251
      4767.5000         2.3197         0.4442         1.0627      -119.8098      -49.79364       0.382359
      4768.0000         1.9114         0.4638         0.9331       -125.145      -55.13116      0.3147955
      4768.5000         1.3855         0.4834         0.8198      -129.6106      -59.59908      0.2582396
      4769.0000         1.1246         0.5031         0.7118      -139.4475      -69.43829      0.1336925
      4769.5000          0.962         0.5016         0.6375      -143.3345      -73.32762     0.08446049
      4770.0000         0.8469         0.4828         0.5744      -144.0789      -74.07435     0.07500825
      4770.5000           0.76          0.464         0.5113      -143.2542      -73.25196     0.08541822
      4771.0000          0.683         0.4452         0.5283      -142.4292      -72.42928     0.09583186
      4771.5000         0.6255         0.4264         0.5494      -141.6045      -71.60691      0.1062416
      4772.0000         0.6101         0.4124         0.5705       -141.481      -71.48573      0.1077756
      4772.5000         0.6381            0.4         0.5915       -143.116      -73.12304     0.08705013
      4773.0000         0.6661         0.3876         0.6126      -144.7578      -74.76716      0.0662385
      4773.5000          0.694         0.3751         0.6336      -146.4946      -76.50628     0.04422432
      4774.0000         0.6777         0.3627         0.5949      -148.2314       -78.2454     0.02221013
      4774.5000         0.6339         0.3502          0.547      -149.1479      -79.16422     0.01057946
      4775.0000           0.59         0.3508         0.4938      -149.6211      -79.63973     0.00456035
      4775.5000         0.5441          0.352         0.4407       -148.938      -78.95896      0.0131777
      4776.0000         0.4981         0.3532         0.3875      -147.6528      -77.67608     0.02941672
      4776.5000         0.4522         0.3544         0.3669      -146.3679       -76.3935     0.04565188
      4777.0000         0.4713         0.3556         0.3718       -145.312      -75.33991     0.05898845
      4777.5000         0.4979         0.3568         0.3919      -144.7192      -74.74943     0.06646294
      4778.0000         0.5179         0.3402         0.4389      -144.1272      -74.15976      0.0739271
      4778.5000         0.5351         0.3228         0.4859      -143.5344      -73.56927     0.08140159
      4779.0000         0.5524         0.3054         0.5089      -143.3923       -73.4295     0.08317083
      4779.5000         0.5518          0.288         0.4908      -143.3748      -73.41432     0.08336301
      4780.0000         0.5165         0.2706          0.458      -143.3574      -73.39925     0.08355384
      4780.5000         0.4812         0.2618         0.4247      -143.3401      -73.38426     0.08374352
      4781.0000         0.4459         0.2678         0.3915       -142.876      -72.92249     0.08958879
      4781.5000         0.4106         0.2738         0.3582      -142.1394       -72.1882     0.09888352
      4782.0000         0.3853         0.2798         0.3249      -141.4028      -71.45392      0.1081783
      4782.5000         0.3982         0.2858         0.3087      -140.7959      -70.84933      0.1158312
      4783.0000         0.4111         0.2918         0.2976      -141.9373      -71.99306      0.1013537
      4783.5000         0.4239         0.2935         0.2865      -143.6855      -73.74358     0.07919524
      4784.0000         0.4401         0.2879         0.2754      -145.4336      -75.49399     0.05703812
      4784.5000         0.4664         0.2822         0.2643      -146.6794      -76.74211      0.0412391
      4785.0000         0.4928         0.2766         0.2734      -146.4438      -76.50883     0.04419196
      4785.5000         0.5192          0.271         0.2975      -146.2083      -76.27565     0.04714367
      4786.0000         0.5456         0.2653         0.3215      -144.0535      -74.12318     0.07439017
      4786.5000         0.5559         0.2597         0.3456      -140.8357      -70.90769      0.1150925
      4787.0000          0.525         0.2559         0.3697      -142.9824      -73.05672     0.08788956
      4787.5000         0.4942         0.2522         0.4005      -145.1292      -75.20583     0.06068565
      4788.0000         0.4634         0.2485         0.4617      -145.9177      -75.99665     0.05067531
      4788.5000         0.4325         0.2448         0.5228      -145.4524      -75.53367     0.05653584
      4789.0000         0.4443         0.2411         0.5947      -144.9871       -75.0707     0.06239618
      4789.5000          0.459         0.2374         0.6742      -145.0122      -75.09812     0.06204909
      4790.0000         0.4737         0.2355         0.7732      -145.4216      -75.50983     0.05683754
      4790.5000         0.4884         0.2416         0.7765       -147.439      -77.52955     0.03127154
      4791.0000         0.4848         0.2478         0.7065      -149.2998      -79.39268    0.007687629
      4791.5000         0.4806          0.254         0.6259      -149.9626      -80.05779              0
      4792.0000         0.4527         0.2602         0.5426       -150.625      -80.72251              0
      4792.5000         0.3888         0.2663         0.4592      -151.2874      -81.38723              0
      4793.0000          0.325         0.2725         0.4057      -151.7246      -81.82674              0
      4793.5000         0.2639         0.2787         0.3724      -151.8435      -81.94798              0
      4794.0000          0.259         0.2865         0.3392      -150.7021      -80.80889              0
      4794.5000         0.2541         0.2956          0.306       -149.562      -79.67111    0.004163139
