#------------------------------------------------------------------------------
# Created by    : vladimir.rabinovich
# Created on    : 09/19/2023 17:22:55
#------------------------------------------------------------------------------
~Version Information Section
VERS.           2.0     :   CWLS log ASCII Standard - VERSION 2.0
WRAP.           NO      :   One line per depth step
~Well Information Section
#MNEM       .UNIT                                         VALUE :DESCRIPTION
#------------------------------------------------------------------------------
STRT        .FT                                            1527 :START DEPTH
STOP        .FT                                            8498 :STOP DEPTH
STEP        .FT                                             0.5 :STEP      
NULL        .                                           -999.25 :NULL      
COMP        .                           SAN JUAN EXPLORATION CO :COMPANY   
WELL        .                                MIDDLETON ETAL R M :WELL      
FLD         .                                           WILDCAT :FIELD     
LOC         .                                                   :LOCATION  
CNTY        .                                          CHAMBERS :LOCATION  
STAT        .                                             TEXAS :STATE     
CTRY        .                                     UNITED STATES :COUNTRY   
SRVC        .                                                   :SERVICE COMPANY
DATE        .                             9/13/2023 11:19:11 AM :LOG DATE  
API         .                                    42071022810000 :API NUMBER
UWI         .                                    42071022810000 :UNIQUE WELL ID
XCOORD      .                                  1136491.54221464 :SURFACE X 
YCOORD      .                                  10781024.2027564 :SURFACE Y 
LAT         .                                        29.6967824 :LATITUDE  
LON         .                                       -94.5875983 :LONGITUDE 
ELEV        .FT                                              24 :ELEVATION VALUE
ELEV_TYPE   .                                                DF :ELEVATION REFERENCE TYPE
~Curve Information Section
#MNEM       .UNIT                                      API CODE :CURVE DESCRIPTION
#------------------------------------------------------------------------------
DEPT        .FT                                                 :DEPTH     
LAT         .OHMM                                               :          
LN          .OHMM                                               :          
SN          .OHMM                                               :          
SP          .MV                                                 :          
SP_NORM     .MV                                                 :SP Normalized
VSH_SP      .V/V                                                :Volume of Shale from SP
~A        DEPTH            LAT             LN             SN             SP        SP_NORM         VSH_SP
# ...
      2895.0000         0.5524         0.9121         0.8768       -86.4805      -2.505798      0.9768339
      2895.5000          0.554         0.9202          0.887       -86.7704      -2.797836       0.972341
      2896.0000         0.5557         0.9283         0.8973       -86.9735      -3.003082      0.9691833
      2896.5000         0.5573         0.9364         0.9076       -86.6411      -2.672813      0.9742644
      2897.0000         0.5564         0.9445         0.9178       -86.3086      -2.342461      0.9793468
      2897.5000          0.543         0.9525         0.9288       -85.9762      -2.012192      0.9844278
      2898.0000         0.5296         0.9606         0.9452       -85.6437      -1.681831      0.9895103
      2898.5000         0.5161         0.9658         0.9616       -85.2385      -1.278778      0.9957111
      2899.0000         0.5027         0.9699          0.978       -84.8145     -0.8569107              1
      2899.5000          0.483         0.9739         0.9944       -84.3907      -0.435257              1
      2900.0000         0.4753          0.978         1.0108        -83.967    -0.01369476              1
      2900.5000         0.5007         0.9821         1.0272       -83.9769    -0.02573395              1
      2901.0000          0.526         0.9862         1.0436       -84.0503    -0.09968567              1
      2901.5000         0.5573         0.9903           1.06       -84.1237     -0.1730881              1
      2902.0000         0.5966         0.9943         1.0699       -84.1971     -0.2464828              1
      2902.5000         0.6358         0.9987         1.0799       -84.2705     -0.3198853              1
      2903.0000         0.6751         1.0031         1.0898       -84.3439     -0.3932877              1
      2903.5000         0.7143         1.0076         1.0998       -84.4172     -0.4665833              1
      2904.0000         0.7536          1.012         1.1097       -83.9001     0.05051422              1
      2904.5000         0.7863         1.0164         1.1196       -83.3354      0.6152115              1
      2905.0000         0.8172         1.0208         1.1133       -82.7708       1.179817              1
      2905.5000         0.8482         1.0253         1.1036       -82.2061       1.744514              1
      2906.0000         0.8792         1.0274         1.0939       -81.6414       2.309212              1
      2906.5000         0.9102         1.0271         1.0843       -81.2635       2.687119              1
      2907.0000         0.9381         1.0267         1.0746       -81.0455       2.905113              1
      2907.5000         0.9515         1.0263         1.0649       -80.8273       3.123314              1
      2908.0000          0.965         1.0259         1.0473       -80.6091       3.341515              1
      2908.5000         0.9785         1.0255         1.0286       -80.3909       3.559715              1
      2909.0000          0.992         1.0251         1.0099       -80.5637       3.386917              1
      2909.5000         1.0055         1.0247         0.9912       -81.0376       2.913017              1
      2910.0000          1.019         1.0243         0.9724       -81.5111       2.439514              1
      2910.5000         1.0308         1.0226         0.9537        -81.985       1.965614              1
      2911.0000         1.0359         1.0204         0.9364       -82.4589       1.491714              1
      2911.5000          1.041         1.0183         0.9271       -82.9327       1.017914              1
      2912.0000         1.0461         1.0161         0.9178       -83.4065      0.5441132              1
      2912.5000         1.0512         1.0139         0.9085       -83.8801     0.07051849              1
      2913.0000         1.0563         1.0117         0.8992       -84.2823     -0.3316879              1
      2913.5000         1.0614         1.0101         0.8899        -84.598     -0.6473846              1
      2914.0000         1.0779         1.0116         0.8806       -84.9137     -0.9630814              1
      2914.5000         1.0967         1.0131         0.8714       -85.2295      -1.278885      0.9957095
      2915.0000         1.1155         1.0145         0.8621        -85.545      -1.594383      0.9908556
      2915.5000         1.1344          1.016         0.8598       -85.8608      -1.910187      0.9859971
      2916.0000         1.1532          1.017         0.8575        -85.739      -1.788383      0.9878711
      2916.5000         1.1681         1.0161         0.8552        -85.436      -1.485382      0.9925326
      2917.0000         1.1781         1.0152         0.8529       -85.0645      -1.113884      0.9982479
      2917.5000         1.1881         1.0143         0.8506       -84.5459     -0.5952835              1
      2918.0000         1.1981         1.0114         0.8483        -84.027     -0.0763855              1
      2918.5000         1.2081         1.0011          0.846       -83.5082      0.4424133              1
      2919.0000         1.2182         0.9907         0.8437       -82.9896      0.9610138              1
      2919.5000         1.2179         0.9803         0.8414       -82.4707       1.479912              1
      2920.0000         1.2127         0.9704         0.8483       -81.9521       1.998512              1
      2920.5000         1.2074         0.9684         0.8598       -81.4722       2.478416              1
      2921.0000         1.2021         0.9665         0.8712       -81.0685       2.882118              1
      2921.5000         1.1969         0.9646         0.8826       -80.6647       3.285912              1
      2922.0000         1.1949         0.9627         0.8941        -80.261       3.689613              1
      2922.5000         1.2163         0.9607         0.9055       -80.5468       3.403816              1
      2923.0000         1.2377         0.9619          0.917       -81.0599       2.890717              1
      2923.5000         1.2591         0.9663          0.927       -81.5731       2.377518              1
      2924.0000         1.2805         0.9707         0.9233       -82.0863       1.864311              1
      2924.5000         1.2731         0.9751         0.9196       -82.5995       1.351112              1
      2925.0000         1.2546         0.9795         0.9159       -82.1404       1.810211              1
      2925.5000         1.2362         0.9839         0.9122        -81.448       2.502617              1
      2926.0000         1.2242         0.9883         0.9085       -80.7556       3.195015              1
      2926.5000         1.2171         0.9905         0.9047       -80.0632       3.887413              1
      2927.0000           1.21         0.9924          0.901       -80.2156       3.735016              1
      2927.5000         1.2179         0.9943          0.901        -81.568       2.382614              1
      2928.0000         1.2258         0.9962          0.908       -83.0977      0.8529129              1
      2928.5000         1.2337         0.9982         0.9149       -84.7247      -0.774086              1
      2929.0000         1.2416         1.0001         0.9219       -84.4745     -0.5238876              1
      2929.5000         1.2417          1.002         0.9288       -83.3569      0.5937119              1
      2930.0000          1.231         1.0046         0.9358       -82.2395       1.711113              1
      2930.5000         1.2204         1.0082         0.9427       -81.1219       2.828712              1
      2931.0000         1.2098         1.0118         0.9556       -80.1692       3.781418              1
      2931.5000         1.1991         1.0155         0.9727       -79.6505       4.300117              1
      2932.0000         1.1997         1.0191         0.9899       -81.9711       1.979515              1
      2932.5000         1.2288         1.0228          1.007       -84.6818     -0.7311859              1
