#------------------------------------------------------------------------------
# Created by    : vladimir.rabinovich
# Created on    : 09/19/2023 17:19:41
#------------------------------------------------------------------------------
~Version Information Section
VERS.           2.0     :   CWLS log ASCII Standard - VERSION 2.0
WRAP.           NO      :   One line per depth step
~Well Information Section
#MNEM       .UNIT                                         VALUE :DESCRIPTION
#------------------------------------------------------------------------------
STRT        .FT                                            1000 :START DEPTH
STOP        .FT                                         10019.5 :STOP DEPTH
STEP        .FT                                             0.5 :STEP      
NULL        .                                           -999.25 :NULL      
COMP        .                                UNION PRODUCING CO :COMPANY   
WELL        .                                            BARROW :WELL      
FLD         .                                           WILDCAT :FIELD     
LOC         .                                                   :LOCATION  
CNTY        .                                          CHAMBERS :LOCATION  
STAT        .                                             TEXAS :STATE     
CTRY        .                                     UNITED STATES :COUNTRY   
SRVC        .                                                   :SERVICE COMPANY
DATE        .                             9/13/2023 11:19:11 AM :LOG DATE  
API         .                                    42071025090000 :API NUMBER
UWI         .                                    42071025090000 :UNIQUE WELL ID
XCOORD      .                                  1126276.26743497 :SURFACE X 
YCOORD      .                                  10763240.3077352 :SURFACE Y 
LAT         .                                        29.6474899 :LATITUDE  
LON         .                                       -94.6189869 :LONGITUDE 
ELEV        .FT                                              18 :ELEVATION VALUE
ELEV_TYPE   .                                                DF :ELEVATION REFERENCE TYPE
~Curve Information Section
#MNEM       .UNIT                                      API CODE :CURVE DESCRIPTION
#------------------------------------------------------------------------------
DEPT        .FT                                                 :DEPTH     
AM64        .OHMM                                               :          
AO18        .OHMM                                               :          
SN16        .OHMM                                               :          
SP          .MV                                                 :          
SP_NORM     .MV                                                 :SP Normalized
VSH_SP      .V/V                                                :Volume of Shale from SP
~A        DEPTH           AM64           AO18           SN16             SP        SP_NORM         VSH_SP
# ...
      4572.0000         0.8336         0.8241         0.8288       -69.1788    -0.02326965              1
      4572.5000         0.8875         0.8051         0.9123       -73.1744      -4.027603       0.975571
      4573.0000         0.9415         0.7669         0.9998       -90.5273      -21.38924      0.7663947
      4573.5000         0.9402         0.7661         1.0229       -96.3301      -27.20079       0.696376
      4574.0000         0.9944         0.8208         1.0227       -88.3498      -19.22923       0.792419
      4574.5000         1.0484           0.82         1.0114       -73.2654      -4.153572      0.9740533
      4575.0000         1.0473         0.8191         1.0112       -61.5524        7.55069              1
      4575.5000         1.0462         0.8184         1.0109       -60.4625       8.631851              1
      4576.0000         1.0451         0.8174         1.0107       -60.4692       8.616409              1
      4576.5000          1.044         0.8167         1.0105       -60.5882       8.488667              1
      4577.0000         1.0979         0.8157         1.0103       -61.0273       8.040829              1
      4577.5000         1.0969          0.815         1.0211       -61.0321       8.027287              1
      4578.0000         1.0957         0.8142         1.0432       -61.0383       8.012344              1
      4578.5000         1.0947         0.8133          1.054       -59.8665       9.175407              1
      4579.0000         1.0936         0.8124         1.0799       -58.8609       10.17226              1
      4579.5000         1.0925         0.8117         1.1091       -58.3182       10.70622              1
      4580.0000         1.0913         0.8663         1.1348       -58.3248       10.69089              1
      4580.5000         1.0903         0.8656         1.1532       -58.4277       10.57924              1
      4581.0000         1.0892         0.8646         1.1752       -61.0714         7.9268              1
      4581.5000          1.075         0.8639          1.186       -64.4543       4.535164              1
      4582.0000         1.0319         0.8631          1.197       -66.5536       2.427124              1
      4582.5000         1.0307         0.8622         1.1856       -67.1051       1.866875              1
      4583.0000         1.0296         0.8057         1.1711       -64.9233        4.03994              1
      4583.5000         1.0285          0.805         1.1407       -62.7392       6.215298              1
      4584.0000         1.0273         0.8597         1.1124       -59.4806       9.465157              1
      4584.5000         1.0199         0.8589         1.0513       -57.8262       11.11082              1
      4585.0000           0.97          0.858         1.0151       -57.2836       11.64468              1
      4585.5000          0.969         0.9127         0.9953       -57.2902       11.62933              1
      4586.0000         0.9679         0.9119         0.9951       -57.8426        11.0682              1
      4586.5000         0.9117         0.9667         0.9949       -58.3954       10.50665              1
      4587.0000         0.9104         1.0215         0.9971       -59.1629       9.730412              1
      4587.5000         0.9095         1.0761         1.0056        -61.142       7.742577              1
      4588.0000         0.9084         1.0955         1.0298       -68.6581      0.2177353              1
      4588.5000         0.9073           1.13         1.0496       -71.5482      -2.681114      0.9917938
      4589.0000         0.9062         1.1847         1.0938       -73.1947      -4.336349      0.9718512
      4589.5000         0.9051         1.2394         1.1269       -74.2948       -5.44519      0.9584917
      4590.0000          0.904         1.2942         1.1489        -74.847      -6.006134      0.9517334
      4590.5000         0.9029         1.4043         1.1598          -75.4      -6.567871      0.9449654
      4591.0000         0.8467         1.4744         1.1707       -75.4051      -6.581711      0.9447986
      4591.5000         0.8456         1.5694         1.1704        -74.864      -6.049355      0.9512126
      4592.0000         0.8445         1.6242         1.1688       -73.6406      -4.834694      0.9658471
      4592.5000         0.8433         1.6789         1.1478       -71.0452      -2.248032      0.9970117
      4593.0000         0.8423          1.678         1.1215       -64.9137       3.874725              1
      4593.5000         0.8411         1.6771         0.9918       -62.3024       6.477287              1
      4594.0000         0.8401         1.6661         0.9227       -61.2126       7.558342              1
      4594.5000         0.8389         1.6198         0.8691       -60.6714       8.090801              1
      4595.0000         0.7828         1.6191          0.868       -60.5932       8.160263              1
      4595.5000         0.7265         1.5626         0.8575       -60.1352        8.60952              1
      4596.0000         0.7168         1.5619         0.8573       -60.6878       8.048176              1
      4596.5000         0.6692         1.5609         0.8571       -61.2413       7.485943              1
      4597.0000         0.6131         1.5602         0.8569        -61.793       6.925499              1
      4597.5000         0.6118         1.6148         0.8566       -62.3466       6.363155              1
      4598.0000         0.6066         1.6697         0.8561       -63.5169        5.18412              1
      4598.5000         0.5854         1.7244         0.8117       -67.2816       1.410675              1
      4599.0000         0.6087         1.7791         0.7891       -69.5489     -0.8653641              1
      4599.5000         0.6074         1.7781         0.7668       -75.4993      -6.824501      0.9418735
      4600.0000         0.6065         1.6776         0.7556       -85.7879      -17.12185       0.817809
      4600.5000         0.6059          1.567         0.7665        -97.963      -29.30569      0.6710158
      4601.0000         0.6607         1.4987          0.733      -112.7186      -44.07002      0.4931323
      4601.5000         0.6817         1.1176         0.6995      -123.9063      -55.26647      0.3582353
      4602.0000         0.7153         0.8864         0.6882      -136.8028      -68.17171      0.2027505
      4602.5000          0.715         0.6984         0.7022      -139.3488      -70.72645      0.1719705
      4603.0000         0.7147         0.6075         0.7212      -145.5678      -76.95419     0.09693752
      4603.5000         0.7144          0.607         0.7342      -146.6667      -78.06184     0.08359233
      4604.0000          0.659         0.6064         0.7764      -146.1261      -77.52997     0.09000038
      4604.5000         0.6507         0.6615         0.8107      -142.8479      -74.26051      0.1293914
      4605.0000         0.6034         0.7165         0.8539      -133.8855      -65.30685      0.2372668
      4605.5000          0.548         0.8395         0.9319      -119.3333       -50.7634      0.4124892
      4606.0000         0.5477         0.9931         1.0314      -109.5036      -40.94244       0.530814
      4606.5000         0.4924         1.1134         1.0423      -105.1196      -36.56718       0.583528
      4607.0000         0.4676         1.2697         1.0421      -103.9115      -35.36782      0.5979781
      4607.5000         0.3816         1.3874         1.0419      -100.7539      -32.21896      0.6359162
      4608.0000         0.3613          1.602         1.0418       -99.0585       -30.5323      0.6562373
      4608.5000          0.326         1.7126         1.0416       -98.5757      -30.05824      0.6619489
      4609.0000         0.3257         1.7675         1.0303      -100.7696      -32.26088      0.6354111
      4609.5000         0.3254         1.7671         0.8746      -108.6122      -40.11222      0.5408166
