#------------------------------------------------------------------------------
# Created by    : vladimir.rabinovich
# Created on    : 09/19/2023 17:19:41
#------------------------------------------------------------------------------
~Version Information Section
VERS.           2.0     :   CWLS log ASCII Standard - VERSION 2.0
WRAP.           NO      :   One line per depth step
~Well Information Section
#MNEM       .UNIT                                         VALUE :DESCRIPTION
#------------------------------------------------------------------------------
STRT        .FT                                            1000 :START DEPTH
STOP        .FT                                         10019.5 :STOP DEPTH
STEP        .FT                                             0.5 :STEP      
NULL        .                                           -999.25 :NULL      
COMP        .                                UNION PRODUCING CO :COMPANY   
WELL        .                                            BARROW :WELL      
FLD         .                                           WILDCAT :FIELD     
LOC         .                                                   :LOCATION  
CNTY        .                                          CHAMBERS :LOCATION  
STAT        .                                             TEXAS :STATE     
CTRY        .                                     UNITED STATES :COUNTRY   
SRVC        .                                                   :SERVICE COMPANY
DATE        .                             9/13/2023 11:19:11 AM :LOG DATE  
API         .                                    42071025090000 :API NUMBER
UWI         .                                    42071025090000 :UNIQUE WELL ID
XCOORD      .                                  1126276.26743497 :SURFACE X 
YCOORD      .                                  10763240.3077352 :SURFACE Y 
LAT         .                                        29.6474899 :LATITUDE  
LON         .                                       -94.6189869 :LONGITUDE 
ELEV        .FT                                              18 :ELEVATION VALUE
ELEV_TYPE   .                                                DF :ELEVATION REFERENCE TYPE
~Curve Information Section
#MNEM       .UNIT                                      API CODE :CURVE DESCRIPTION
#------------------------------------------------------------------------------
DEPT        .FT                                                 :DEPTH     
AM64        .OHMM                                               :          
AO18        .OHMM                                               :          
SN16        .OHMM                                               :          
SP          .MV                                                 :          
SP_NORM     .MV                                                 :SP Normalized
VSH_SP      .V/V                                                :Volume of Shale from SP
~A        DEPTH           AM64           AO18           SN16             SP        SP_NORM         VSH_SP
      1000.0000        -999.25         3.7778        -999.25        -999.25        -999.25        -999.25
      1000.5000         2.2039         3.9444         2.5697       -49.7906      -5.346157      0.8326921
      1001.0000         2.1484         3.9444         3.0111       -50.3477      -5.903255      0.8048372
      1001.5000         2.1482         3.9255         3.2444       -50.3556      -5.911156      0.8044422
      1002.0000         2.1479         3.7222         3.2333       -50.9114      -6.466957      0.7766522
      1002.5000         2.1476         3.5556         3.2175       -53.4669      -9.022457      0.6488771
      1003.0000         2.2024         3.5556         3.2111       -56.9463      -12.50186      0.4749071
      1003.5000         2.2021         3.5556         3.2222       -58.1895      -13.74506      0.4127472
      1004.0000          2.257         3.5556         3.2333       -58.6043      -14.15986      0.3920071
      1004.5000         2.3118         3.6111         3.2596       -58.5085      -14.06406      0.3967972
      1005.0000         2.3115         3.6394         3.2889       -57.5267      -13.08226      0.4458872
      1005.5000         2.3112         3.6111         3.2815       -55.8276      -11.38316      0.5308422
      1006.0000         2.3109         3.5339         3.0556       -51.5251      -7.080658      0.7459671
      1006.5000         2.3658         3.3889         2.8963       -47.6491      -3.204659      0.9397671
      1007.0000         2.3655         3.1899         2.7222       -44.4293     0.01514435              1
      1007.5000         2.4203         2.9444         2.5828       -43.3417       1.102741              1
      1008.0000         2.4752         2.8121         2.5111       -42.2542       2.190243              1
      1008.5000         2.5299         2.6667         2.4502       -42.2642       2.180244              1
      1009.0000         2.5297         2.6616         2.4111       -42.2721       2.172344              1
      1009.5000         2.5845         2.6111         2.3778       -42.8279       1.616543              1
      1010.0000         2.5842         2.6111         2.3667        -44.643     -0.1985588              1
      1010.5000         2.5839         2.6667         2.3667        -45.033     -0.5885582              1
      1011.0000         2.5765         2.6667         2.3667       -45.0405     -0.5960579              1
      1011.5000          2.418         2.7778         2.3906       -44.5025    -0.05805588              1
      1012.0000         2.3076         2.8333         2.4444       -44.5098    -0.06535721              1
      1012.5000         2.2522         2.9023         2.5166       -44.5192    -0.07475662              1
      1013.0000          2.252              3         2.6778       -44.5262    -0.08175659              1
      1013.5000         2.1966         3.1111         2.7121       -44.5358    -0.09135818              1
      1014.0000         2.1963         3.1667         2.7333       -45.1025     -0.6580582              1
      1014.5000          2.196         3.2778         2.7563       -46.4593      -2.014858      0.9992571
      1015.0000         2.1957         3.3333            2.8       -47.2947      -2.850258      0.9574871
      1015.5000         2.2506         3.4444         2.8448       -48.6258      -4.181358      0.8909321
      1016.0000         2.2503         3.5218         3.0111       -50.0469      -5.602459       0.819877
      1016.5000         2.2397         3.5556         3.0556       -54.4563      -10.01186      0.5994072
      1017.0000         2.1946         3.6111         3.0884       -58.2702      -13.82576      0.4087122
      1017.5000         2.1884         3.6111         3.1667        -58.824      -14.37956      0.3810221
      1018.0000          2.139         3.5449         3.1778       -56.6456      -12.20116      0.4899422
      1018.5000         2.1387         3.3333         3.1444       -54.8976      -10.45316      0.5773422
      1019.0000         2.1385         3.1616         3.0857       -53.3795      -8.935059      0.6532471
      1019.5000         2.1382              3         2.9889       -51.7449      -7.300457      0.7349771
      1020.0000         2.1379         2.9444         2.9067       -51.7548      -7.310356      0.7344822
      1020.5000         2.1927         2.8889         2.8889       -52.3462      -7.901756      0.7049122
      1021.0000         2.3027         2.8889            2.9       -53.9599      -9.515457      0.6242272
      1021.5000         2.3023         2.8889         2.9111       -55.6079      -11.16346      0.5418272
      1022.0000         2.3708         2.8889         2.9409       -58.8588      -14.41436      0.3792822
      1022.5000         2.4671         2.8889         3.0556       -60.5486      -16.10416      0.2947922
      1023.0000         2.5311         2.9444         3.1838       -62.1979      -17.75346      0.2123272
      1023.5000         2.6318         3.0079            3.4       -63.3008      -18.85636      0.1571821
      1024.0000         2.7418         3.1111         3.5093       -64.5797      -20.13525      0.0932373
      1024.5000         2.7966         3.2269         3.5778        -66.053      -21.60856     0.01957207
      1025.0000         2.8514          3.388         3.5611       -66.6068      -22.16235              0
      1025.5000         2.9063         3.5556         3.5222       -64.9754      -20.53096       0.073452
      1026.0000          2.961         3.6547         3.4865        -64.435      -19.99055      0.1004723
      1026.5000         2.9607         3.7778         3.4778       -63.8979      -19.45346      0.1273272
      1027.0000         3.0156         3.7778         3.5709       -63.9049      -19.46046      0.1269772
      1027.5000         3.0153         3.7778         3.6333       -63.9145      -19.47006      0.1264971
      1028.0000          3.015         3.7778         3.6556       -64.4684      -20.02396     0.09880219
      1028.5000         3.0147         3.7778         3.6444       -64.4783      -20.03386     0.09830704
      1029.0000         2.9593         3.7119          3.643        -65.032      -20.58755     0.07062225
      1029.5000         2.8959         3.4444         3.5778       -65.5873      -21.14286     0.04285698
      1030.0000         2.7935         3.2222         3.4878       -66.1429      -21.69846     0.01507721
      1030.5000         2.7381              3         3.4444       -66.6979      -22.25346              0
      1031.0000         2.6827         2.9941         3.4444       -66.7067      -22.26226              0
      1031.5000         2.6825         3.0191         3.4444       -66.7143      -22.26986              0
      1032.0000         2.6822         3.1111         3.4444       -66.7233      -22.27885              0
      1032.5000          2.737         3.1802         3.4444       -66.1829      -21.73846     0.01307716
      1033.0000         2.7368         3.2778         3.4444       -65.6447      -21.20026     0.03998718
      1033.5000         2.7365         3.3333         3.4444       -65.1053      -20.66086     0.06695709
      1034.0000         2.7362         3.3333         3.4444       -64.5669      -20.12246     0.09387703
      1034.5000         2.7359         3.2754         3.4282       -62.6918      -18.24736      0.1876322
      1035.0000         2.7356         3.1674         3.1333       -53.0954      -8.650959       0.667452
      1035.5000         2.7353              3         2.7344       -49.2418      -4.797356      0.8601322
      1036.0000           2.68         2.8115         2.4778       -45.4689      -1.024456              1
      1036.5000         2.6246         2.7222         2.4511       -44.3649     0.07954407              1
      1037.0000         2.5692         2.7941         2.4444       -44.9201     -0.4756584              1
      1037.5000         2.5412         2.8889         2.4486       -45.4758      -1.031357              1
