#------------------------------------------------------------------------------
# Created by    : vladimir.rabinovich
# Created on    : 09/19/2023 17:22:53
#------------------------------------------------------------------------------
~Version Information Section
VERS.           2.0     :   CWLS log ASCII Standard - VERSION 2.0
WRAP.           NO      :   One line per depth step
~Well Information Section
#MNEM       .UNIT                                         VALUE :DESCRIPTION
#------------------------------------------------------------------------------
STRT        .FT                                            1498 :START DEPTH
STOP        .FT                                           11000 :STOP DEPTH
STEP        .FT                                             0.5 :STEP      
NULL        .                                           -999.25 :NULL      
COMP        .                                     CANNAN MORRIS :COMPANY   
WELL        .                                             GARTH :WELL      
FLD         .                                           WILDCAT :FIELD     
LOC         .                                                   :LOCATION  
CNTY        .                                          CHAMBERS :LOCATION  
STAT        .                                             TEXAS :STATE     
CTRY        .                                     UNITED STATES :COUNTRY   
SRVC        .                                                   :SERVICE COMPANY
DATE        .                             9/13/2023 11:19:11 AM :LOG DATE  
API         .                                    42071310360000 :API NUMBER
UWI         .                                    42071310360000 :UNIQUE WELL ID
XCOORD      .                                  1175356.83007784 :SURFACE X 
YCOORD      .                                  10818692.0839896 :SURFACE Y 
LAT         .                                        29.8017803 :LATITUDE  
LON         .                                       -94.4666967 :LONGITUDE 
ELEV        .FT                                              25 :ELEVATION VALUE
ELEV_TYPE   .                                                GL :ELEVATION REFERENCE TYPE
~Curve Information Section
#MNEM       .UNIT                                      API CODE :CURVE DESCRIPTION
#------------------------------------------------------------------------------
DEPT        .FT                                                 :DEPTH     
ILD         .OHMM                                               :          
SFL         .OHMM                                               :          
SP          .MV                                                 :          
SP_NORM     .MV                                                 :SP Normalized
VSH_SP      .V/V                                                :Volume of Shale from SP
~A        DEPTH            ILD            SFL             SP        SP_NORM         VSH_SP
# ...
      5898.0000         0.1835         1.0885      -110.3352      -103.2341     0.01697951
      5898.5000         0.1927         1.0942      -110.2913      -103.1917     0.01738739
      5899.0000         0.2019          1.102      -110.2451       -103.147     0.01781728
      5899.5000         0.2111         1.1098      -110.1943      -103.0977     0.01829155
      5900.0000         0.2204         1.1412      -110.2426      -103.1475      0.0178128
      5900.5000         0.2296         1.1942      -110.4335      -103.3399      0.0159629
      5901.0000         0.2301         1.2383      -110.7662       -103.674     0.01274967
      5901.5000         0.2307         1.2795      -111.1245      -104.0338    0.009290182
      5902.0000         0.2313         1.2636      -111.4348      -104.3456     0.00629227
      5902.5000         0.2295         1.2478      -111.6259      -104.5382    0.004440454
      5903.0000         0.2257          1.232       -111.817      -104.7308    0.002588712
      5903.5000         0.2219         1.2221      -112.0081      -104.9234   0.0007368968
      5904.0000          0.218         1.2148      -111.9581      -104.8748     0.00120339
      5904.5000         0.2142         1.2076      -111.8368       -104.755    0.002355502
      5905.0000         0.2103         1.2012      -111.6953       -104.615    0.003701797
      5905.5000         0.2065         1.1984      -111.5431      -104.4643    0.005151015
      5906.0000         0.2026         1.1956       -111.391      -104.3137    0.006599206
      5906.5000         0.1987         1.1928       -111.239      -104.1632    0.008046444
      5907.0000         0.1947         1.1944      -111.0989      -104.0246    0.009379313
      5907.5000         0.1908         1.1979      -110.9983      -103.9254     0.01033233
      5908.0000         0.1873         1.2014      -110.8977      -103.8263     0.01128541
      5908.5000         0.1879         1.2108       -110.797      -103.7271     0.01223938
      5909.0000         0.1885         1.2201      -110.6964       -103.628      0.0131924
      5909.5000         0.1891         1.2295       -110.598      -103.5311     0.01412428
      5910.0000         0.1901         1.2388       -110.573      -103.5076     0.01435038
      5910.5000         0.1926         1.2421       -110.548       -103.484     0.01457654
      5911.0000         0.1951         1.2453      -110.5228      -103.4603     0.01480455
      5911.5000         0.1976         1.2485      -110.4978      -103.4368     0.01503064
      5912.0000         0.2001         1.2517      -110.4728      -103.4133     0.01525673
      5912.5000         0.2026         1.2549      -110.2941      -103.2361     0.01696073
      5913.0000         0.2052          1.258       -110.079      -103.0225     0.01901473
      5913.5000         0.2077         1.2555      -109.7775      -102.7225     0.02189952
      5914.0000           0.21          1.253      -108.8755      -101.8219     0.03055829
      5914.5000         0.2111         1.2506      -107.6962      -100.6441     0.04188347
      5915.0000         0.2123         1.2468      -106.1868       -99.1362     0.05638269
      5915.5000         0.2134         1.2357      -104.7437      -97.69459     0.07024435
      5916.0000         0.2146         1.2246      -103.3778      -96.33018     0.08336368
      5916.5000         0.2157         1.2045       -102.012      -94.96586     0.09648213
      5917.0000         0.2168         1.1822      -100.9579      -93.91325      0.1066034
      5917.5000         0.2173         1.1587       -99.9344      -92.89123      0.1164305
      5918.0000          0.215          1.131       -99.0625      -92.02081      0.1247999
      5918.5000         0.2127         1.1033       -98.5907       -91.5505      0.1293221
      5919.0000         0.2104         1.0755       -99.1018      -92.06308      0.1243935
      5919.5000         0.2075         1.0472       -99.4902      -92.45296      0.1206446
      5920.0000         0.2006          1.019       -99.8789      -92.84315      0.1168928
      5920.5000         0.1938         0.9909      -100.2402      -93.20593      0.1134045
      5921.0000          0.187         0.9656      -100.5214      -93.48862      0.1106864
      5921.5000         0.1801         0.9403      -100.1394       -93.1081      0.1143452
      5922.0000         0.1733          0.915       -90.5577      -83.52789      0.2064626
      5922.5000         0.1665         0.8998       -88.5281      -81.49977      0.2259637
      5923.0000         0.1596         0.8858       -85.5363      -78.50946      0.2547167
      5923.5000         0.1612         0.8783       -81.5308      -74.50544      0.2932169
      5924.0000         0.1659         0.8731       -74.1384      -67.11452      0.3642834
      5924.5000         0.1841         0.8682       -62.3578      -55.33541      0.4775441
      5925.0000         0.2054         0.8805       -51.2349        -44.214      0.5844808
      5925.5000         0.2419         0.8966       -42.6546      -35.63518      0.6669694
      5926.0000          0.291         0.9144       -29.0872      -22.06927      0.7974109
      5926.5000         0.3656         0.9321       -16.6291      -9.612652       0.917186
      5927.0000         0.5402          0.948        -8.0268      -1.011835      0.9998862
      5927.5000         0.8663         0.9583        -6.1517      0.8617806              1
      5928.0000         1.0322         0.9687        -4.3772       2.634796              1
      5928.5000         1.0919         0.9791        -3.9109       3.099611              1
      5929.0000         1.1004         0.9895        -5.2927       1.716327              1
      5929.5000         0.8812          0.992        -8.1716      -1.164058      0.9984225
      5930.0000         0.7457         0.9934       -14.6068      -7.600742      0.9365313
      5930.5000          0.641         0.9949       -18.6318      -11.62723      0.8978151
      5931.0000         0.5448         0.9963       -22.8532      -15.85011      0.8572105
      5931.5000         0.4922         0.9971       -28.5325       -21.5309      0.8025876
      5932.0000         0.4458         0.9961       -38.8553      -31.85518      0.7033156
      5932.5000          0.406         0.9951       -47.4699      -40.47126      0.6204686
      5933.0000         0.3672         1.0115       -59.8666      -52.86945      0.5012553
      5933.5000         0.3436         1.0341       -61.4755      -54.47983      0.4857709
      5934.0000         0.3255         1.0568       -60.1145      -53.12032      0.4988431
      5934.5000         0.3211         1.0917       -57.0516      -50.05891      0.5282797
      5935.0000         0.3166         1.0927       -53.5664      -46.57519      0.5617771
      5935.5000         0.3385         1.0396       -47.7006      -40.71087      0.6181647
      5936.0000         0.3615         0.9867       -43.3369      -36.34866      0.6601091
      5936.5000         0.3951         0.9324       -35.3505      -28.36374      0.7368871
      5937.0000         0.4331         0.8758       -22.2053      -15.22003       0.863269
      5937.5000          0.469         0.8192       -17.9225      -10.93871      0.9044355
      5938.0000          0.505         0.7626       -15.0952      -8.112894      0.9316068
      5938.5000          0.541         0.7061       -16.7837      -9.802881      0.9153569
      5939.0000         0.5769         0.6486       -19.8983      -12.91896      0.8853946
      5939.5000         0.5693         0.5927        -25.872      -18.89415      0.8279409
      5940.0000           0.55         0.5487       -29.4799      -22.50353      0.7932352
      5940.5000         0.5106         0.5159        -32.025      -25.05012      0.7687489
      5941.0000         0.4498         0.4984       -30.3192       -23.3458      0.7851365
      5941.5000          0.401         0.4856       -27.9852      -21.01329      0.8075646
