#------------------------------------------------------------------------------
# Created by    : vladimir.rabinovich
# Created on    : 09/19/2023 17:22:50
#------------------------------------------------------------------------------
~Version Information Section
VERS.           2.0     :   CWLS log ASCII Standard - VERSION 2.0
WRAP.           NO      :   One line per depth step
~Well Information Section
#MNEM       .UNIT                                         VALUE :DESCRIPTION
#------------------------------------------------------------------------------
STRT        .FT                                          1999.5 :START DEPTH
STOP        .FT                                            9645 :STOP DEPTH
STEP        .FT                                             0.5 :STEP      
NULL        .                                           -999.25 :NULL      
COMP        .                          STANDARD OIL CO OF TEXAS :COMPANY   
WELL        .                                  STATE TRACT 1-4D :WELL      
FLD         .                                           WILDCAT :FIELD     
LOC         .                                                   :LOCATION  
CNTY        .                                          CHAMBERS :LOCATION  
STAT        .                                             TEXAS :STATE     
CTRY        .                                     UNITED STATES :COUNTRY   
SRVC        .                                                   :SERVICE COMPANY
DATE        .                             9/13/2023 11:19:11 AM :LOG DATE  
API         .                                    42071032270000 :API NUMBER
UWI         .                                    42071032270000 :UNIQUE WELL ID
XCOORD      .                                  1086986.65859336 :SURFACE X 
YCOORD      .                                  10762945.0682871 :SURFACE Y 
LAT         .                                        29.6451099 :LATITUDE  
LON         .                                       -94.7426468 :LONGITUDE 
ELEV        .FT                                              20 :ELEVATION VALUE
ELEV_TYPE   .                                                DF :ELEVATION REFERENCE TYPE
~Curve Information Section
#MNEM       .UNIT                                      API CODE :CURVE DESCRIPTION
#------------------------------------------------------------------------------
DEPT        .FT                                                 :DEPTH     
DT          .US/F                                               :          
IND         .OHMM                                               :          
SN          .OHMM                                               :          
SP          .MV                                                 :          
SP_NORM     .MV                                                 :SP Normalized
VSH_SP      .V/V                                                :Volume of Shale from SP
~A        DEPTH             DT            IND             SN             SP        SP_NORM         VSH_SP
# ...
      7585.5000       117.3553         0.6047         0.7137       -37.6471       4.328209              1
      7586.0000        115.961         0.5891         0.7176       -38.0392       3.936108              1
      7586.5000       115.5249         0.5891         0.7255       -39.2157       2.759609              1
      7587.0000        115.928         0.5891         0.7333       -41.9608     0.01450729              1
      7587.5000       116.6528         0.5581         0.7333       -43.1373      -1.161991      0.9980716
      7588.0000       116.4288         0.5581         0.7333       -41.9608     0.01450729              1
      7588.5000       116.2634         0.5426         0.7255       -38.8235       3.151806              1
      7589.0000       116.4166         0.5426         0.7137       -37.2549       4.720406              1
      7589.5000       118.0472         0.5271          0.702       -34.1176       7.857708              1
      7590.0000        119.786         0.5271         0.6902       -34.1176       7.857708              1
      7590.5000       120.5887         0.5271         0.6824       -36.4706       5.504707              1
      7591.0000       119.8136         0.5426         0.6824       -39.2157       2.759609              1
      7591.5000            118         0.5487         0.6824       -43.9216      -1.946293      0.9887346
      7592.0000       116.7176         0.5581         0.6863       -43.9216      -1.946293      0.9887346
      7592.5000       115.7443         0.5581         0.6941       -41.5686      0.4067078              1
      7593.0000       115.8828         0.5891         0.7059       -39.2157       2.759609              1
      7593.5000        116.172         0.5891         0.7176       -38.0392       3.936108              1
      7594.0000       115.8932         0.6047         0.7294       -35.2941       6.681206              1
      7594.5000       115.1969         0.6047         0.7412       -37.2549       4.720406              1
      7595.0000       114.7757         0.6047          0.749       -39.2157       2.759609              1
      7595.5000       115.4067         0.6047         0.7529       -42.7451     -0.7697906              1
      7596.0000        116.137         0.6047         0.7608       -42.7451     -0.7697906              1
      7596.5000       116.1644         0.6047         0.7647       -41.5686      0.4067078              1
      7597.0000       115.8552         0.6047         0.7725       -40.3922       1.583107              1
      7597.5000       115.3141         0.6047         0.7725       -39.6078       2.367508              1
      7598.0000       113.9165         0.5891         0.7725       -38.4314       3.543907              1
      7598.5000       111.9589         0.5891         0.7725       -36.8627       5.112606              1
      7599.0000         112.62         0.5736         0.7647       -36.8627       5.112606              1
      7599.5000       115.6138         0.5581         0.7529       -37.2549       4.720406              1
      7600.0000       118.0614         0.5581         0.7373       -37.6471       4.328209              1
      7600.5000       116.1218         0.5426         0.7295       -38.8137       3.161606              1
      7601.0000       113.6708         0.5271         0.7297       -39.5784       2.396908              1
      7601.5000       112.2049         0.5271         0.7456       -41.5105      0.4648056              1
      7602.0000       113.2454         0.5271         0.7458       -42.2756      -0.300293              1
      7602.5000       116.9371         0.5271          0.746       -43.4331      -1.457794        0.99455
      7603.0000        120.012         0.5271          0.707       -44.5905      -2.615192      0.9807715
      7603.5000       120.5523         0.5271         0.6915       -45.7479      -3.772591       0.966993
      7604.0000       120.0085         0.5271         0.6838       -46.9053      -4.929993      0.9532143
      7604.5000       120.3945         0.5271         0.6801        -46.101      -4.125694      0.9627894
      7605.0000       121.0933         0.5271         0.6764       -44.1197      -2.144394      0.9863763
      7605.5000       121.2427         0.5271         0.6805       -42.1383     -0.1629944              1
      7606.0000        120.777         0.5426         0.6846       -40.1569       1.818409              1
      7606.5000       120.0871         0.5581         0.6926       -39.3627       2.612606              1
      7607.0000       119.0694         0.5581         0.7007       -38.1667       3.808609              1
      7607.5000       118.8393         0.5581         0.7048       -38.1471       3.828209              1
      7608.0000        118.866         0.5736         0.7128       -41.6479      0.3274078              1
      7608.5000       118.9957         0.5736          0.717       -38.8824       3.092907              1
      7609.0000       119.2991         0.5581         0.7172       -38.8725       3.102806              1
      7609.5000       119.5091         0.5432         0.7174       -38.8529       3.122406              1
      7610.0000       119.6059         0.5457         0.7136       -38.8333       3.142006              1
      7610.5000       119.4496         0.5482         0.7137       -38.8235       3.151806              1
      7611.0000       119.2366         0.5651         0.7137            -40       1.975307              1
      7611.5000       118.7178         0.5803         0.7216       -43.5294      -1.554092      0.9934037
      7612.0000       116.8158         0.5954         0.7333       -41.5686      0.4067078              1
      7612.5000       114.8608         0.6261         0.7529       -39.6078       2.367508              1
      7613.0000       112.7025         0.6433         0.7725       -38.8235       3.151806              1
      7613.5000       110.5442         0.6563         0.7961       -37.6471       4.328209              1
      7614.0000       108.7669          0.687         0.8154       -38.4314       3.543907              1
      7614.5000       107.4946         0.6865         0.8385       -44.7059      -2.730591      0.9793977
      7615.0000       105.4388         0.7016         0.8577        -45.098      -3.122692      0.9747298
      7615.5000       108.0666         0.7012         0.8731       -45.4902      -3.514893      0.9700608
      7616.0000       110.2244         0.7008         0.8577        -45.098      -3.122692      0.9747298
      7616.5000       113.1578         0.7005         0.8346       -44.3137      -2.338394      0.9840667
      7617.0000       113.8798         0.7001         0.8231       -43.5294      -1.554092      0.9934037
      7617.5000       111.4736         0.6842         0.8308       -42.3529      -0.377594              1
      7618.0000       109.3001         0.6812         0.8462       -41.5686      0.4067078              1
      7618.5000       106.4341         0.6341         0.8615       -40.3922       1.583107              1
      7619.0000       106.4132         0.5857         0.8692            -40       1.975307              1
      7619.5000       110.2798         0.5684         0.8654       -39.2157       2.759609              1
      7620.0000       115.4013          0.551         0.8269       -38.0392       3.936108              1
      7620.5000       117.6908         0.5269         0.7843       -41.1765      0.7988091              1
      7621.0000        118.647         0.5109         0.7412       -41.5686      0.4067078              1
      7621.5000       117.5626         0.4951         0.7098       -41.1765      0.7988091              1
      7622.0000       117.2061         0.4947         0.7059            -40       1.975307              1
      7622.5000       117.8326         0.4943         0.7059       -39.6078       2.367508              1
      7623.0000       118.6411         0.4939         0.7059       -38.4314       3.543907              1
