#------------------------------------------------------------------------------
# Created by    : vladimir.rabinovich
# Created on    : 09/19/2023 17:22:50
#------------------------------------------------------------------------------
~Version Information Section
VERS.           2.0     :   CWLS log ASCII Standard - VERSION 2.0
WRAP.           NO      :   One line per depth step
~Well Information Section
#MNEM       .UNIT                                         VALUE :DESCRIPTION
#------------------------------------------------------------------------------
STRT        .FT                                          1999.5 :START DEPTH
STOP        .FT                                            9645 :STOP DEPTH
STEP        .FT                                             0.5 :STEP      
NULL        .                                           -999.25 :NULL      
COMP        .                          STANDARD OIL CO OF TEXAS :COMPANY   
WELL        .                                  STATE TRACT 1-4D :WELL      
FLD         .                                           WILDCAT :FIELD     
LOC         .                                                   :LOCATION  
CNTY        .                                          CHAMBERS :LOCATION  
STAT        .                                             TEXAS :STATE     
CTRY        .                                     UNITED STATES :COUNTRY   
SRVC        .                                                   :SERVICE COMPANY
DATE        .                             9/13/2023 11:19:11 AM :LOG DATE  
API         .                                    42071032270000 :API NUMBER
UWI         .                                    42071032270000 :UNIQUE WELL ID
XCOORD      .                                  1086986.65859336 :SURFACE X 
YCOORD      .                                  10762945.0682871 :SURFACE Y 
LAT         .                                        29.6451099 :LATITUDE  
LON         .                                       -94.7426468 :LONGITUDE 
ELEV        .FT                                              20 :ELEVATION VALUE
ELEV_TYPE   .                                                DF :ELEVATION REFERENCE TYPE
~Curve Information Section
#MNEM       .UNIT                                      API CODE :CURVE DESCRIPTION
#------------------------------------------------------------------------------
DEPT        .FT                                                 :DEPTH     
DT          .US/F                                               :          
IND         .OHMM                                               :          
SN          .OHMM                                               :          
SP          .MV                                                 :          
SP_NORM     .MV                                                 :SP Normalized
VSH_SP      .V/V                                                :Volume of Shale from SP
~A        DEPTH             DT            IND             SN             SP        SP_NORM         VSH_SP
# ...
      2493.5000       135.4748         0.4028         0.8953       -87.8431      -45.86779      0.2989407
      2494.0000       137.0818         0.3867         0.9191       -87.8431      -45.86779      0.2989407
      2494.5000       138.6177         0.3654         0.9784       -92.1569      -50.18159      0.2315376
      2495.0000       138.7218          0.366          1.006       -96.4706      -54.49529      0.1641361
      2495.5000       138.4912         0.3511         1.1195      -100.7843      -58.80899     0.09673446
      2496.0000       137.9492         0.3362         1.0879      -100.7843      -58.80899     0.09673446
      2496.5000       137.4058         0.3368         1.0367      -100.7843      -58.80899     0.09673446
      2497.0000       136.2757          0.338         0.9618       -98.4314      -56.45609      0.1334986
      2497.5000       134.4714          0.369         0.9261       -97.6471      -55.67179      0.1457532
      2498.0000       133.1509         0.3882         0.8985       -96.4706      -54.49529      0.1641361
      2498.5000       133.1245         0.4252         0.8669       -93.7255      -51.75019      0.2070282
      2499.0000       133.6384         0.4747         0.8354        -85.098      -43.12269      0.3418329
      2499.5000       137.2486         0.5463         0.8118       -78.0392      -36.06389      0.4521267
      2500.0000       144.4137         0.6435         0.8118       -67.8431      -25.86779      0.6114407
      2500.5000       149.5975         0.7562         0.8157       -60.7843      -18.80899      0.7217345
      2501.0000       156.3503         0.9161          0.898       -57.2549      -15.27959      0.7768813
      2501.5000        155.267         1.0408         0.9686       -50.1961      -8.220791      0.8871751
      2502.0000       153.5617         1.0879              1       -43.1373      -1.161991      0.9974689
      2502.5000       152.6367         1.0885         1.0157       -43.1373      -1.161991      0.9974689
      2503.0000       153.1776         1.0736         1.0235       -43.1373      -1.161991      0.9974689
      2503.5000       153.1498         1.0271         1.0314       -43.5294      -1.554092      0.9913423
      2504.0000       150.7673           0.98         1.0431       -49.8039      -7.828594      0.8933032
      2504.5000       146.6025         0.9425         1.0588       -51.3725      -9.397194      0.8687938
      2505.0000       142.0324         0.8621         1.0745       -53.7255      -11.75019      0.8320283
      2505.5000       136.6035         0.7559         1.1059       -57.2549      -15.27959      0.7768813
      2506.0000       129.9733         0.6766         1.1137       -66.6667      -24.69139       0.629822
      2506.5000       126.0879         0.5974         1.1569       -73.3333      -31.35799      0.5256564
      2507.0000       123.5335         0.5425           1.22       -79.6078       -37.6325      0.4276173
      2507.5000       119.0672         0.5211          1.288       -86.2745      -44.29919      0.3234501
      2508.0000       114.3617         0.5217          1.284       -86.6667      -44.69139       0.317322
      2508.5000       107.6975         0.5067           1.24       -86.6667      -44.69139       0.317322
      2509.0000       113.9615         0.5074         1.1725       -86.2745      -44.29919      0.3234501
      2509.5000       122.3852         0.5235         1.1294       -79.6078       -37.6325      0.4276173
      2510.0000        135.309         0.5561         1.0745       -72.9412      -30.96589      0.5317829
      2510.5000       135.2287         0.6228         1.0353       -69.4118      -27.43649      0.5869299
      2511.0000        135.151         0.7201         0.9647       -62.7451      -20.76979       0.691097
      2511.5000       135.3234         0.8255         0.9922       -56.0784      -14.10309      0.7952642
      2512.0000       136.3875          0.987         1.0314       -49.0196      -7.044292      0.9055579
      2512.5000       136.2277         1.1926         1.1137        -47.451      -5.475693      0.9300673
      2513.0000       135.8356         1.3491         1.1961       -45.8824      -3.907093      0.9545767
      2513.5000       134.2981          1.421           1.24       -44.3137      -2.338394      0.9790876
      2514.0000       133.4308         1.4439          1.296       -42.7451     -0.7697906              1
      2514.5000       132.7487         1.4755          1.328       -41.1765      0.7988091              1
      2515.0000       132.6728         1.4761           1.36       -39.6078       2.367508              1
      2515.5000       133.0373         1.4922          1.376       -39.6078       2.367508              1
      2516.0000       133.0587         1.4928          1.388            -40       1.975307              1
      2516.5000       133.5996         1.4934         1.4039       -41.1765      0.7988091              1
      2517.0000        134.274          1.494         1.4118       -41.9608     0.01450729              1
      2517.5000       134.4496         1.4791         1.4275       -42.7451     -0.7697906              1
      2518.0000       134.3718         1.4757         1.4314       -43.5294      -1.554092      0.9913423
      2518.5000       133.9424         1.4596         1.4353       -44.7059      -2.730591      0.9729595
      2519.0000       132.7272         1.4126         1.4392       -42.7451     -0.7697906              1
      2519.5000       132.0504         1.3886         1.4392       -40.7843       1.191006              1
      2520.0000       132.6351         1.3339         1.4392       -41.1765      0.7988091              1
      2520.5000       134.1503         1.2659         1.4353       -41.5686      0.4067078              1
      2521.0000        138.391           1.22         1.4196       -42.3529      -0.377594              1
      2521.5000       141.8981         1.2051           1.38       -43.5294      -1.554092      0.9913423
      2522.0000       144.7717         1.1747          1.344       -44.7059      -2.730591      0.9729595
      2522.5000       146.9744         1.1753          1.332       -44.7059      -2.730591      0.9729595
      2523.0000       148.5075         1.1604          1.312       -44.3137      -2.338394      0.9790876
      2523.5000       149.6866          1.161            1.3       -43.5294      -1.554092      0.9913423
      2524.0000       149.5254         1.1644          1.296       -42.7451     -0.7697906              1
      2524.5000       148.8297         1.1817          1.292       -41.5686      0.4067078              1
      2525.0000        147.153         1.2145          1.296       -40.7843       1.191006              1
      2525.5000       145.1158         1.2318          1.296            -40       1.975307              1
      2526.0000       143.8375         1.2647          1.308       -39.2157       2.759609              1
      2526.5000       141.4143         1.2975          1.332       -38.4314       3.543907              1
      2527.0000       138.8501         1.3515          1.352       -38.4314       3.543907              1
      2527.5000       137.5991         1.3986           1.38       -38.4314       3.543907              1
      2528.0000       136.0112         1.4302         1.4196       -41.5686      0.4067078              1
      2528.5000       133.2804         1.4618         1.4627       -41.9608     0.01450729              1
      2529.0000       130.2037         1.4934         1.5098       -42.7451     -0.7697906              1
      2529.5000        127.496          1.525         1.5569       -43.9216      -1.946293      0.9852142
      2530.0000       118.7393         1.5256          1.616       -44.7059      -2.730591      0.9729595
      2530.5000        113.796         1.5263          1.656       -45.4902      -3.514893      0.9607048
      2531.0000        109.784         1.5269          1.744       -47.0588      -5.083492      0.9361954
