#------------------------------------------------------------------------------
# Created by    : vladimir.rabinovich
# Created on    : 09/19/2023 17:22:53
#------------------------------------------------------------------------------
~Version Information Section
VERS.           2.0     :   CWLS log ASCII Standard - VERSION 2.0
WRAP.           NO      :   One line per depth step
~Well Information Section
#MNEM       .UNIT                                         VALUE :DESCRIPTION
#------------------------------------------------------------------------------
STRT        .FT                                            1498 :START DEPTH
STOP        .FT                                           11000 :STOP DEPTH
STEP        .FT                                             0.5 :STEP      
NULL        .                                           -999.25 :NULL      
COMP        .                                     CANNAN MORRIS :COMPANY   
WELL        .                                             GARTH :WELL      
FLD         .                                           WILDCAT :FIELD     
LOC         .                                                   :LOCATION  
CNTY        .                                          CHAMBERS :LOCATION  
STAT        .                                             TEXAS :STATE     
CTRY        .                                     UNITED STATES :COUNTRY   
SRVC        .                                                   :SERVICE COMPANY
DATE        .                             9/13/2023 11:19:11 AM :LOG DATE  
API         .                                    42071310360000 :API NUMBER
UWI         .                                    42071310360000 :UNIQUE WELL ID
XCOORD      .                                  1175356.83007784 :SURFACE X 
YCOORD      .                                  10818692.0839896 :SURFACE Y 
LAT         .                                        29.8017803 :LATITUDE  
LON         .                                       -94.4666967 :LONGITUDE 
ELEV        .FT                                              25 :ELEVATION VALUE
ELEV_TYPE   .                                                GL :ELEVATION REFERENCE TYPE
~Curve Information Section
#MNEM       .UNIT                                      API CODE :CURVE DESCRIPTION
#------------------------------------------------------------------------------
DEPT        .FT                                                 :DEPTH     
ILD         .OHMM                                               :          
SFL         .OHMM                                               :          
SP          .MV                                                 :          
SP_NORM     .MV                                                 :SP Normalized
VSH_SP      .V/V                                                :Volume of Shale from SP
~A        DEPTH            ILD            SFL             SP        SP_NORM         VSH_SP
# ...
      7790.0000         0.6056         0.6844         -7.315      0.3778772              1
      7790.5000         0.6091         0.7068        -9.8699      -2.172806      0.9875233
      7791.0000         0.6126         0.7293       -13.2225      -5.521189      0.9519023
      7791.5000         0.6179         0.7518        -14.543      -6.837472      0.9378992
      7792.0000         0.6232         0.7743       -13.0556      -5.345855      0.9537675
      7792.5000         0.6285         0.7747       -11.7892      -4.075237      0.9672847
      7793.0000         0.6338          0.772       -10.5486      -2.830421      0.9805275
      7793.5000         0.6391         0.7672        -9.8221      -2.099703       0.988301
      7794.0000          0.636         0.7487        -9.5636      -1.836986      0.9910959
      7794.5000           0.63         0.7303        -9.6483       -1.91747      0.9902397
      7795.0000         0.6225         0.7119         -9.733      -1.997952      0.9893835
      7795.5000         0.6086         0.6935        -9.8176      -2.078336      0.9885284
      7796.0000         0.5948         0.6751        -9.7994      -2.055919      0.9887668
      7796.5000         0.5813         0.6585        -9.7597      -2.012001       0.989234
      7797.0000         0.5677         0.6429        -9.2926      -1.540684       0.994248
      7797.5000         0.5542         0.6273       -10.0933      -2.337167      0.9857748
      7798.0000         0.5405         0.6278       -11.6223       -3.86195      0.9695537
      7798.5000         0.5267         0.6374       -14.2043      -6.439733      0.9421305
      7799.0000         0.5129         0.6952       -18.4453      -10.67652      0.8970584
      7799.5000         0.4991         0.7573       -33.2399       -25.4669      0.7397138
      7800.0000         0.4852         0.8269       -38.5019      -30.72468        0.68378
      7800.5000         0.4825         0.9622       -51.3575      -43.57607      0.5470631
      7801.0000         0.4932         1.1528       -51.3134      -43.52775      0.5475771
      7801.5000         0.5039         1.2683       -46.0415      -38.25163      0.6037061
      7802.0000         0.5157         1.2659       -43.7786      -35.98451      0.6278244
      7802.5000         0.5347         1.2634       -42.7172       -34.9189      0.6391606
      7803.0000         0.5537          1.261        -41.749      -33.94648      0.6495056
      7803.5000         0.5728         1.2586       -40.8543      -33.04757      0.6590685
      7804.0000         0.5903         1.2552       -42.5662      -34.75525      0.6409016
      7804.5000         0.6068         1.2514       -44.8536      -37.03843      0.6166124
      7805.0000         0.6115         1.2532       -47.0257      -39.20631      0.5935499
      7805.5000          0.601         1.2575       -49.2836         -41.46      0.5695745
      7806.0000         0.5904         1.2619        -51.652      -43.82418      0.5444236
      7806.5000         0.5711         1.2663       -54.9703      -47.13826      0.5091674
      7807.0000         0.5507          1.273       -59.3193      -51.48304      0.4629464
      7807.5000         0.5302         1.2798       -61.3981      -53.55763      0.4408763
      7808.0000         0.5098         1.2866       -62.5228      -54.67811      0.4289563
      7808.5000         0.4894         1.2939       -63.1646      -55.31569      0.4221735
      7809.0000           0.47         1.3016       -63.5892      -55.73608      0.4177013
      7809.5000         0.4557         1.3094       -63.9838      -56.12646      0.4135483
      7810.0000         0.4415         1.3172       -64.4586      -56.59705      0.4085421
      7810.5000         0.4327           1.32       -65.0121      -57.14632      0.4026987
      7811.0000         0.4239         1.3116       -65.7373      -57.86731      0.3950287
      7811.5000         0.4151         1.3032       -66.6086      -58.73439      0.3858044
      7812.0000         0.4068         1.3092       -67.5695      -59.69108      0.3756268
      7812.5000          0.403         1.3263        -68.599      -60.71635      0.3647196
      7813.0000         0.3991         1.3435       -69.6299      -61.74304      0.3537975
      7813.5000         0.3953         1.3606       -70.6643      -62.77322      0.3428381
      7814.0000         0.3915         1.3952       -71.6976      -63.80231      0.3318903
      7814.5000          0.388         1.4394       -75.4392      -67.53969       0.292131
      7815.0000         0.3844         1.4836       -71.9099      -64.00616      0.3297217
      7815.5000         0.3812         1.4402       -66.2454      -58.33745      0.3900271
      7816.0000         0.3893         1.3611       -61.2926      -53.38044      0.4427613
      7816.5000          0.398         1.2833       -56.9583      -49.04192      0.4889157
      7817.0000         0.4132         1.2059       -45.4771       -37.5565       0.611101
      7817.5000         0.4283         1.1164       -42.6227      -34.69788      0.6415119
      7818.0000         0.4435         1.0403        -41.379      -33.44997      0.6547875
      7818.5000         0.4586          1.027       -41.3273      -33.39405      0.6553825
      7819.0000         0.4738         1.0145       -41.2756      -33.33813      0.6559773
      7819.5000         0.4879         1.0436       -41.0814      -33.13972      0.6580881
      7820.0000         0.5014         1.0832       -39.9536       -32.0077      0.6701308
      7820.5000         0.5149         1.1472       -38.6761      -30.72598      0.6837661
      7821.0000         0.5284         1.2112       -36.7053      -28.75097      0.7047769
      7821.5000          0.529         1.2595       -34.8572      -26.89865      0.7244825
      7822.0000         0.5151         1.3022       -34.4915      -26.52873      0.7284178
      7822.5000         0.5012         1.3223       -38.2515      -30.28452      0.6884626
      7823.0000         0.4875         1.3425       -42.0361       -34.0649      0.6482458
      7823.5000         0.4755         1.3626       -46.5029      -38.52748      0.6007715
      7824.0000         0.4636         1.3828       -48.8615      -40.88186      0.5757248
      7824.5000         0.4516         1.4029       -50.8864      -42.90255      0.5542282
      7825.0000         0.4396         1.4231       -52.4718      -44.48373      0.5374071
      7825.5000         0.4302         1.4432       -49.6641      -41.67181      0.5673211
      7826.0000         0.4224          1.394       -42.3502      -34.35369      0.6451734
      7826.5000         0.4188         1.2132       -33.7307      -25.72998      0.7369151
      7827.0000         0.4174         0.9945       -30.0247      -22.01976      0.7763855
      7827.5000         0.4167         0.8459       -27.5876      -19.57845       0.802357
      7828.0000         0.4213         0.8043       -29.1853      -21.17193       0.785405
      7828.5000         0.4259         0.7693       -35.1542      -27.13661      0.7219509
      7829.0000         0.4305         0.7342         -41.29       -33.2682      0.6567213
      7829.5000         0.4351         0.8798       -45.6636      -37.63758      0.6102386
      7830.0000         0.4397         1.0501        -47.681      -39.65076      0.5888217
      7830.5000         0.4438         1.1635       -49.2763      -41.24184      0.5718953
      7831.0000         0.4478         1.2566       -44.6278      -36.58913      0.6213923
      7831.5000         0.4517         1.3364       -39.2578      -31.21491      0.6785648
      7832.0000         0.4557         1.2275       -29.4308      -21.38369      0.7831522
      7832.5000         0.4595         1.1025       -23.9626      -15.91127      0.8413694
      7833.0000         0.4633         0.9763       -19.0294      -10.97386      0.8938951
      7833.5000         0.4776         0.8889       -15.3382       -7.27844      0.9332081
