#------------------------------------------------------------------------------
# Created by    : vladimir.rabinovich
# Created on    : 09/19/2023 17:22:55
#------------------------------------------------------------------------------
~Version Information Section
VERS.           2.0     :   CWLS log ASCII Standard - VERSION 2.0
WRAP.           NO      :   One line per depth step
~Well Information Section
#MNEM       .UNIT                                         VALUE :DESCRIPTION
#------------------------------------------------------------------------------
STRT        .FT                                            1527 :START DEPTH
STOP        .FT                                            8498 :STOP DEPTH
STEP        .FT                                             0.5 :STEP      
NULL        .                                           -999.25 :NULL      
COMP        .                           SAN JUAN EXPLORATION CO :COMPANY   
WELL        .                                MIDDLETON ETAL R M :WELL      
FLD         .                                           WILDCAT :FIELD     
LOC         .                                                   :LOCATION  
CNTY        .                                          CHAMBERS :LOCATION  
STAT        .                                             TEXAS :STATE     
CTRY        .                                     UNITED STATES :COUNTRY   
SRVC        .                                                   :SERVICE COMPANY
DATE        .                             9/13/2023 11:19:11 AM :LOG DATE  
API         .                                    42071022810000 :API NUMBER
UWI         .                                    42071022810000 :UNIQUE WELL ID
XCOORD      .                                  1136491.54221464 :SURFACE X 
YCOORD      .                                  10781024.2027564 :SURFACE Y 
LAT         .                                        29.6967824 :LATITUDE  
LON         .                                       -94.5875983 :LONGITUDE 
ELEV        .FT                                              24 :ELEVATION VALUE
ELEV_TYPE   .                                                DF :ELEVATION REFERENCE TYPE
~Curve Information Section
#MNEM       .UNIT                                      API CODE :CURVE DESCRIPTION
#------------------------------------------------------------------------------
DEPT        .FT                                                 :DEPTH     
LAT         .OHMM                                               :          
LN          .OHMM                                               :          
SN          .OHMM                                               :          
SP          .MV                                                 :          
SP_NORM     .MV                                                 :SP Normalized
VSH_SP      .V/V                                                :Volume of Shale from SP
~A        DEPTH            LAT             LN             SN             SP        SP_NORM         VSH_SP
# ...
      7987.0000         0.7811         0.6728         0.6521       -57.0371      0.4024963              1
      7987.5000         0.7849          0.677         0.6595       -56.9667      0.4767799              1
      7988.0000         0.7877         0.6813         0.6668        -56.825      0.6223679              1
      7988.5000         0.7828         0.6856         0.6774       -56.7062      0.7450523              1
      7989.0000         0.7779         0.6898         0.7019       -56.6812      0.7739372              1
      7989.5000          0.773         0.6941         0.7264       -56.9075      0.5515175              1
      7990.0000         0.7681         0.7172         0.7509        -57.572     -0.1090965              1
      7990.5000         0.7402         0.7409         0.7754       -58.5598      -1.093014      0.9989549
      7991.0000         0.7029         0.7646         0.8183       -60.0139      -2.543228      0.9826604
      7991.5000         0.6657         0.7542         0.8112       -62.0412      -4.566643      0.9599254
      7992.0000         0.6284         0.7417         0.7847       -64.8862      -7.407761      0.9280027
      7992.5000         0.5932         0.7292         0.7643       -66.1162      -8.633881      0.9142261
      7993.0000         0.5683         0.7167         0.7439       -63.8095      -6.323296      0.9401877
      7993.5000         0.5781         0.7042         0.7235       -60.9667      -3.476608      0.9721729
      7994.0000         0.6124         0.6917          0.703       -59.6625      -2.168522      0.9868705
      7994.5000         0.6468         0.6792         0.6826       -58.9078      -1.409939      0.9953939
      7995.0000         0.6811         0.6691         0.6622       -58.5106      -1.008858      0.9999005
      7995.5000          0.693         0.6593         0.6492       -58.3196     -0.8139725              1
      7996.0000         0.6958         0.6493         0.6418       -58.1287     -0.6191902              1
      7996.5000         0.6985         0.6394         0.6345       -57.9456     -0.4322014              1
      7997.0000         0.7012         0.6295         0.6272       -57.8221      -0.304821              1
      7997.5000         0.7039         0.6196         0.6199       -57.6986     -0.1774368              1
      7998.0000         0.7066         0.6097         0.6193       -57.5751    -0.05005264              1
      7998.5000         0.7093         0.6137         0.6238       -57.4518     0.07712936              1
      7999.0000         0.7111         0.6181         0.6284       -57.3006      0.2322197              1
      7999.5000         0.7129         0.6225         0.6329         -57.11      0.4267006              1
      8000.0000         0.7147         0.6269         0.6374       -56.9194      0.6211853              1
      8000.5000         0.7165         0.6302          0.642       -56.7287      0.8157692              1
      8001.0000         0.7184         0.6284         0.6416       -56.5467       1.001652              1
      8001.5000         0.7202         0.6266         0.6327       -56.4215       1.130733              1
      8002.0000          0.722         0.6248         0.6239       -56.2965       1.259621              1
      8002.5000         0.7309          0.623          0.615       -56.1714       1.388607              1
      8003.0000         0.7466         0.6211         0.6061       -56.0464        1.51749              1
      8003.5000         0.7624         0.6193         0.5972       -55.9275        1.64027              1
      8004.0000         0.7781         0.6173         0.5946        -55.945       1.626656              1
      8004.5000         0.7938         0.6153         0.5962       -55.9625       1.613041              1
      8005.0000          0.809         0.6133         0.5978         -55.98       1.599426              1
      8005.5000         0.8168         0.6112         0.5994       -55.9976       1.585709              1
      8006.0000         0.8246         0.6092         0.6026       -56.0151       1.572094              1
      8006.5000         0.8323         0.6072         0.6081       -56.1066       1.484474              1
      8007.0000         0.8401         0.6051         0.6136       -56.2364       1.358559              1
      8007.5000         0.8479         0.6042         0.6191       -56.3662       1.232647              1
      8008.0000         0.8556         0.6071         0.6245       -56.4958        1.10693              1
      8008.5000         0.8608           0.61           0.63       -56.6257      0.9809113              1
      8009.0000         0.8576         0.6129         0.6327       -56.7162      0.8942947              1
      8009.5000         0.8545         0.6158         0.6337       -56.7751      0.8392792              1
      8010.0000         0.8513         0.6187         0.6347        -56.834      0.7842674              1
      8010.5000         0.8482         0.6215         0.6357       -56.8929      0.7292519              1
      8011.0000          0.845         0.6248         0.6367       -56.9517      0.6743355              1
      8011.5000         0.8376         0.6356         0.6377       -56.9591      0.6708183              1
      8012.0000         0.8167         0.6464         0.6418        -56.888         0.7458              1
      8012.5000         0.7957         0.6573         0.6552       -56.8168      0.8208847              1
      8013.0000         0.7748         0.6681         0.6686       -56.7457      0.8958702              1
      8013.5000         0.7539         0.6789         0.6819       -56.6731      0.9723549              1
      8014.0000         0.7329         0.6938         0.6953       -56.5926       1.056736              1
      8014.5000          0.712         0.7139         0.7087       -56.5119       1.141319              1
      8015.0000         0.6955          0.734         0.7344       -56.4314       1.225704              1
      8015.5000         0.6836         0.7473         0.7667       -56.6639      0.9970932              1
      8016.0000         0.6717         0.7388         0.7764       -56.9233      0.7415733              1
      8016.5000         0.6598         0.7303         0.7558       -57.1826      0.4861603              1
      8017.0000          0.653         0.7218         0.7351       -57.3395      0.3331413              1
      8017.5000         0.6512         0.7133         0.7145       -57.3704      0.3061256              1
      8018.0000         0.6494          0.705         0.6938       -57.4013        0.27911              1
      8018.5000         0.6476         0.6994         0.6732       -57.4323      0.2519951              1
      8019.0000         0.6457         0.6937          0.655       -57.4632      0.2249794              1
      8019.5000         0.6439         0.6881         0.6574        -57.494      0.1980629              1
      8020.0000         0.6421         0.6825         0.6599        -57.525      0.1709442              1
      8020.5000         0.6403         0.6769         0.6679       -57.5799      0.1199303              1
      8021.0000         0.6385         0.6713         0.6883       -57.9043     -0.2005844              1
      8021.5000          0.639          0.669         0.7086       -58.2281     -0.5205002              1
      8022.0000         0.6398         0.6698          0.729       -58.5525     -0.8410187              1
      8022.5000         0.6406         0.6706         0.7494       -58.6462     -0.9308319              1
      8023.0000         0.6441         0.6714         0.7698       -58.6098     -0.8905487              1
      8023.5000          0.673          0.665         0.7659       -58.5734     -0.8502655              1
      8024.0000         0.7018         0.6558          0.751       -58.6328     -0.9057808              1
      8024.5000         0.7307         0.6466         0.7362       -58.8225      -1.091595      0.9989709
