#------------------------------------------------------------------------------
# Created by    : vladimir.rabinovich
# Created on    : 09/19/2023 17:22:53
#------------------------------------------------------------------------------
~Version Information Section
VERS.           2.0     :   CWLS log ASCII Standard - VERSION 2.0
WRAP.           NO      :   One line per depth step
~Well Information Section
#MNEM       .UNIT                                         VALUE :DESCRIPTION
#------------------------------------------------------------------------------
STRT        .FT                                            1498 :START DEPTH
STOP        .FT                                           11000 :STOP DEPTH
STEP        .FT                                             0.5 :STEP      
NULL        .                                           -999.25 :NULL      
COMP        .                                     CANNAN MORRIS :COMPANY   
WELL        .                                             GARTH :WELL      
FLD         .                                           WILDCAT :FIELD     
LOC         .                                                   :LOCATION  
CNTY        .                                          CHAMBERS :LOCATION  
STAT        .                                             TEXAS :STATE     
CTRY        .                                     UNITED STATES :COUNTRY   
SRVC        .                                                   :SERVICE COMPANY
DATE        .                             9/13/2023 11:19:11 AM :LOG DATE  
API         .                                    42071310360000 :API NUMBER
UWI         .                                    42071310360000 :UNIQUE WELL ID
XCOORD      .                                  1175356.83007784 :SURFACE X 
YCOORD      .                                  10818692.0839896 :SURFACE Y 
LAT         .                                        29.8017803 :LATITUDE  
LON         .                                       -94.4666967 :LONGITUDE 
ELEV        .FT                                              25 :ELEVATION VALUE
ELEV_TYPE   .                                                GL :ELEVATION REFERENCE TYPE
~Curve Information Section
#MNEM       .UNIT                                      API CODE :CURVE DESCRIPTION
#------------------------------------------------------------------------------
DEPT        .FT                                                 :DEPTH     
ILD         .OHMM                                               :          
SFL         .OHMM                                               :          
SP          .MV                                                 :          
SP_NORM     .MV                                                 :SP Normalized
VSH_SP      .V/V                                                :Volume of Shale from SP
~A        DEPTH            ILD            SFL             SP        SP_NORM         VSH_SP
# ...
      7174.0000          0.514         0.6673       -18.8331       -13.2415      0.8697712
      7174.5000         0.5251         0.6788       -17.6759      -12.07209      0.8822118
      7175.0000         0.5362         0.6904       -16.9261      -11.31007      0.8903183
      7175.5000         0.5472          0.702       -16.2088      -10.58056      0.8980792
      7176.0000         0.5583         0.7135       -15.9097      -10.26925       0.901391
      7176.5000         0.5694         0.7223       -15.6109      -9.958235      0.9046996
      7177.0000         0.5758         0.7254       -15.3118      -9.646921      0.9080115
      7177.5000         0.5802         0.7285       -15.0944      -9.417309      0.9104542
      7178.0000         0.5846         0.7316        -14.933      -9.243694      0.9123011
      7178.5000          0.589         0.7347       -14.7916      -9.090081      0.9139353
      7179.0000         0.5933         0.7378       -14.9013      -9.187568      0.9128982
      7179.5000         0.5977         0.7398        -15.011      -9.285053      0.9118611
      7180.0000         0.6024         0.7416       -15.2022      -9.464041       0.909957
      7180.5000         0.6071         0.7435        -15.548      -9.797627      0.9064082
      7181.0000         0.6118         0.7453       -15.5406      -9.778013      0.9066169
      7181.5000         0.6165         0.7471       -15.4339        -9.6591      0.9078819
      7182.0000         0.6212         0.7494       -15.2538      -9.466787      0.9099278
      7182.5000         0.6259         0.7512       -14.9856      -9.186374      0.9129109
      7183.0000         0.6305         0.7469       -14.7175      -8.906059       0.915893
      7183.5000          0.633         0.7426       -14.4435      -8.619846      0.9189378
      7184.0000         0.6325         0.7382       -14.1398      -8.303932      0.9222986
      7184.5000         0.6251         0.7339       -13.8364      -7.988319      0.9256562
      7185.0000         0.6178         0.7319       -13.5173      -7.657005      0.9291808
      7185.5000         0.6105         0.7307       -13.1566      -7.284092       0.933148
      7186.0000         0.6031         0.7294       -12.4605      -6.575778      0.9406832
      7186.5000         0.5958         0.7281       -11.7404      -5.843466      0.9484738
      7187.0000         0.5884         0.7269       -11.4766      -5.567451      0.9514101
      7187.5000         0.5811          0.725       -11.2149      -5.293538      0.9543241
      7188.0000         0.5738         0.7224       -10.9879      -5.054325      0.9568689
      7188.5000         0.5664         0.7199       -10.7612      -4.815411      0.9594105
      7189.0000         0.5591         0.7173       -10.5645      -4.606498       0.961633
      7189.5000         0.5577         0.7148       -10.3697      -4.399485      0.9638353
      7190.0000         0.5565         0.7122       -10.1769      -4.194471      0.9660163
      7190.5000         0.5559         0.7067       -10.0499      -4.055257      0.9674973
      7191.0000         0.5712         0.7007        -9.9611      -3.954244      0.9685719
      7191.5000         0.5866         0.6946       -10.2771       -4.25803      0.9653401
      7192.0000         0.5979         0.6987       -10.6038      -4.572517      0.9619945
      7192.5000         0.6074         0.7066       -10.9995      -4.956004      0.9579148
      7193.0000         0.6169         0.7145       -11.3953       -5.33959      0.9538342
      7193.5000         0.6264         0.7224       -11.7904      -5.722476      0.9497609
      7194.0000          0.636         0.7289       -12.1862      -6.106063      0.9456802
      7194.5000         0.6382         0.7346       -12.4908      -6.398449      0.9425697
      7195.0000         0.6364         0.7365       -12.7412      -6.636637      0.9400358
      7195.5000         0.6346         0.7348       -12.8751      -6.758323      0.9387413
      7196.0000         0.6328         0.7285       -12.8835      -6.754509      0.9387818
      7196.5000         0.6292         0.7188        -12.892      -6.750796      0.9388213
      7197.0000          0.625          0.709       -12.9004      -6.746983      0.9388619
      7197.5000         0.6207         0.6948       -12.9088      -6.743169      0.9389024
      7198.0000         0.6167         0.6796       -12.9173      -6.739456       0.938942
      7198.5000         0.6131         0.6719       -12.9764      -6.786342      0.9384432
      7199.0000         0.6095          0.684        -13.045      -6.842729      0.9378433
      7199.5000         0.6059         0.6961       -13.1135      -6.899014      0.9372445
      7200.0000         0.6035         0.7082        -13.182      -6.955302      0.9366457
      7200.5000         0.6086         0.7305       -13.2506      -7.011688      0.9360459
      7201.0000         0.6136         0.7531       -13.3192      -7.068074       0.935446
      7201.5000         0.6187         0.7644       -13.3877      -7.124361      0.9348472
      7202.0000         0.6238         0.7551       -13.4477      -7.172147      0.9343389
      7202.5000         0.6287         0.7458       -13.4881      -7.200334       0.934039
      7203.0000         0.6336         0.7364       -13.4371      -7.137121      0.9347115
      7203.5000         0.6385         0.7275       -13.3161      -7.003907      0.9361287
      7204.0000         0.6434         0.7188       -13.1949      -6.870493      0.9375479
      7204.5000         0.6483         0.7103       -13.0161       -6.67948        0.93958
      7205.0000         0.6506         0.7082       -12.8283      -6.479467      0.9417078
      7205.5000         0.6472         0.7118       -12.6402      -6.279153      0.9438388
      7206.0000         0.6439         0.7157       -12.4507       -6.07744      0.9459847
      7206.5000         0.6406         0.7209       -12.1144      -5.728926      0.9496922
      7207.0000         0.6373         0.7261       -11.7782      -5.380513      0.9533988
      7207.5000         0.6354         0.7307       -11.4419         -5.032      0.9571064
      7208.0000         0.6337         0.7285        -10.964      -4.541886      0.9623204
      7208.5000         0.6321         0.7263       -10.4743      -4.039973      0.9676599
      7209.0000         0.6305         0.7241        -9.9847      -3.538159      0.9729983
      7209.5000         0.6288         0.7209        -9.6405      -3.181746        0.97679
      7210.0000         0.6272         0.7173         -9.322      -2.851032      0.9803082
      7210.5000         0.6257         0.7138        -9.0112      -2.528018      0.9837445
      7211.0000         0.6244         0.7102        -8.7155      -2.220105      0.9870201
      7211.5000         0.6231         0.7067        -9.1165      -2.608891      0.9828841
      7212.0000         0.6218         0.7042        -9.4766      -2.956778      0.9791832
      7212.5000         0.6205         0.7027        -9.7199      -3.187865      0.9767249
      7213.0000         0.6191         0.7011        -9.9632      -3.418951      0.9742665
      7213.5000         0.6178         0.6995       -10.2068      -3.650338      0.9718049
      7214.0000         0.6165         0.6984       -10.4844      -3.915724      0.9689817
      7214.5000         0.6152         0.7034       -10.7719      -4.191011      0.9660531
      7215.0000         0.6139         0.7084       -11.0594      -4.466297      0.9631245
      7215.5000         0.6126         0.7134       -11.3468      -4.741484       0.960197
      7216.0000          0.614         0.7185       -11.6346       -5.01707      0.9572652
      7216.5000         0.6156         0.7233       -11.1885      -4.558757      0.9621409
      7217.0000         0.6173         0.7275       -10.6934      -4.051444      0.9675378
      7217.5000         0.6189         0.7318        -10.205       -3.55083      0.9728635
