#------------------------------------------------------------------------------
# Created by    : vladimir.rabinovich
# Created on    : 09/19/2023 17:22:28
#------------------------------------------------------------------------------
~Version Information Section
VERS.           2.0     :   CWLS log ASCII Standard - VERSION 2.0
WRAP.           NO      :   One line per depth step
~Well Information Section
#MNEM       .UNIT                                         VALUE :DESCRIPTION
#------------------------------------------------------------------------------
STRT        .FT                                            1650 :START DEPTH
STOP        .FT                                         10241.5 :STOP DEPTH
STEP        .FT                                             0.5 :STEP      
NULL        .                                           -999.25 :NULL      
COMP        .                                 HARRISON DAN J JR :COMPANY   
WELL        .                                    G R CANADA EST :WELL      
FLD         .                                           WILDCAT :FIELD     
LOC         .                                                   :LOCATION  
CNTY        .                                          CHAMBERS :LOCATION  
STAT        .                                             TEXAS :STATE     
CTRY        .                                     UNITED STATES :COUNTRY   
SRVC        .                                                   :SERVICE COMPANY
DATE        .                             9/13/2023 11:19:11 AM :LOG DATE  
API         .                                    42071032580000 :API NUMBER
UWI         .                                    42071032580000 :UNIQUE WELL ID
XCOORD      .                                   1124905.0652959 :SURFACE X 
YCOORD      .                                  10748564.4390152 :SURFACE Y 
LAT         .                                        29.6070806 :LATITUDE  
LON         .                                       -94.6226563 :LONGITUDE 
ELEV        .FT                                            14.3 :ELEVATION VALUE
ELEV_TYPE   .                                                KB :ELEVATION REFERENCE TYPE
~Curve Information Section
#MNEM       .UNIT                                      API CODE :CURVE DESCRIPTION
#------------------------------------------------------------------------------
DEPT        .FT                                                 :DEPTH     
CILD        .MMHO                                               :          
IND         .OHMM                                               :          
SN16        .OHMM                                               :          
SP          .MV                                                 :          
SP_NORM     .MV                                                 :SP Normalized
VSH_SP      .V/V                                                :Volume of Shale from SP
~A        DEPTH           CILD            IND           SN16             SP        SP_NORM         VSH_SP
# ...
      7920.0000       1926.974         0.5592         0.5934        -50.685       1.166851              1
      7920.5000       1927.116         0.5511         0.5933       -50.6904       1.161453              1
      7921.0000       1927.813          0.515         0.5928       -50.9482      0.9036522              1
      7921.5000       1933.324         0.4982         0.5871       -51.3031      0.5487518              1
      7922.0000       1934.639         0.4679         0.5867       -51.3093      0.5425529              1
      7922.5000       1945.553         0.4676         0.5828       -51.3152      0.5366516              1
      7923.0000       1953.441         0.4673         0.5809       -51.3212      0.5306511              1
      7923.5000       1963.753          0.437         0.5808       -51.3283      0.5235519              1
      7924.0000       1975.842         0.4367         0.5807       -51.3333      0.5185509              1
      7924.5000       1981.953         0.4363         0.5806       -51.9399    -0.08804703              1
      7925.0000       1988.083          0.436         0.5865       -52.0064     -0.1545486              1
      7925.5000       1994.168         0.4657         0.5896       -52.5531     -0.7012482              1
      7926.0000       2000.295         0.4655         0.5947       -53.0174      -1.165546      0.9976008
      7926.5000       2000.397         0.4652         0.5982       -53.1656      -1.313747      0.9954529
      7927.0000       2000.531         0.4649         0.6003       -53.5866      -1.734749      0.9893515
      7927.5000       1994.638         0.4946          0.604       -53.7779      -1.926048       0.986579
      7928.0000       1982.804         0.4943         0.6099       -53.7839      -1.932049       0.986492
      7928.5000       1966.738          0.494         0.6158       -53.7899      -1.938049      0.9864051
      7929.0000       1929.148         0.5127         0.6184        -53.796      -1.944149      0.9863167
      7929.5000       1890.639         0.5234         0.6215        -53.802      -1.950146      0.9862298
      7930.0000       1845.552          0.523         0.6214        -53.808      -1.956146      0.9861428
      7930.5000       1791.801         0.5445         0.6273        -53.814      -1.962147      0.9860559
      7931.0000       1760.168         0.5525         0.6336       -53.2201      -1.368248      0.9946631
      7931.5000       1708.205         0.5522          0.645       -53.2255      -1.373646      0.9945849
      7932.0000       1661.614         0.5519         0.6463       -53.2319      -1.380047      0.9944921
      7932.5000       1600.657         0.5516         0.6568       -53.2376      -1.385746      0.9944095
      7933.0000       1567.241          0.558         0.6667       -53.2436      -1.391747      0.9943225
      7933.5000       1546.994         0.5768         0.6745       -53.2496      -1.397747      0.9942356
      7934.0000       1549.512         0.5807          0.683       -53.2556      -1.403748      0.9941486
      7934.5000       1559.213         0.5803         0.6923       -52.6611     -0.8092461              1
      7935.0000       1577.319         0.6101         0.7057       -52.3351     -0.4832458              1
      7935.5000       1595.678         0.6098         0.7102       -52.0725     -0.2206459              1
      7936.0000       1607.495         0.6121         0.7159       -52.0393     -0.1874466              1
      7936.5000       1625.561         0.6392         0.7218       -51.4846      0.3672523              1
      7937.0000       1637.671         0.6579         0.7217         -51.49      0.3618507              1
      7937.5000       1645.259         0.6687         0.7284       -51.4961       0.355751              1
      7938.0000       1649.874         0.6684         0.7334       -50.9006       0.951252              1
      7938.5000       1654.036         0.6981         0.7334       -50.9075      0.9443512              1
      7939.0000       1656.108         0.6978         0.7333       -50.9136      0.9382515              1
      7939.5000       1656.224         0.6975         0.7303       -50.9196       0.932251              1
      7940.0000       1656.344         0.6972          0.721       -50.6139       1.237953              1
      7940.5000       1650.477         0.6969         0.7151       -50.3308       1.521053              1
      7941.0000       1647.301         0.6965         0.7083       -50.3379       1.513954              1
      7941.5000       1638.758         0.6962          0.697       -50.3431       1.508751              1
      7942.0000       1631.679         0.6959         0.6969       -49.7492       2.102654              1
      7942.5000        1621.03         0.6956         0.6968       -49.7546       2.097252              1
      7943.0000       1607.366         0.6953         0.6967        -49.761       2.090851              1
      7943.5000       1597.314          0.695         0.6966       -49.7666       2.085251              1
      7944.0000       1577.065         0.6947         0.7051       -49.7729       2.078953              1
      7944.5000       1561.622         0.6944         0.7084       -50.3793       1.472553              1
      7945.0000       1537.812         0.6941         0.7143       -50.9859      0.8659515              1
      7945.5000       1519.347         0.6637          0.727       -51.5936      0.2582512              1
      7946.0000       1496.132         0.6635         0.7439       -51.5986      0.2532539              1
      7946.5000       1483.361         0.6331         0.7569       -52.2061      -0.354248              1
      7947.0000       1466.428         0.6275         0.7736       -52.2112     -0.3593483              1
      7947.5000       1460.535         0.6025         0.7947       -52.8185     -0.9666481              1
      7948.0000       1460.676         0.5722         0.8152       -52.9923      -1.140446      0.9979646
      7948.5000       1466.775         0.5719         0.8293       -53.4309      -1.579048       0.991608
      7949.0000       1484.865         0.5715         0.8449       -53.4366      -1.584747      0.9915254
      7949.5000       1508.337         0.5712         0.8508       -53.4426      -1.590748      0.9914384
      7950.0000       1556.957         0.5709         0.8446       -53.4486      -1.596748      0.9913515
      7950.5000       1628.955         0.5706         0.8088       -53.4546      -1.602749      0.9912645
      7951.0000       1684.141         0.5703         0.7773       -52.8601      -1.008247      0.9998805
      7951.5000       1697.143           0.57         0.7429       -52.8516     -0.9997482              1
      7952.0000       1652.068         0.5697         0.7369       -52.4754     -0.6235466              1
      7952.5000       1563.559         0.5995         0.7368       -52.2216     -0.3697472              1
      7953.0000       1522.364         0.5991         0.7466        -51.683      0.1688538              1
      7953.5000       1479.963         0.6589         0.7844        -51.689      0.1628532              1
      7954.0000       1439.352         0.6886         0.8338       -51.0949      0.7569542              1
      7954.5000       1414.331         0.7292         0.8797       -51.1005      0.7513542              1
      7955.0000       1366.569         0.7781         0.9035       -50.7234       1.128452              1
      7955.5000       1276.547         0.7914         0.9159        -50.512       1.339851              1
      7956.0000       1268.579         0.8075         0.9272       -50.2169       1.634953              1
      7956.5000       1278.878         0.8072         0.9271       -49.9234       1.928452              1
      7957.0000       1307.161         0.8069         0.9211       -49.9294       1.922451              1
      7957.5000       1347.675         0.8066         0.8921       -49.9363       1.915554              1
