#------------------------------------------------------------------------------
# Created by    : vladimir.rabinovich
# Created on    : 09/19/2023 17:22:55
#------------------------------------------------------------------------------
~Version Information Section
VERS.           2.0     :   CWLS log ASCII Standard - VERSION 2.0
WRAP.           NO      :   One line per depth step
~Well Information Section
#MNEM       .UNIT                                         VALUE :DESCRIPTION
#------------------------------------------------------------------------------
STRT        .FT                                            1527 :START DEPTH
STOP        .FT                                            8498 :STOP DEPTH
STEP        .FT                                             0.5 :STEP      
NULL        .                                           -999.25 :NULL      
COMP        .                           SAN JUAN EXPLORATION CO :COMPANY   
WELL        .                                MIDDLETON ETAL R M :WELL      
FLD         .                                           WILDCAT :FIELD     
LOC         .                                                   :LOCATION  
CNTY        .                                          CHAMBERS :LOCATION  
STAT        .                                             TEXAS :STATE     
CTRY        .                                     UNITED STATES :COUNTRY   
SRVC        .                                                   :SERVICE COMPANY
DATE        .                             9/13/2023 11:19:11 AM :LOG DATE  
API         .                                    42071022810000 :API NUMBER
UWI         .                                    42071022810000 :UNIQUE WELL ID
XCOORD      .                                  1136491.54221464 :SURFACE X 
YCOORD      .                                  10781024.2027564 :SURFACE Y 
LAT         .                                        29.6967824 :LATITUDE  
LON         .                                       -94.5875983 :LONGITUDE 
ELEV        .FT                                              24 :ELEVATION VALUE
ELEV_TYPE   .                                                DF :ELEVATION REFERENCE TYPE
~Curve Information Section
#MNEM       .UNIT                                      API CODE :CURVE DESCRIPTION
#------------------------------------------------------------------------------
DEPT        .FT                                                 :DEPTH     
LAT         .OHMM                                               :          
LN          .OHMM                                               :          
SN          .OHMM                                               :          
SP          .MV                                                 :          
SP_NORM     .MV                                                 :SP Normalized
VSH_SP      .V/V                                                :Volume of Shale from SP
~A        DEPTH            LAT             LN             SN             SP        SP_NORM         VSH_SP
# ...
      4301.0000         0.8608         0.7873         0.8697       -69.8282       3.185364              1
      4301.5000         0.8751         0.7756         0.8642       -69.9259       3.081985              1
      4302.0000         0.8895         0.7639         0.8586       -70.4406       2.561615              1
      4302.5000         0.9038         0.7439         0.8531       -70.9554       2.041138              1
      4303.0000         0.9182         0.7239         0.8475       -70.4562        2.53466              1
      4303.5000         0.9119         0.7039          0.842       -69.8351       3.150078              1
      4304.0000         0.9054         0.6839         0.8378       -71.0087       1.970802              1
      4304.5000          0.899         0.6639         0.8345       -72.3685      0.6053238              1
      4305.0000         0.8925         0.6439         0.8312       -73.8087     -0.8405533              1
      4305.5000         0.8861         0.6239         0.8279       -75.2581      -2.295631      0.9835996
      4306.0000         0.8797         0.6039         0.8246       -76.7084      -3.751602      0.9651696
      4306.5000         0.8732         0.5839         0.8213       -78.4554       -5.50428      0.9429838
      4307.0000         0.8668         0.5695          0.818       -80.5841      -7.638657      0.9159664
      4307.5000         0.8623         0.5563         0.8147       -82.5129      -9.573135      0.8914793
      4308.0000         0.8592         0.5432         0.8114        -83.588      -10.65392      0.8777986
      4308.5000         0.8561           0.53         0.8061       -83.7883      -10.85989      0.8751912
      4309.0000          0.853         0.5168         0.8003       -82.5146      -9.591873      0.8912421
      4309.5000         0.8498         0.5036         0.7945       -81.2408      -8.323746      0.9072943
      4310.0000         0.8762         0.4905         0.7887       -79.0375      -6.126122      0.9351124
      4310.5000         0.9031         0.4813         0.7828       -76.0325      -3.126801      0.9730785
      4311.0000         0.9299          0.478         0.7753       -77.7535      -4.853477      0.9512218
      4311.5000         0.9568         0.4747         0.7615       -80.1222      -7.227852      0.9211664
      4312.0000         0.9837         0.4714         0.7477       -82.8486       -9.95993      0.8865831
      4312.5000         1.0273          0.468         0.7339       -86.9813      -14.09831      0.8341986
      4313.0000         1.0833         0.4647         0.7402       -90.5162      -17.63889      0.7893812
      4313.5000         1.1165         0.4614          0.751       -92.8215      -19.94987      0.7601283
      4314.0000         1.0414          0.458         0.7618       -95.1245      -22.25854      0.7309046
      4314.5000         0.9674         0.4547         0.7726       -97.3414      -24.48112      0.7027707
      4315.0000         0.8937         0.4514         0.7574       -99.4225      -26.56789      0.6763558
      4315.5000         0.8199         0.4482         0.7364        -98.057      -25.20807      0.6935688
      4316.0000         0.8031         0.4451         0.7153       -96.6904      -23.84715      0.7107956
      4316.5000         0.7882          0.442         0.6943       -95.2263      -22.38873      0.7292566
      4317.0000         0.7732         0.4389         0.6732       -93.9606      -21.12871      0.7452062
      4317.5000         0.7583         0.4359         0.6522      -100.1267      -27.30048      0.6670825
      4318.0000          0.737         0.4328         0.6368      -106.0507      -33.23016      0.5920233
      4318.5000         0.7045         0.4297         0.6227      -112.1287      -39.31384      0.5150148
      4319.0000         0.6721         0.4266         0.6086      -116.4515      -43.64231      0.4602239
      4319.5000         0.6397         0.4235         0.5944      -118.6255      -45.82199       0.432633
      4320.0000         0.6072         0.4219         0.5844      -114.1033      -41.30547      0.4898042
      4320.5000         0.5727          0.426         0.5897       -91.8613      -19.06914      0.7712767
      4321.0000         0.5365         0.4301         0.5951       -88.6106      -15.82412      0.8123529
      4321.5000         0.5562         0.4342         0.6004       -88.2296       -15.4488      0.8171038
      4322.0000         0.5773         0.4383         0.6057       -89.8142      -17.03908      0.7969737
      4322.5000         0.5923         0.4424          0.611       -91.6201      -18.85065      0.7740424
      4323.0000         0.6073         0.4465         0.6154       -93.4249      -20.66113       0.751125
      4323.5000         0.6224         0.4531         0.6196        -88.365       -15.6069      0.8151025
      4324.0000         0.6374         0.4691         0.6238       -87.0809      -14.32848       0.831285
      4324.5000         0.6524          0.485          0.628       -89.7485      -17.00175      0.7974461
      4325.0000         0.6581          0.501         0.6322       -91.9371      -19.19604      0.7696704
      4325.5000         0.6462         0.5169         0.6364       -90.3849      -17.64951      0.7892467
      4326.0000         0.6343         0.5329         0.6584       -85.1267        -12.397      0.8557342
      4326.5000         0.6225         0.5488         0.6845       -80.3101      -7.586067      0.9166321
      4327.0000         0.6106         0.5656         0.7107       -78.0247      -5.306343      0.9454893
      4327.5000         0.5988         0.5857         0.7368       -77.7087      -4.996025      0.9494174
      4328.0000         0.5869         0.6058         0.7661        -78.473      -5.765999      0.9396709
      4328.5000         0.5804         0.6259         0.7957       -79.2373      -6.535973      0.9299244
      4329.0000         0.5741          0.646         0.7948       -80.1946      -7.498955      0.9177347
      4329.5000         0.5679         0.6653         0.7939       -84.4247      -11.73473      0.8641174
      4330.0000         0.5616         0.6254          0.793       -86.1134      -13.42911      0.8426695
      4330.5000         0.5554         0.5855         0.7922       -87.1891      -14.51049      0.8289812
      4331.0000         0.5418         0.5484         0.8201       -88.3491      -15.67616      0.8142258
      4331.5000         0.5257         0.5213         0.8545       -89.5311      -16.86384      0.7991919
      4332.0000         0.5095         0.4943         0.8889       -93.9447      -21.28312      0.7432517
      4332.5000         0.4933         0.4672         0.9233       -96.4922       -23.8363       0.710933
      4333.0000         0.4697         0.4402         0.9521       -98.4465      -25.79627      0.6861231
      4333.5000         0.4455         0.4131         0.9732       -98.0321      -25.38754      0.6912969
      4334.0000         0.4214         0.3861          0.993       -95.9827      -23.34382      0.7171668
      4334.5000         0.4857         0.3918         0.9555       -93.9323       -21.2991      0.7430494
      4335.0000         0.5564         0.4053         0.9179       -91.2363      -18.60878      0.7771041
      4335.5000          0.677         0.4188         0.8804       -88.4917      -15.86986       0.811774
      4336.0000         0.8002         0.4518         0.8428       -86.0846      -13.46844      0.8421717
      4336.5000         0.9226         0.4973         0.8273       -83.1882      -10.57771      0.8787631
      4337.0000         1.0687         0.5429         0.8914       -80.1538      -7.548988      0.9171014
      4337.5000         1.0497         0.5885           0.95       -84.3613      -11.76216      0.8637701
      4338.0000         0.9674         0.6302          1.001       -87.8962      -15.30274      0.8189526
      4338.5000         0.8702          0.671         1.0519       -90.5525      -17.96471      0.7852568
