#------------------------------------------------------------------------------
# Created by    : vladimir.rabinovich
# Created on    : 09/19/2023 17:22:53
#------------------------------------------------------------------------------
~Version Information Section
VERS.           2.0     :   CWLS log ASCII Standard - VERSION 2.0
WRAP.           NO      :   One line per depth step
~Well Information Section
#MNEM       .UNIT                                         VALUE :DESCRIPTION
#------------------------------------------------------------------------------
STRT        .FT                                            1498 :START DEPTH
STOP        .FT                                           11000 :STOP DEPTH
STEP        .FT                                             0.5 :STEP      
NULL        .                                           -999.25 :NULL      
COMP        .                                     CANNAN MORRIS :COMPANY   
WELL        .                                             GARTH :WELL      
FLD         .                                           WILDCAT :FIELD     
LOC         .                                                   :LOCATION  
CNTY        .                                          CHAMBERS :LOCATION  
STAT        .                                             TEXAS :STATE     
CTRY        .                                     UNITED STATES :COUNTRY   
SRVC        .                                                   :SERVICE COMPANY
DATE        .                             9/13/2023 11:19:11 AM :LOG DATE  
API         .                                    42071310360000 :API NUMBER
UWI         .                                    42071310360000 :UNIQUE WELL ID
XCOORD      .                                  1175356.83007784 :SURFACE X 
YCOORD      .                                  10818692.0839896 :SURFACE Y 
LAT         .                                        29.8017803 :LATITUDE  
LON         .                                       -94.4666967 :LONGITUDE 
ELEV        .FT                                              25 :ELEVATION VALUE
ELEV_TYPE   .                                                GL :ELEVATION REFERENCE TYPE
~Curve Information Section
#MNEM       .UNIT                                      API CODE :CURVE DESCRIPTION
#------------------------------------------------------------------------------
DEPT        .FT                                                 :DEPTH     
ILD         .OHMM                                               :          
SFL         .OHMM                                               :          
SP          .MV                                                 :          
SP_NORM     .MV                                                 :SP Normalized
VSH_SP      .V/V                                                :Volume of Shale from SP
~A        DEPTH            ILD            SFL             SP        SP_NORM         VSH_SP
# ...
      4666.0000         1.1337         1.1405        -5.7625       3.189792              1
      4666.5000         1.1135         1.1226        -5.7499       3.199402              1
      4667.0000         1.0888         1.1047        -5.5555       3.390811              1
      4667.5000         1.0641         1.0868        -5.3611       3.582221              1
      4668.0000         1.0393         1.0689        -5.1666        3.77373              1
      4668.5000         1.0146         1.0505        -4.9722       3.965141              1
      4669.0000         0.9899          1.032        -4.7147        4.21965              1
      4669.5000          0.973         1.0276        -4.4294       4.501959              1
      4670.0000         0.9954         1.0439        -4.1444       4.783969              1
      4670.5000         1.0355         1.0673        -3.8594       5.065979              1
      4671.0000           1.08         1.0941         -3.574       5.348389              1
      4671.5000         1.1245          1.121        -3.5835       5.335898              1
      4672.0000         1.1691         1.1663        -4.1266       4.789808              1
      4672.5000         1.2129         1.2117          -4.67       4.243418              1
      4673.0000         1.2561          1.257        -5.2131       3.697327              1
      4673.5000         1.2993         1.2923        -5.8382       3.069237              1
      4674.0000          1.311         1.3245        -6.0642       2.840247              1
      4674.5000         1.3157         1.3308        -6.1164       2.785056              1
      4675.0000          1.321         1.3242        -6.1753       2.723166              1
      4675.5000         1.3306         1.3196        -6.3507       2.544775              1
      4676.0000         1.3402         1.3186        -6.6887       2.203785              1
      4676.5000         1.3498         1.3175        -7.3597       1.529795              1
      4677.0000         1.3594         1.3395        -8.0314      0.8551054              1
      4677.5000         1.4041          1.396        -8.5255      0.3580141              1
      4678.0000         1.4609         1.4694        -8.7915     0.08902359              1
      4678.5000         1.5534         1.5441        -9.1163     -0.2387657              1
      4679.0000         1.6598          1.641       -10.2031      -1.328557      0.9966812
      4679.5000         1.7969         1.7385       -11.7313      -2.859747      0.9812147
      4680.0000          2.152         1.8392       -12.8934      -4.024837      0.9694461
      4680.5000         2.3631         1.9585       -13.6535      -4.787928      0.9617381
      4681.0000         2.4659         2.1478       -14.1002      -5.237617      0.9571958
      4681.5000         2.5222         2.1809       -14.4507      -5.591108      0.9536251
      4682.0000         2.4188         2.0955       -15.1478      -6.291199      0.9465535
      4682.5000         2.2595         1.9331       -15.9927      -7.139089       0.937989
      4683.0000         2.0422         1.7013       -17.3116      -8.460979      0.9246366
      4683.5000         1.8335         1.6171       -19.2537      -10.40607      0.9049892
      4684.0000         2.0366         1.5709       -21.2546      -12.40996      0.8847479
      4684.5000          1.947         1.5347       -23.2016      -14.35995       0.865051
      4685.0000         1.8546         1.4984       -29.1602      -20.32154      0.8048329
      4685.5000         1.7671         1.4618       -31.7513      -22.91563        0.77863
      4686.0000         1.7051         1.4346        -31.913      -23.08032      0.7769665
      4686.5000         1.6419         1.4451       -31.2756      -22.44591      0.7833746
      4687.0000         1.5762          1.448       -30.6382       -21.8115      0.7897828
      4687.5000         1.5156         1.4308       -34.4747      -25.65099          0.751
      4688.0000         1.4568         1.4072       -37.5324      -28.71168       0.720084
      4688.5000          1.405         1.3394       -38.8182      -30.00047      0.7070659
      4689.0000         1.3531         1.2563       -39.9123      -31.09756      0.6959842
      4689.5000          1.299         1.1694       -40.8178      -32.00605      0.6868076
      4690.0000         1.2442         1.1047       -36.6617      -27.85295      0.7287582
      4690.5000         1.2554         1.1188       -34.2714      -25.46563      0.7528724
      4691.0000         1.2994         1.1479        -31.144      -22.34122      0.7844321
      4691.5000         1.3362         1.1885       -26.5483      -17.74851      0.8308231
      4692.0000         1.3726         1.2291       -25.1437       -16.3469      0.8449808
      4692.5000         1.4091         1.2698       -23.3889       -14.5951      0.8626758
      4693.0000         1.3764         1.2813        -22.135      -13.34419      0.8753113
      4693.5000         1.3232         1.2227       -21.6574      -12.86958      0.8801053
      4694.0000         1.2589         1.1641       -22.4999      -13.71507       0.871565
      4694.5000         1.1946         1.1056       -23.4012      -14.61936      0.8624308
      4695.0000         1.1304         1.0472        -24.518      -15.73915      0.8511197
      4695.5000         1.0755         1.0019       -25.6348      -16.85894      0.8398087
      4696.0000         1.0228         0.9763       -26.7515      -17.97863      0.8284987
      4696.5000         0.9702         0.9508       -27.7618      -18.99192      0.8182635
      4697.0000           0.94         0.9252       -28.7322      -19.96531      0.8084312
      4697.5000         0.9283         0.9019       -29.7027       -20.9388       0.798598
      4698.0000         0.9264         0.8934       -30.4086      -21.64769      0.7914374
      4698.5000         0.9358         0.9242       -30.7693      -22.01138      0.7877638
      4699.0000         0.9701         0.9659       -30.3027      -21.54777      0.7924468
      4699.5000         1.0182          1.033       -29.0329      -20.28096      0.8052428
      4700.0000         1.0735         1.1256       -24.7617      -16.01275      0.8483561
      4700.5000         1.1641         1.2248       -22.5807      -13.83474      0.8703561
      4701.0000         1.2546         1.3284       -21.4095      -12.66653      0.8821563
      4701.5000          1.358         1.4047        -20.675      -11.93502      0.8895453
      4702.0000         1.4481         1.4593       -20.2054      -11.46841      0.8942584
      4702.5000         1.4767         1.5077       -19.7358       -11.0018      0.8989717
      4703.0000         1.4928         1.4936       -19.4341      -10.70309       0.901989
      4703.5000         1.5033         1.4795          -19.7      -10.97198      0.8992729
      4704.0000          1.519         1.4654       -20.3974      -11.67237      0.8921983
      4704.5000         1.5426         1.4646       -21.8191      -13.09706      0.8778074
      4705.0000         1.5663         1.4692       -23.8163      -15.09725      0.8576035
      4705.5000         1.6011         1.5005       -25.8821      -17.16604      0.8367066
      4706.0000         1.6463         1.5431        -27.632      -18.91893      0.8190007
      4706.5000         1.6936         1.5952        -29.099      -20.38893      0.8041523
      4707.0000         1.7479         1.6427       -29.9402      -21.23312      0.7956251
      4707.5000         1.8022         1.6876       -30.4769       -21.7728      0.7901737
      4708.0000         1.7888         1.7302       -31.9448      -23.24369      0.7753162
      4708.5000         1.6701         1.7598       -35.1629      -26.46478        0.74278
      4709.0000         1.4012         1.6964       -39.1978      -30.50268      0.7019932
      4709.5000          1.159         1.5403       -41.3811      -32.68896      0.6799095
