#------------------------------------------------------------------------------
# Created by    : vladimir.rabinovich
# Created on    : 09/19/2023 17:22:28
#------------------------------------------------------------------------------
~Version Information Section
VERS.           2.0     :   CWLS log ASCII Standard - VERSION 2.0
WRAP.           NO      :   One line per depth step
~Well Information Section
#MNEM       .UNIT                                         VALUE :DESCRIPTION
#------------------------------------------------------------------------------
STRT        .FT                                            1650 :START DEPTH
STOP        .FT                                         10241.5 :STOP DEPTH
STEP        .FT                                             0.5 :STEP      
NULL        .                                           -999.25 :NULL      
COMP        .                                 HARRISON DAN J JR :COMPANY   
WELL        .                                    G R CANADA EST :WELL      
FLD         .                                           WILDCAT :FIELD     
LOC         .                                                   :LOCATION  
CNTY        .                                          CHAMBERS :LOCATION  
STAT        .                                             TEXAS :STATE     
CTRY        .                                     UNITED STATES :COUNTRY   
SRVC        .                                                   :SERVICE COMPANY
DATE        .                             9/13/2023 11:19:11 AM :LOG DATE  
API         .                                    42071032580000 :API NUMBER
UWI         .                                    42071032580000 :UNIQUE WELL ID
XCOORD      .                                   1124905.0652959 :SURFACE X 
YCOORD      .                                  10748564.4390152 :SURFACE Y 
LAT         .                                        29.6070806 :LATITUDE  
LON         .                                       -94.6226563 :LONGITUDE 
ELEV        .FT                                            14.3 :ELEVATION VALUE
ELEV_TYPE   .                                                KB :ELEVATION REFERENCE TYPE
~Curve Information Section
#MNEM       .UNIT                                      API CODE :CURVE DESCRIPTION
#------------------------------------------------------------------------------
DEPT        .FT                                                 :DEPTH     
CILD        .MMHO                                               :          
IND         .OHMM                                               :          
SN16        .OHMM                                               :          
SP          .MV                                                 :          
SP_NORM     .MV                                                 :SP Normalized
VSH_SP      .V/V                                                :Volume of Shale from SP
~A        DEPTH           CILD            IND           SN16             SP        SP_NORM         VSH_SP
# ...
      9630.0000       1747.149         0.6518         0.7367       -42.3951      -4.437695      0.9501783
      9630.5000       1659.689         0.6517         0.7147       -41.8016      -3.856747      0.9585979
      9631.0000       1606.628         0.6515         0.6888       -41.8066      -3.874298      0.9583435
      9631.5000       1568.472         0.6514         0.6888        -41.212      -3.292252      0.9667789
      9632.0000       1504.891         0.6813         0.6947        -40.617      -2.709805      0.9752202
      9632.5000       1458.702         0.6811         0.7267       -40.6241      -2.729458      0.9749354
      9633.0000       1379.202          0.711         0.7781       -40.4689      -2.586807      0.9770028
      9633.5000       1327.855         0.7108         0.8199       -40.0348      -2.165264      0.9831121
      9634.0000       1289.441         0.7259          0.832       -40.0408      -2.183815      0.9828433
      9634.5000       1270.029         0.7406         0.8496       -40.0472      -2.202766      0.9825686
      9635.0000       1271.536         0.7404         0.8562       -40.0528      -2.220921      0.9823055
      9635.5000       1294.837         0.7703         0.8674       -40.0589      -2.239571      0.9820352
      9636.0000       1343.452         0.7701         0.8673       -40.0649      -2.258125      0.9817663
      9636.5000       1363.508            0.8         0.8553       -40.0709       -2.27668      0.9814974
      9637.0000       1373.451         0.7999         0.8406        -40.078      -2.296329      0.9812126
      9637.5000       1373.479         0.7997         0.8074       -40.0829      -2.313786      0.9809597
      9638.0000       1367.521         0.7996         0.7878       -40.0889       -2.33234      0.9806907
      9638.5000       1352.921         0.7994         0.7775       -40.0949      -2.350887      0.9804219
      9639.0000       1337.642         0.7854         0.7774       -40.1017      -2.370243      0.9801414
      9639.5000       1304.781          0.769         0.7833       -40.1069      -2.387993      0.9798841
      9640.0000       1289.679         0.7389         0.8036       -40.1129      -2.406548      0.9796153
      9640.5000        1265.88         0.7087         0.8369       -40.1189      -2.425102      0.9793463
      9641.0000       1259.916         0.6785         0.8723       -40.2904      -2.609154      0.9766789
      9641.5000       1259.951         0.6756         0.8906       -40.7315      -3.062805      0.9701043
      9642.0000       1253.987         0.6482         0.8965       -40.7378      -3.081657       0.969831
      9642.5000       1254.023          0.618         0.8964       -41.3441      -3.700512      0.9608622
      9643.0000       1254.048         0.6179         0.8904       -41.9508      -4.319767      0.9518874
      9643.5000        1260.07         0.6177         0.8843       -42.5585      -4.940014      0.9428983
      9644.0000       1331.274         0.6176         0.8723       -42.5634       -4.95747      0.9426454
      9644.5000        1349.95         0.6174         0.8522        -42.805      -5.211624       0.938962
      9645.0000       1327.145         0.6173         0.8245        -43.176      -5.595173      0.9334033
      9645.5000       1290.129         0.6171         0.8051       -43.1828      -5.614529      0.9331228
      9646.0000       1278.176          0.617         0.7885        -43.188      -5.632278      0.9328655
      9646.5000         1284.2         0.6469         0.7807       -43.1947      -5.651531      0.9325865
      9647.0000       1294.641         0.6467         0.7645          -43.2      -5.669388      0.9323277
      9647.5000       1332.163         0.6766         0.7645       -43.2065      -5.688438      0.9320516
      9648.0000       1375.642         0.7065         0.7704        -43.212      -5.706493      0.9317899
      9648.5000       1428.031         0.7063         0.7763       -43.2184      -5.725445      0.9315153
      9649.0000       1463.605         0.7362         0.7822        -43.224      -5.743595      0.9312522
      9649.5000       1487.971         0.7361         0.7821         -43.23       -5.76215      0.9309834
      9650.0000       1490.876         0.7359         0.7641        -43.236      -5.780701      0.9307145
      9650.5000        1451.04         0.7658         0.7104        -43.242      -5.799255      0.9304456
      9651.0000       1386.269         0.7656         0.7043       -43.2492      -5.819008      0.9301593
      9651.5000       1361.221         0.7655         0.7162        -43.254      -5.836361      0.9299078
      9652.0000       1332.436         0.7954         0.7542       -42.6604      -5.255314      0.9383288
      9652.5000       1313.642         0.7979         0.8057       -42.6655      -5.272968      0.9380729
      9653.0000       1302.551         0.8251         0.8246       -42.4723      -5.092319       0.940691
      9653.5000        1309.72          0.825         0.8294       -42.0769      -4.709473      0.9462395
      9654.0000       1344.531         0.8248         0.8294       -42.0835      -4.728622       0.945962
      9654.5000       1381.938         0.8247         0.8293       -41.1068      -3.764477      0.9599351
      9655.0000       1410.458         0.8381         0.8215       -40.8937      -3.563931      0.9628416
      9655.5000       1406.988         0.8544         0.8053       -40.8997      -3.582481      0.9625728
      9656.0000       1362.613         0.8542         0.7852       -40.3054      -3.000736      0.9710038
      9656.5000       1320.577         0.8541         0.7813       -40.3111       -3.01899      0.9707393
      9657.0000       1272.852         0.8539         0.7753       -40.3172       -3.03764       0.970469
      9657.5000       1234.593         0.8538         0.7812       -40.3231      -3.056095      0.9702015
      9658.0000       1213.031         0.8837         0.8019       -39.7285      -2.474045       0.978637
      9658.5000         1198.4         0.8835         0.8351       -39.7345      -2.492599      0.9783681
      9659.0000        1183.15         0.8912         0.8944       -39.7405      -2.511154      0.9780992
      9659.5000       1171.198         0.9132         0.9256       -39.7465      -2.529701      0.9778304
      9660.0000       1159.139         0.9431         0.9719       -39.7525      -2.548256      0.9775615
      9660.5000       1141.329          0.943         0.9778       -39.7593      -2.567612       0.977281
      9661.0000       1128.548         0.9428         0.9718       -39.7646      -2.585461      0.9770223
      9661.5000       1099.472         0.9427         0.9646       -39.7711      -2.604515      0.9767461
      9662.0000       1086.784         0.9425         0.9478       -39.7766      -2.622566      0.9764845
      9662.5000       1069.592         0.9424         0.9298        -39.783      -2.641521      0.9762098
      9663.0000       1130.736         0.9422         0.9238       -40.1989      -3.069973      0.9700004
      9663.5000       1207.375         0.9421         0.9178       -40.3954      -3.279026      0.9669706
      9664.0000       1219.375         0.9312         0.8819       -41.2618      -4.157978      0.9542322
      9664.5000       1195.459          0.904         0.8498       -42.2091      -5.117832      0.9403213
      9665.0000       1169.911         0.8815          0.834       -42.8168      -5.738083      0.9313321
      9665.5000       1153.602         0.8814          0.828       -42.8216       -5.75544      0.9310806
      9666.0000       1139.736         0.8813         0.8518       -42.8286       -5.77499      0.9307972
      9666.5000       1123.721         0.8811         0.8904       -42.8336      -5.792542      0.9305429
      9667.0000       1109.561          0.881         0.9115       -42.8405      -5.803463      0.9303846
      9667.5000        1093.84         0.8808         0.9233       -42.8456      -5.808563      0.9303107
