#------------------------------------------------------------------------------
# Created by    : vladimir.rabinovich
# Created on    : 09/19/2023 17:19:41
#------------------------------------------------------------------------------
~Version Information Section
VERS.           2.0     :   CWLS log ASCII Standard - VERSION 2.0
WRAP.           NO      :   One line per depth step
~Well Information Section
#MNEM       .UNIT                                         VALUE :DESCRIPTION
#------------------------------------------------------------------------------
STRT        .FT                                            1000 :START DEPTH
STOP        .FT                                         10019.5 :STOP DEPTH
STEP        .FT                                             0.5 :STEP      
NULL        .                                           -999.25 :NULL      
COMP        .                                UNION PRODUCING CO :COMPANY   
WELL        .                                            BARROW :WELL      
FLD         .                                           WILDCAT :FIELD     
LOC         .                                                   :LOCATION  
CNTY        .                                          CHAMBERS :LOCATION  
STAT        .                                             TEXAS :STATE     
CTRY        .                                     UNITED STATES :COUNTRY   
SRVC        .                                                   :SERVICE COMPANY
DATE        .                             9/13/2023 11:19:11 AM :LOG DATE  
API         .                                    42071025090000 :API NUMBER
UWI         .                                    42071025090000 :UNIQUE WELL ID
XCOORD      .                                  1126276.26743497 :SURFACE X 
YCOORD      .                                  10763240.3077352 :SURFACE Y 
LAT         .                                        29.6474899 :LATITUDE  
LON         .                                       -94.6189869 :LONGITUDE 
ELEV        .FT                                              18 :ELEVATION VALUE
ELEV_TYPE   .                                                DF :ELEVATION REFERENCE TYPE
~Curve Information Section
#MNEM       .UNIT                                      API CODE :CURVE DESCRIPTION
#------------------------------------------------------------------------------
DEPT        .FT                                                 :DEPTH     
AM64        .OHMM                                               :          
AO18        .OHMM                                               :          
SN16        .OHMM                                               :          
SP          .MV                                                 :          
SP_NORM     .MV                                                 :SP Normalized
VSH_SP      .V/V                                                :Volume of Shale from SP
~A        DEPTH           AM64           AO18           SN16             SP        SP_NORM         VSH_SP
# ...
      8790.0000         0.7105         0.4879         0.7167       -62.5466      -10.16023      0.8979971
      8790.5000         0.7108         0.5441          0.801       -54.3242      -1.945869              1
      8791.0000         0.6418         0.5446         0.8788       -52.4355    -0.06521225              1
      8791.5000          0.491         0.5453         0.8898       -50.4902       1.872047              1
      8792.0000         0.4236         0.6014         0.9027       -50.6004       1.753807              1
      8792.5000         0.2712          0.602         0.9119       -53.2215     -0.8753357              1
      8793.0000         0.2714         0.6026         0.9246       -57.1108      -4.772678      0.9653415
      8793.5000         0.2717         0.6032         0.9674       -72.3661      -20.03601      0.7745498
      8794.0000          0.272         0.6039         1.1269       -83.3038      -30.98176       0.637728
      8794.5000         0.2723         0.6044         1.2228        -92.605        -40.291      0.5213625
      8795.0000         0.2725         0.5495         1.2339       -97.4738      -45.16784       0.460402
      8795.5000         0.2728         0.4944         1.2005      -126.5217      -74.22378     0.09720278
      8796.0000         0.2731         0.4395         1.1514      -128.1613      -75.87142     0.07660723
      8796.5000         0.3285         0.3845         1.0559      -128.7062      -76.42437     0.06969538
      8797.0000         0.3287         0.3296         1.0323      -126.9453       -74.6715     0.09160624
      8797.5000          0.329         0.2745         0.9892      -124.3247      -72.05894      0.1242632
      8798.0000         0.3319         0.2752         0.9665      -110.8559      -58.59819      0.2925227
      8798.5000         0.3847         0.2758         0.9113      -100.7946      -48.54493      0.4181884
      8799.0000           0.44         0.2764         0.8648       -88.8924      -36.65077      0.5668654
      8799.5000         0.4403         0.4123         0.6889       -75.6231      -23.38951      0.7326311
      8800.0000         0.4956         0.6109         0.6667       -67.2394      -15.01385      0.8373269
      8800.5000          0.551         0.6363         0.6848       -63.0352      -10.81769      0.8897789
      8801.0000         0.4949         0.6662         0.7666        -65.862      -13.65253      0.8543434
      8801.5000         0.4941         0.6659         0.8483       -74.5203      -22.31887      0.7460141
      8802.0000         0.4932         0.6101         0.8664       -77.2542      -25.06081      0.7117398
      8802.5000         0.4924         0.6098         0.8664       -73.4218      -21.23645      0.7595444
      8803.0000         0.4916         0.6095         0.8552       -69.0432      -16.86589      0.8141764
      8803.5000         0.4908         0.6649         0.8441       -67.6826      -15.51334      0.8310833
      8804.0000         0.4899         0.6646         0.8551       -66.8505      -14.68928      0.8413841
      8804.5000         0.5231         0.6653         0.8783       -66.3012      -14.14802      0.8481498
      8805.0000         0.5434         0.7196         0.9217       -63.5635      -11.41836      0.8822705
      8805.5000         0.5977         0.7193         0.9104       -53.1667      -1.029594              1
      8806.0000         0.5968          0.719          0.872       -54.2584      -2.129337      0.9983833
      8806.5000         0.6024         0.7187         0.8326       -54.8037      -2.682678      0.9914665
      8807.0000         0.6503         0.7185         0.8214       -54.8011      -2.688122      0.9913985
      8807.5000         0.6524         0.7181         0.8436       -54.5776       -2.47266      0.9940917
      8808.0000         0.7037         0.7179         0.8689       -52.6084     -0.5115013              1
      8808.5000          0.758         0.7176         0.8879       -51.0905      0.9983559              1
      8809.0000         0.7827         0.7173         0.9011       -49.3215       2.759315              1
      8809.5000         0.8114          0.743         0.9323       -48.2255       3.847279              1
      8810.0000         0.8106         0.8279         0.9911       -50.9585       1.106236              1
      8810.5000         0.8649         0.8476         1.0988       -52.9768      -0.920105              1
      8811.0000         0.8641         0.8829         1.1769       -56.9725      -4.923847      0.9634519
      8811.5000         0.8632         0.9382         1.2594       -59.1592      -7.118587      0.9360176
      8812.0000         0.8624         0.9935         1.2764       -59.1566      -7.124031      0.9359496
      8812.5000         0.8615         0.9376         1.2223       -58.9873      -6.962772      0.9379653
      8813.0000         0.8608         0.8817         1.0763       -56.9639      -4.947411      0.9631574
      8813.5000         0.8047         0.7688         1.0429       -56.4148      -4.406349      0.9699206
      8814.0000         0.7952          0.659         1.0429       -56.4125       -4.41209      0.9698489
      8814.5000          0.748         0.5476         1.0428       -57.1038      -5.111435      0.9611071
      8815.0000         0.6922         0.4918         1.0317       -58.0496      -6.065273      0.9491841
      8815.5000         0.6912         0.4915         1.0316       -58.0476      -6.071316      0.9491085
      8816.0000         0.6354         0.4912         1.0315       -58.0453      -6.077057      0.9490368
      8816.5000         0.6346         0.5465         1.0315       -57.4963      -5.536098      0.9557987
      8817.0000         0.6338         0.5462         1.0158       -57.4939      -5.541737      0.9557283
      8817.5000          0.633         0.6015         0.9092       -59.2475      -7.303379      0.9337078
      8818.0000         0.6321         0.6389         0.8313       -60.7723       -8.83622      0.9145473
      8818.5000         0.6421         0.6566         0.8757       -60.7704      -8.842361      0.9144705
      8819.0000         0.6856         0.6562         0.9265       -58.0325      -6.112503      0.9485937
      8819.5000         0.6848         0.7116         0.9645        -54.655      -2.743042       0.990712
      8820.0000         0.6839         0.7112         0.9756       -53.0699      -1.165985              1
      8820.5000         0.7383          0.711         0.9755       -53.0699      -1.174026              1
      8821.0000         0.7374         0.7107          0.952       -53.0699      -1.182064              1
      8821.5000         0.7366         0.7104         0.9198       -53.0699      -1.190105              1
      8822.0000         0.7908         0.7101         0.8976       -53.0699      -1.198147              1
      8822.5000           0.79         0.6543         0.8975       -52.5228     -0.6590881              1
      8823.0000          0.789          0.654         0.8974       -52.5228     -0.6671295              1
      8823.5000         0.7883         0.6537         0.9017       -52.5228     -0.6829338              1
      8824.0000         0.7323         0.6535         0.9084       -52.5228     -0.7057571              1
      8824.5000         0.7316         0.6532          0.926       -52.5228     -0.7285767              1
      8825.0000         0.6894         0.6602         0.9861       -52.5228        -0.7514              1
      8825.5000         0.6748         0.7082         1.0884       -55.4162      -3.667622      0.9791547
      8826.0000         0.6189         0.7635         1.1415       -77.5637      -25.83794      0.7020257
      8826.5000          0.563         0.8188         1.1898       -99.0274      -47.32447      0.4334442
      8827.0000         0.5412         0.8185         1.2414      -101.4394      -49.75929      0.4030088
      8827.5000         0.5062         0.7634         1.2279      -102.8571      -51.19982      0.3850023
