#------------------------------------------------------------------------------
# Created by    : vladimir.rabinovich
# Created on    : 09/19/2023 17:22:53
#------------------------------------------------------------------------------
~Version Information Section
VERS.           2.0     :   CWLS log ASCII Standard - VERSION 2.0
WRAP.           NO      :   One line per depth step
~Well Information Section
#MNEM       .UNIT                                         VALUE :DESCRIPTION
#------------------------------------------------------------------------------
STRT        .FT                                            1498 :START DEPTH
STOP        .FT                                           11000 :STOP DEPTH
STEP        .FT                                             0.5 :STEP      
NULL        .                                           -999.25 :NULL      
COMP        .                                     CANNAN MORRIS :COMPANY   
WELL        .                                             GARTH :WELL      
FLD         .                                           WILDCAT :FIELD     
LOC         .                                                   :LOCATION  
CNTY        .                                          CHAMBERS :LOCATION  
STAT        .                                             TEXAS :STATE     
CTRY        .                                     UNITED STATES :COUNTRY   
SRVC        .                                                   :SERVICE COMPANY
DATE        .                             9/13/2023 11:19:11 AM :LOG DATE  
API         .                                    42071310360000 :API NUMBER
UWI         .                                    42071310360000 :UNIQUE WELL ID
XCOORD      .                                  1175356.83007784 :SURFACE X 
YCOORD      .                                  10818692.0839896 :SURFACE Y 
LAT         .                                        29.8017803 :LATITUDE  
LON         .                                       -94.4666967 :LONGITUDE 
ELEV        .FT                                              25 :ELEVATION VALUE
ELEV_TYPE   .                                                GL :ELEVATION REFERENCE TYPE
~Curve Information Section
#MNEM       .UNIT                                      API CODE :CURVE DESCRIPTION
#------------------------------------------------------------------------------
DEPT        .FT                                                 :DEPTH     
ILD         .OHMM                                               :          
SFL         .OHMM                                               :          
SP          .MV                                                 :          
SP_NORM     .MV                                                 :SP Normalized
VSH_SP      .V/V                                                :Volume of Shale from SP
~A        DEPTH            ILD            SFL             SP        SP_NORM         VSH_SP
      1498.0000         0.0914         1.2498         3.6602       28.35156              1
      1498.5000         0.1335         1.2783         -23.53       1.161358              1
      1499.0000         0.1887          1.344        -31.191      -6.499641      0.8900072
      1499.5000         0.3332         1.4429       -34.1542      -9.462843      0.8307431
      1500.0000         0.6792         1.6675       -40.6666      -15.97524      0.7004952
      1500.5000         0.8011         2.2315       -57.1675      -32.47614      0.3704771
      1501.0000         0.8967         2.6443        -58.684      -33.99264      0.3401473
      1501.5000         0.9544         3.2324       -60.8331      -36.14174      0.2971652
      1502.0000         1.0347         3.2664       -61.7928      -37.10144      0.2779712
      1502.5000          1.159         3.3026       -63.5413      -38.84995      0.2430011
      1503.0000         1.3896         3.3208       -66.1371      -41.44574      0.1910852
      1503.5000         1.5914         3.2698        -66.823      -42.13164      0.1773673
      1504.0000         1.6366         3.2033       -67.5088      -42.81744      0.1636513
      1504.5000         1.5943         3.1534       -68.1947      -43.50334      0.1499332
      1505.0000          1.552         3.0965       -68.7383      -44.04694      0.1390613
      1505.5000         1.5097         3.0395        -69.198      -44.50664      0.1298673
      1506.0000         1.4927         2.9751       -69.6354      -44.94404      0.1211192
      1506.5000         1.4849         2.9087       -70.0728      -45.38144      0.1123712
      1507.0000         1.5029         2.8438       -70.4596      -45.76824      0.1046352
      1507.5000         1.5271         2.7835       -70.7195      -46.02814     0.09943726
      1508.0000         1.5467         2.7291       -70.9792      -46.28784     0.09424316
      1508.5000         1.5392         2.6888       -71.2393      -46.54794     0.08904114
      1509.0000         1.5318         2.6656       -71.4625      -46.77114     0.08457718
      1509.5000         1.5106         2.6738       -71.6681      -46.97674     0.08046524
      1510.0000         1.4818          2.682       -71.8701      -47.17874     0.07642517
      1510.5000         1.4531         2.6885       -71.7776      -47.08624     0.07827514
      1511.0000         1.4244          2.691       -71.5717      -46.88034     0.08239319
      1511.5000         1.4054         2.6812       -71.1052      -46.41384     0.09172317
      1512.0000         1.3935         2.6339       -70.4141      -45.72274      0.1055452
      1512.5000         1.3817         2.5753       -68.9595      -44.26814      0.1346371
      1513.0000         1.3698         2.5071       -65.2301      -40.53874      0.2092252
      1513.5000         1.3579         2.4118       -62.0922      -37.40084      0.2719832
      1514.0000         1.3508         2.2394       -60.2808      -35.58944      0.3082112
      1514.5000          1.345         1.9075       -57.8203      -33.12894      0.3574211
      1515.0000         1.3393          1.797       -58.0238      -33.33244      0.3533511
      1515.5000         1.3335         1.7338       -59.6884      -34.99704      0.3200592
      1516.0000         1.3485         1.6901       -60.9793      -36.28794      0.2942412
      1516.5000         1.3662         1.6866       -61.9733      -37.28194      0.2743611
      1517.0000         1.3885         1.6999       -62.8295      -38.13814      0.2572373
      1517.5000         1.4108         1.7133       -63.2452      -38.55384      0.2489232
      1518.0000          1.433         1.7197       -63.6569      -38.96554      0.2406892
      1518.5000         1.4499          1.722       -64.0685      -39.37714      0.2324573
      1519.0000         1.4632         1.7033       -63.2256      -38.53424      0.2493152
      1519.5000         1.4764         1.6653       -62.2743      -37.58294      0.2683412
      1520.0000         1.4896           1.63       -60.6572      -35.96584      0.3006831
      1520.5000         1.4968         1.6201       -59.0447      -34.35334      0.3329332
      1521.0000         1.4995         1.6446       -57.4011      -32.70974      0.3658052
      1521.5000         1.5023          1.669       -54.6696      -29.97824      0.4204351
      1522.0000         1.5033         1.6935        -51.731      -27.03964      0.4792072
      1522.5000         1.4928         1.6708       -42.9039      -18.21254      0.6557491
      1523.0000         1.4823         1.6168       -39.2505      -14.55914      0.7288172
      1523.5000         1.4673         1.5385       -36.8231      -12.13174      0.7773651
      1524.0000         1.4386         1.4711       -35.4749      -10.78354      0.8043292
      1524.5000         1.4098         1.4308       -34.5858      -9.894442      0.8221112
      1525.0000         1.3823         1.4018       -35.1702      -10.47884      0.8104231
      1525.5000         1.3559         1.3647       -35.9109      -11.21954      0.7956092
      1526.0000         1.3295         1.3273       -36.4793      -11.78794      0.7842411
      1526.5000         1.3031         1.2932       -36.8911      -12.19974      0.7760051
      1527.0000         1.2767         1.2694       -37.2628      -12.57144      0.7685712
      1527.5000         1.2504         1.2456       -37.3997      -12.70834      0.7658331
      1528.0000         1.2273         1.2218       -37.5365      -12.84514      0.7630972
      1528.5000         1.2104          1.198       -37.5798      -12.88844      0.7622312
      1529.0000         1.1934         1.1754       -37.6085      -12.91714      0.7616571
      1529.5000         1.2324         1.1914       -38.0939      -13.40254      0.7519492
      1530.0000         1.2815         1.2487       -42.2762      -17.58484      0.6683032
      1530.5000         1.3297         1.3641       -44.2222      -19.53084      0.6293832
      1531.0000         1.3771         1.5159       -45.0963      -20.40494      0.6119012
      1531.5000         1.4245         1.6142       -45.7081      -21.01674      0.5996652
      1532.0000         1.4598         1.6619       -45.7094      -21.01804      0.5996392
      1532.5000         1.4852         1.6924       -45.1567      -20.46534      0.6106932
      1533.0000         1.4992         1.6881       -45.0273      -20.33594      0.6132811
      1533.5000         1.5071         1.6672       -46.5497      -21.85834      0.5828331
      1534.0000         1.5149         1.6359       -48.0625      -23.37114      0.5525772
      1534.5000         1.4888         1.6136       -51.1854      -26.49404      0.4901192
      1535.0000         1.4615         1.6899       -53.7078      -29.01644      0.4396711
      1535.5000         1.4285         1.7834       -58.5154      -33.82404      0.3435191
      1536.0000         1.3789         1.9446       -64.9965      -40.30514      0.2138972
      1536.5000         1.3294         2.0768       -67.1536      -42.46224      0.1707552
      1537.0000         1.2707         2.1325       -73.1394      -48.44804     0.05103927
      1537.5000         1.2086         2.1727       -74.1179      -49.42654     0.03146927
      1538.0000          1.155          2.198       -74.9407      -50.24934     0.01501327
      1538.5000         1.1075         2.2211       -75.4447      -50.75334    0.004933166
      1539.0000         1.0601         2.2154       -75.9401      -51.24874              0
      1539.5000          1.041         2.2012       -76.4547      -51.76334              0
      1540.0000         1.0266         2.1878       -76.9132      -52.22184              0
      1540.5000         1.0122         2.1848       -76.8529      -52.16154              0
      1541.0000         1.0072         2.1818       -76.1349      -51.44354              0
      1541.5000         1.0168         2.1744       -75.5338      -50.84244    0.003151245
