#------------------------------------------------------------------------------
# Created by    : vladimir.rabinovich
# Created on    : 09/19/2023 17:22:55
#------------------------------------------------------------------------------
~Version Information Section
VERS.           2.0     :   CWLS log ASCII Standard - VERSION 2.0
WRAP.           NO      :   One line per depth step
~Well Information Section
#MNEM       .UNIT                                         VALUE :DESCRIPTION
#------------------------------------------------------------------------------
STRT        .FT                                            1527 :START DEPTH
STOP        .FT                                            8498 :STOP DEPTH
STEP        .FT                                             0.5 :STEP      
NULL        .                                           -999.25 :NULL      
COMP        .                           SAN JUAN EXPLORATION CO :COMPANY   
WELL        .                                MIDDLETON ETAL R M :WELL      
FLD         .                                           WILDCAT :FIELD     
LOC         .                                                   :LOCATION  
CNTY        .                                          CHAMBERS :LOCATION  
STAT        .                                             TEXAS :STATE     
CTRY        .                                     UNITED STATES :COUNTRY   
SRVC        .                                                   :SERVICE COMPANY
DATE        .                             9/13/2023 11:19:11 AM :LOG DATE  
API         .                                    42071022810000 :API NUMBER
UWI         .                                    42071022810000 :UNIQUE WELL ID
XCOORD      .                                  1136491.54221464 :SURFACE X 
YCOORD      .                                  10781024.2027564 :SURFACE Y 
LAT         .                                        29.6967824 :LATITUDE  
LON         .                                       -94.5875983 :LONGITUDE 
ELEV        .FT                                              24 :ELEVATION VALUE
ELEV_TYPE   .                                                DF :ELEVATION REFERENCE TYPE
~Curve Information Section
#MNEM       .UNIT                                      API CODE :CURVE DESCRIPTION
#------------------------------------------------------------------------------
DEPT        .FT                                                 :DEPTH     
LAT         .OHMM                                               :          
LN          .OHMM                                               :          
SN          .OHMM                                               :          
SP          .MV                                                 :          
SP_NORM     .MV                                                 :SP Normalized
VSH_SP      .V/V                                                :Volume of Shale from SP
~A        DEPTH            LAT             LN             SN             SP        SP_NORM         VSH_SP
# ...
      6581.0000         0.7231         0.5064         0.7854        -63.569       5.566803              1
      6581.5000         0.6662         0.4982         0.8023       -62.8347       6.301102              1
      6582.0000         0.6093         0.4899         0.8054       -63.1076       6.028202              1
      6582.5000         0.5523         0.4817         0.8085       -65.7762       3.359604              1
      6583.0000         0.6056         0.4734         0.8115       -69.3436     -0.2077942              1
      6583.5000         0.5679         0.4622         0.8129        -71.415      -2.279198      0.9827135
      6584.0000         0.5295         0.4464         0.7902       -73.6166      -4.480797      0.9529622
      6584.5000          0.491         0.4307         0.7675       -76.4922        -7.3564      0.9141027
      6585.0000         0.4526         0.4149         0.7448       -78.4814      -9.345596      0.8872217
      6585.5000         0.4141         0.4058         0.7221       -79.4553       -10.3195      0.8740609
      6586.0000         0.4219         0.4196         0.6994       -80.2236       -11.0878      0.8636784
      6586.5000         0.4267         0.4374         0.6767         -78.04      -8.904198      0.8931865
      6587.0000         0.4288          0.461          0.654       -74.1737      -5.037895      0.9454339
      6587.5000          0.431         0.4845          0.632       -74.9196      -5.783798      0.9353541
      6588.0000         0.4169         0.5081         0.6104        -83.115      -13.97919      0.8246055
      6588.5000         0.3903         0.5317         0.5888       -96.2078        -27.072      0.6476757
      6589.0000         0.3636         0.5181         0.5673      -111.2506       -42.1148      0.4443946
      6589.5000         0.3369         0.4765         0.5457      -141.6597       -72.5239     0.03346087
      6590.0000         0.3102         0.4349         0.5241      -147.0737       -77.9379              0
      6590.5000         0.2791         0.3933         0.5025      -149.2102       -80.0744              0
      6591.0000         0.2358         0.3517          0.481       -150.821       -81.6852              0
      6591.5000         0.1926         0.3137         0.4687       -149.864       -80.7282              0
      6592.0000         0.2285         0.2862         0.4627      -148.0264      -78.89059              0
      6592.5000         0.2721         0.2586         0.4567      -146.1887       -77.0529              0
      6593.0000         0.3278         0.2681         0.4507      -139.3682      -70.23239     0.06442714
      6593.5000         0.3836         0.2823         0.4447      -130.3552      -61.21939      0.1862244
      6594.0000         0.4394         0.2965         0.4663      -121.8903      -52.75449       0.300615
      6594.5000         0.4951         0.3108         0.5055       -89.4053      -20.26949      0.7396014
      6595.0000          0.533          0.325         0.5447       -85.8333      -16.69749      0.7878717
      6595.5000         0.5288         0.3392         0.5839       -98.2926       -29.1568      0.6195027
      6596.0000         0.4962         0.3454         0.6249      -106.1285       -36.9927      0.5136122
      6596.5000         0.4378         0.3472         0.6661      -112.0729       -42.9371      0.4332825
      6597.0000         0.3794         0.3489         0.7072      -117.4016       -48.2658       0.361273
      6597.5000         0.3209         0.3507         0.6505      -143.3086      -74.17279     0.01117851
      6598.0000          0.294         0.3525          0.596      -146.7368        -77.601              0
      6598.5000         0.3059         0.3543         0.5414      -150.7717      -81.63589              0
      6599.0000         0.3168         0.3561         0.4869      -155.1299      -85.99409              0
      6599.5000         0.3124         0.3547          0.446      -157.8459       -88.7101              0
      6600.0000          0.308         0.3493         0.4252      -158.9917       -89.8559              0
      6600.5000         0.3037          0.344         0.4044       -159.813       -90.6772              0
      6601.0000         0.2993         0.3386         0.3837      -159.8142      -90.67839              0
      6601.5000         0.2866         0.3333         0.3964      -159.6685       -90.5327              0
      6602.0000         0.2727         0.3279         0.4121      -159.1799       -90.0441              0
      6602.5000         0.2588         0.3293         0.4278      -158.6912      -89.55539              0
      6603.0000         0.2616         0.3433         0.4408      -158.2026       -89.0668              0
      6603.5000         0.2806         0.3573         0.4535      -157.7141      -88.57829              0
      6604.0000         0.2996         0.3713         0.4663      -157.2253      -88.08949              0
      6604.5000          0.315         0.3853         0.4606      -156.3262       -87.1904              0
      6605.0000         0.2968         0.3993         0.4391      -155.2715       -86.1357              0
      6605.5000         0.2786         0.4092         0.4176      -154.2156       -85.0798              0
      6606.0000         0.2604         0.3985         0.3961      -153.1069       -83.9711              0
      6606.5000         0.2422         0.3878         0.3842      -151.8882       -82.7524              0
      6607.0000         0.2499         0.3771         0.4142      -150.6694       -81.5336              0
      6607.5000         0.2787         0.3663         0.4442      -148.7632       -79.6274              0
      6608.0000         0.3076         0.3491         0.4789      -145.3574       -76.2216              0
      6608.5000         0.3365         0.3302         0.5148      -141.9517       -72.8159     0.02951483
      6609.0000         0.3529         0.3113          0.476      -138.5415       -69.4057     0.07559864
      6609.5000         0.3417         0.2924         0.4356      -125.9609       -56.8251      0.2456068
      6610.0000         0.3305         0.2735         0.3952      -117.8846      -48.74879       0.354746
      6610.5000         0.3426          0.267         0.3713      -116.1368        -47.001      0.3783649
      6611.0000         0.3764         0.2671         0.4008      -114.7147       -45.5789      0.3975825
      6611.5000         0.4374         0.2671         0.4297      -113.0479      -43.91209      0.4201068
      6612.0000         0.4983         0.2671         0.4428      -106.2184       -37.0826      0.5123973
      6612.5000         0.5725         0.2803         0.4558      -101.4017       -32.2659      0.5774878
      6613.0000         0.6842         0.2952         0.4689        -82.432       -13.2962      0.8338352
      6613.5000         0.7732         0.3101         0.4651       -79.3206       -10.1848      0.8758811
      6614.0000         0.7984         0.3251         0.4404       -77.0964      -7.960594      0.9059379
      6614.5000         0.7344         0.3393         0.4157       -76.6315      -7.495697      0.9122203
      6615.0000         0.6537         0.3517         0.4245       -89.1807       -20.0449      0.7426365
      6615.5000         0.5619         0.3642         0.4492      -112.2256       -43.0898       0.431219
      6616.0000         0.4701         0.3728         0.4738      -116.1705       -47.0347      0.3779095
      6616.5000         0.3936         0.3478         0.4985      -120.8029       -51.6671      0.3153095
      6617.0000         0.3457         0.3268         0.4767      -126.6888      -57.55299      0.2357704
      6617.5000         0.2977         0.3058         0.4484      -135.5491       -66.4133      0.1160365
      6618.0000         0.2862         0.3059         0.4201      -140.5027       -71.3669     0.04909598
      6618.5000         0.3251          0.324         0.3919      -137.7102       -68.5744      0.0868324
