#------------------------------------------------------------------------------
# Created by    : vladimir.rabinovich
# Created on    : 09/19/2023 17:22:50
#------------------------------------------------------------------------------
~Version Information Section
VERS.           2.0     :   CWLS log ASCII Standard - VERSION 2.0
WRAP.           NO      :   One line per depth step
~Well Information Section
#MNEM       .UNIT                                         VALUE :DESCRIPTION
#------------------------------------------------------------------------------
STRT        .FT                                          1999.5 :START DEPTH
STOP        .FT                                            9645 :STOP DEPTH
STEP        .FT                                             0.5 :STEP      
NULL        .                                           -999.25 :NULL      
COMP        .                          STANDARD OIL CO OF TEXAS :COMPANY   
WELL        .                                  STATE TRACT 1-4D :WELL      
FLD         .                                           WILDCAT :FIELD     
LOC         .                                                   :LOCATION  
CNTY        .                                          CHAMBERS :LOCATION  
STAT        .                                             TEXAS :STATE     
CTRY        .                                     UNITED STATES :COUNTRY   
SRVC        .                                                   :SERVICE COMPANY
DATE        .                             9/13/2023 11:19:11 AM :LOG DATE  
API         .                                    42071032270000 :API NUMBER
UWI         .                                    42071032270000 :UNIQUE WELL ID
XCOORD      .                                  1086986.65859336 :SURFACE X 
YCOORD      .                                  10762945.0682871 :SURFACE Y 
LAT         .                                        29.6451099 :LATITUDE  
LON         .                                       -94.7426468 :LONGITUDE 
ELEV        .FT                                              20 :ELEVATION VALUE
ELEV_TYPE   .                                                DF :ELEVATION REFERENCE TYPE
~Curve Information Section
#MNEM       .UNIT                                      API CODE :CURVE DESCRIPTION
#------------------------------------------------------------------------------
DEPT        .FT                                                 :DEPTH     
DT          .US/F                                               :          
IND         .OHMM                                               :          
SN          .OHMM                                               :          
SP          .MV                                                 :          
SP_NORM     .MV                                                 :SP Normalized
VSH_SP      .V/V                                                :Volume of Shale from SP
~A        DEPTH             DT            IND             SN             SP        SP_NORM         VSH_SP
# ...
      3025.5000       123.7192          0.844         1.2078       -54.1176      -10.08618      0.8772138
      3026.0000       126.1688         0.8121         1.1725       -58.4314      -14.39753      0.8189523
      3026.5000       128.9531         0.7607         1.1725       -65.4902      -21.45387      0.7235963
      3027.0000       129.3915         0.6964         1.1765       -70.1961      -26.15733      0.6600361
      3027.5000       127.9479         0.6544         1.1922        -74.902      -30.86077       0.596476
      3028.0000       126.5559         0.6225         1.2039       -79.6078      -35.56413      0.5329172
      3028.5000       127.0717         0.5691         1.2078       -80.7843      -36.73818      0.5170516
      3029.0000       127.9481         0.5386         1.2039       -81.9608      -37.91222      0.5011862
      3029.5000       127.4841         0.4925         1.1608       -83.1373      -39.08627      0.4853206
      3030.0000       127.5872         0.4774         1.1412       -84.3137      -40.26022      0.4694565
      3030.5000       128.4123         0.4314         1.1216       -85.4902      -41.43427       0.453591
      3031.0000       128.2578         0.4318         1.1059       -86.6667      -42.60833      0.4377253
      3031.5000        128.722         0.4167          1.098       -87.8431      -43.78227      0.4218612
      3032.0000       129.9594         0.4139         1.0863       -89.0196      -44.95632      0.4059957
      3032.5000       132.3051         0.4021         1.0824       -90.5882      -46.52247      0.3848315
      3033.0000       133.9299         0.4027         1.0824       -91.7647      -47.69652      0.3689659
      3033.5000       135.9147         0.4031         1.0745       -92.1569      -48.08627      0.3636991
      3034.0000        137.771         0.4191         1.0667       -91.7647      -47.69162      0.3690322
      3034.5000       137.4103         0.4351         1.0549       -84.7059      -40.63037      0.4644544
      3035.0000       135.9149         0.4666         1.0431       -81.9608      -37.88282      0.5015836
      3035.5000       135.5282         0.4825         1.0353       -79.6078      -35.52737      0.5334139
      3036.0000       136.8691         0.5295         1.0235       -76.8627      -32.77982      0.5705431
      3036.5000       137.2299         0.5919         1.0235       -73.7255      -29.64017      0.6129707
      3037.0000       136.3279         0.6414         1.0196       -70.5882      -26.50042      0.6553997
      3037.5000       135.1421         0.6911         1.0314       -66.6667      -22.57647      0.7084261
      3038.0000       133.2858         0.7523         1.0431       -62.7451      -18.65241      0.7614539
      3038.5000       130.8884         0.7851         1.0784       -59.2024      -15.10726      0.8093613
      3039.0000       130.2182         0.7958         1.1098       -57.2068      -13.10921       0.836362
      3039.5000       129.8058         0.8038         1.1098        -53.209      -9.108959      0.8904195
      3040.0000        129.677         0.7967         1.1059       -51.2025       -7.10001      0.9175674
      3040.5000       130.5797         0.7973          1.098       -51.2063       -7.10136      0.9175492
      3041.0000       132.2808         0.7822         1.0902       -54.4092      -10.30181      0.8742999
      3041.5000       131.4044         0.7671         1.0941        -58.803      -14.69316      0.8149573
      3042.0000       132.2032         0.7521         1.1137       -65.1176      -21.00531       0.729658
      3042.5000       133.9825          0.721         1.1333       -69.4565      -25.34175      0.6710573
      3043.0000       132.3585          0.691         1.1529       -73.8034       -29.6862      0.6123486
      3043.5000       132.3844         0.6727         1.1686       -74.2119      -30.09225      0.6068614
      3044.0000        133.132         0.6409         1.1451         -69.88       -25.7579      0.6654337
      3044.5000        132.926         0.6148         1.1059       -61.5826      -17.45805      0.7775939
      3045.0000       131.4307         0.5998         1.0863       -61.9801       -17.8531      0.7722554
      3045.5000       131.2761         0.5848         1.0863       -65.1533      -21.02385      0.7294074
      3046.0000       132.0496         0.6008         1.0863       -71.1099        -26.978      0.6489459
      3046.5000        133.776         0.6168         1.0941       -74.2981      -30.16376      0.6058952
      3047.0000        135.994         0.6327         1.0941        -73.915       -29.7782      0.6111054
      3047.5000       138.6233         0.6642         1.0824       -67.5618      -23.42255      0.6969926
      3048.0000       138.8299         0.6801         1.0549       -60.7968       -16.6551      0.7884446
      3048.5000       138.5464         0.7139         1.0275       -57.2456      -13.10145      0.8364668
      3049.0000       140.1959          0.761         1.0235       -50.9602      -6.813599      0.9214379
      3049.5000       143.9599          0.817         1.0275       -44.2967     -0.1476479              1
      3050.0000       144.7338         0.9249          1.149       -41.9599       2.191601              1
      3050.5000       141.8723          1.012         1.2118       -43.5294      0.6245537              1
      3051.0000       134.8087         1.0784         1.2431       -45.4902      -1.333797      0.9954892
      3051.5000       130.5534         1.1331         1.2863        -47.451      -3.292145      0.9690251
      3052.0000        128.444         1.1335          1.302       -49.4118      -5.250496      0.9425609
      3052.5000       127.0235         1.1029         1.3137       -51.3725      -7.208744      0.9160981
      3053.0000        127.204         1.0724         1.3176       -52.9412      -8.774994      0.8949325
      3053.5000       127.4876         1.0263         1.3176        -54.902      -10.73335      0.8684683
      3054.0000       126.0956         0.9794         1.2863       -56.8627      -12.69159      0.8420055
      3054.5000       122.8229         0.9324         1.2627       -58.8235      -14.64994      0.8155413
      3055.0000       118.8258          0.882         1.2392       -57.2549      -13.07889      0.8367717
      3055.5000       118.1812         0.8376         1.2078       -55.6863      -11.50784      0.8580022
      3056.0000       120.7086          0.827         1.1843       -54.1176      -9.936691      0.8792339
      3056.5000       124.9358          0.812         1.1686        -52.549      -8.365639      0.9004644
      3057.0000       131.3796          0.804         1.1529       -51.7647      -7.578892       0.911096
      3057.5000       138.4181         0.7974         1.1451       -49.8039      -5.615639      0.9376265
      3058.0000       141.8734          0.798         1.1412       -48.2353      -4.044586      0.9588569
      3058.5000       143.0336         0.7984         1.1373       -46.6667      -2.473534      0.9800874
      3059.0000       143.1368         0.7989         1.1333        -45.098     -0.9023857              1
      3059.5000       143.2657         0.8148         1.1294       -43.1373       1.060764              1
      3060.0000       143.6266         0.8308         1.1216       -43.5294      0.6711159              1
      3060.5000       145.3286         0.8312         1.1216       -45.4902      -1.287235      0.9961184
      3061.0000       146.8236         0.8317         1.1176       -47.8431      -3.637684      0.9643556
      3061.5000        147.597         0.8477         1.1098       -50.1961      -5.988232      0.9325914
      3062.0000       148.5249         0.8636         1.1098       -51.3725      -7.162182      0.9167272
      3062.5000       150.6134         0.8873         1.1098       -48.6275       -4.41473       0.953855
      3063.0000       151.4643         0.8956         1.1176       -45.8824      -1.667183       0.990984
