#------------------------------------------------------------------------------
# Created by    : vladimir.rabinovich
# Created on    : 09/19/2023 17:19:41
#------------------------------------------------------------------------------
~Version Information Section
VERS.           2.0     :   CWLS log ASCII Standard - VERSION 2.0
WRAP.           NO      :   One line per depth step
~Well Information Section
#MNEM       .UNIT                                         VALUE :DESCRIPTION
#------------------------------------------------------------------------------
STRT        .FT                                            1000 :START DEPTH
STOP        .FT                                         10019.5 :STOP DEPTH
STEP        .FT                                             0.5 :STEP      
NULL        .                                           -999.25 :NULL      
COMP        .                                UNION PRODUCING CO :COMPANY   
WELL        .                                            BARROW :WELL      
FLD         .                                           WILDCAT :FIELD     
LOC         .                                                   :LOCATION  
CNTY        .                                          CHAMBERS :LOCATION  
STAT        .                                             TEXAS :STATE     
CTRY        .                                     UNITED STATES :COUNTRY   
SRVC        .                                                   :SERVICE COMPANY
DATE        .                             9/13/2023 11:19:11 AM :LOG DATE  
API         .                                    42071025090000 :API NUMBER
UWI         .                                    42071025090000 :UNIQUE WELL ID
XCOORD      .                                  1126276.26743497 :SURFACE X 
YCOORD      .                                  10763240.3077352 :SURFACE Y 
LAT         .                                        29.6474899 :LATITUDE  
LON         .                                       -94.6189869 :LONGITUDE 
ELEV        .FT                                              18 :ELEVATION VALUE
ELEV_TYPE   .                                                DF :ELEVATION REFERENCE TYPE
~Curve Information Section
#MNEM       .UNIT                                      API CODE :CURVE DESCRIPTION
#------------------------------------------------------------------------------
DEPT        .FT                                                 :DEPTH     
AM64        .OHMM                                               :          
AO18        .OHMM                                               :          
SN16        .OHMM                                               :          
SP          .MV                                                 :          
SP_NORM     .MV                                                 :SP Normalized
VSH_SP      .V/V                                                :Volume of Shale from SP
~A        DEPTH           AM64           AO18           SN16             SP        SP_NORM         VSH_SP
# ...
      1608.0000         1.1482         1.2595         1.5444       -61.8719      -20.06189      0.4848137
      1608.5000         1.1477         1.3834         1.5333       -57.2858      -15.47866      0.6086847
      1609.0000         1.1471         1.4795         1.5444       -52.0294      -10.22513      0.7506722
      1609.5000         1.1465         1.6017         1.5556       -49.8283      -8.026897      0.8100839
      1610.0000          1.146         1.6995         1.5778       -49.0237      -7.225166      0.8317522
      1610.5000         1.0903         1.7542            1.7       -48.7544      -6.958729      0.8389533
      1611.0000         1.0898         1.8085         1.7222       -48.7571      -6.964298      0.8388028
      1611.5000         1.0341         1.8074         1.7333       -48.7599      -6.969967      0.8386496
      1612.0000         1.0336         1.8062         1.7333       -49.3096      -7.522533      0.8237153
      1612.5000         0.9779         1.6314         1.7222       -49.8596      -8.075401      0.8087729
      1613.0000         0.9774         1.4706         1.7169       -50.4093      -8.627972      0.7938386
      1613.5000         0.9768         1.4087         1.6889       -50.9593      -9.180836      0.7788963
      1614.0000         0.9212         1.3017         1.6013       -50.9618      -9.186203      0.7787513
      1614.5000         0.9207         1.2452         1.4444       -50.4177      -8.644974      0.7933791
      1615.0000         0.9201         1.2439         1.3844       -50.4201      -8.650238      0.7932368
      1615.5000         0.9196         1.2986         1.3667       -49.3289      -7.561905      0.8226512
      1616.0000          0.919          1.353         1.3667        -48.784      -7.019875      0.8373007
      1616.5000         0.9185         1.4079         1.3667       -48.7873      -7.026039      0.8371341
      1617.0000         0.9179         1.4893         1.3667       -48.2424      -6.484009      0.8517836
      1617.5000         0.9174         1.5164         1.3556       -48.2457      -6.490177      0.8516169
      1618.0000         0.9168          1.571         1.3444        -48.248      -6.495342      0.8514773
      1618.5000         0.9163         1.5697         1.3333       -48.7983      -7.048512      0.8365267
      1619.0000         0.9157         1.5686         1.3058       -49.3476      -7.600677      0.8216033
      1619.5000         0.9152         1.5119         1.2778        -49.898      -8.153942      0.8066502
      1620.0000         0.9697         1.4329         1.2667       -49.3531      -7.611912      0.8212997
      1620.5000         0.9692         1.2875         1.2889       -51.4933      -9.754982      0.7633789
      1621.0000         0.9833         1.1546         1.3387        -61.395      -19.65955       0.495688
      1621.5000         1.0232          1.063            1.4       -64.7547      -23.02211      0.4048077
      1622.0000         1.0226         0.9509         1.4222       -72.3427      -30.61298      0.1996492
      1622.5000         1.0772         0.8941         1.4222       -74.7401      -33.01324      0.1347772
      1623.0000         1.0766         0.8931         1.3982        -76.178      -34.45402     0.09583736
      1623.5000         1.0761         0.8919         1.3444       -76.9065      -35.18539     0.07607063
      1624.0000         1.0755         0.8909         1.2991       -77.2777      -35.55945     0.06596076
      1624.5000         1.0749         0.9452         1.2444       -76.7328      -35.01742     0.08061022
      1625.0000         1.0744         0.9442         1.2333       -74.0005      -32.28799      0.1543786
      1625.5000         1.0738         0.9986         1.2333       -70.8945      -29.18485      0.2382472
      1626.0000         1.0733         1.0202         1.2556       -66.8935      -25.18672      0.3463048
      1626.5000         1.0727          1.052         1.2987       -64.6107      -22.90679      0.4079246
      1627.0000         1.0171         1.1065         1.3444        -63.616      -21.91496      0.4347309
      1627.5000         1.0165         1.1608         1.3711       -63.6187      -21.92052      0.4345805
      1628.0000         0.9609         1.1598         1.3889       -63.6218      -21.92649      0.4344192
      1628.5000         0.9604         1.2697         1.3889       -66.4437      -24.75126      0.3580741
      1629.0000         0.9598         1.3243         1.3778       -69.0984      -27.40882      0.2862481
      1629.5000         0.9593         1.3787         1.3373       -70.1949      -28.50819      0.2565353
      1630.0000         0.9587         1.3776         1.2889       -69.6505      -27.96666      0.2711715
      1630.5000         0.9206         1.3763         1.2178        -68.559      -26.87803      0.3005939
      1631.0000         0.9025         1.3754         1.1444       -68.5617      -26.88359      0.3004434
      1631.5000          0.902         1.3741         1.1058       -68.5645      -26.88926      0.3002903
      1632.0000         0.9014         1.3153         1.0667       -69.8812      -28.20883      0.2646262
      1632.5000         0.9009         1.2052         1.0422       -70.7584       -29.0889      0.2408406
      1633.0000         0.9003         1.1487         1.0222       -70.5686      -28.90197      0.2458928
      1633.5000         0.8998         1.1476         1.0222       -69.1226      -27.45883      0.2848966
      1634.0000         0.8992         1.1465         1.0222       -68.5776       -26.9167      0.2995487
      1634.5000         0.8987         1.1454         1.0222        -69.128      -27.46996      0.2845956
      1635.0000          0.898         1.1443         1.0333       -70.3626      -28.70744      0.2511504
      1635.5000         0.8976         1.1432         1.0453       -71.8691       -30.2168      0.2103566
      1636.0000          0.897         1.1421         1.0778       -72.9657      -31.31627      0.1806415
      1636.5000         0.8965         1.1967         1.1116       -72.9688      -31.32224        0.18048
      1637.0000          0.896         1.2509         1.1667       -71.1639      -29.52021      0.2291836
      1637.5000         0.8954         1.3159            1.2       -68.0503      -26.40947      0.3132576
      1638.0000         0.8949         1.3599          1.244       -64.6588      -23.02084      0.4048423
      1638.5000         0.8943         1.4336         1.3111       -62.5846       -20.9495      0.4608242
      1639.0000         0.8938         1.5366         1.3716       -60.8603      -19.22807      0.5073495
      1639.5000         0.8931         1.5963            1.4       -55.4776      -13.84824      0.6527503
      1640.0000         0.9477         1.7444         1.4111       -53.2887      -11.66221      0.7118322
      1640.5000         0.9471         1.8147         1.3889       -49.2035      -7.579872      0.8221656
      1641.0000         0.9466         1.8533         1.3738       -50.0142       -8.39344      0.8001773
      1641.5000         1.0011         1.9078         1.3444       -53.2192      -11.60131      0.7134781
      1642.0000         1.0006         1.8509         1.3222        -56.585      -14.96997      0.6224331
      1642.5000              1         1.7818         1.3111       -59.5291      -17.91694      0.5427853
      1643.0000         0.9995         1.6265         1.3111       -62.0616      -20.45231      0.4742618
      1643.5000          0.999         1.5035            1.3       -62.2427      -20.63628      0.4692898
      1644.0000         1.0535         1.3465         1.2751       -63.1613      -21.55775      0.4443852
      1644.5000          1.053         1.3363         1.2333       -61.2197      -19.61901      0.4967834
      1645.0000         1.0524         1.2887            1.2        -59.337      -17.73918      0.5475897
      1645.5000         0.9968         1.2322         1.2222       -59.3395      -17.74455      0.5474446
