#------------------------------------------------------------------------------
# Created by    : vladimir.rabinovich
# Created on    : 09/19/2023 17:19:41
#------------------------------------------------------------------------------
~Version Information Section
VERS.           2.0     :   CWLS log ASCII Standard - VERSION 2.0
WRAP.           NO      :   One line per depth step
~Well Information Section
#MNEM       .UNIT                                         VALUE :DESCRIPTION
#------------------------------------------------------------------------------
STRT        .FT                                            1000 :START DEPTH
STOP        .FT                                         10019.5 :STOP DEPTH
STEP        .FT                                             0.5 :STEP      
NULL        .                                           -999.25 :NULL      
COMP        .                                UNION PRODUCING CO :COMPANY   
WELL        .                                            BARROW :WELL      
FLD         .                                           WILDCAT :FIELD     
LOC         .                                                   :LOCATION  
CNTY        .                                          CHAMBERS :LOCATION  
STAT        .                                             TEXAS :STATE     
CTRY        .                                     UNITED STATES :COUNTRY   
SRVC        .                                                   :SERVICE COMPANY
DATE        .                             9/13/2023 11:19:11 AM :LOG DATE  
API         .                                    42071025090000 :API NUMBER
UWI         .                                    42071025090000 :UNIQUE WELL ID
XCOORD      .                                  1126276.26743497 :SURFACE X 
YCOORD      .                                  10763240.3077352 :SURFACE Y 
LAT         .                                        29.6474899 :LATITUDE  
LON         .                                       -94.6189869 :LONGITUDE 
ELEV        .FT                                              18 :ELEVATION VALUE
ELEV_TYPE   .                                                DF :ELEVATION REFERENCE TYPE
~Curve Information Section
#MNEM       .UNIT                                      API CODE :CURVE DESCRIPTION
#------------------------------------------------------------------------------
DEPT        .FT                                                 :DEPTH     
AM64        .OHMM                                               :          
AO18        .OHMM                                               :          
SN16        .OHMM                                               :          
SP          .MV                                                 :          
SP_NORM     .MV                                                 :SP Normalized
VSH_SP      .V/V                                                :Volume of Shale from SP
~A        DEPTH           AM64           AO18           SN16             SP        SP_NORM         VSH_SP
# ...
      6966.0000          0.551         0.5741         0.6738      -104.8584      -45.59914      0.4550107
      6966.5000          0.551         0.5836         0.6444      -125.9174      -66.65814      0.1917732
      6967.0000          0.551         0.6847         0.6222      -141.3562      -82.09694              0
      6967.5000          0.544         0.7956         0.6222      -136.5962      -77.33694     0.05828819
      6968.0000         0.4959         0.8508         0.6364      -108.1522      -48.89294      0.4138382
      6968.5000         0.4959         0.9103         0.6556       -90.9217      -31.66244      0.6292195
      6969.0000         0.4959         0.9614         0.6693        -75.331      -16.07174      0.8241032
      6969.5000         0.4959          1.018         0.6889       -70.9431      -11.68384       0.878952
      6970.0000         0.4959          1.072         0.7444       -69.8648      -10.60554      0.8924307
      6970.5000         0.4959         1.0717         0.8111        -69.853      -10.59374      0.8925782
      6971.0000         0.4959         0.9909         0.8608       -74.1333      -14.87404      0.8390745
      6971.5000         0.4408           0.96         0.9333       -82.4567      -23.19744       0.735032
      6972.0000         0.4408         0.9042         0.9817       -84.1003      -24.84105       0.714487
      6972.5000         0.4408         0.9595         1.0889       -73.7085      -14.44925      0.8443844
      6973.0000         0.4408         1.0342         1.1564        -70.428      -11.16874      0.8853907
      6973.5000         0.4408           1.07         1.0667       -70.9784      -11.71914      0.8785107
      6974.0000         0.4408         1.1253         0.9525       -73.7694      -14.51014      0.8436232
      6974.5000         0.4959         1.0694         0.7333       -83.0204      -23.76114      0.7279857
      6975.0000         0.4959         1.0692         0.6778       -88.0804      -28.82114      0.6647357
      6975.5000         0.4959         0.8467         0.6502       -94.5153      -35.25604      0.5842995
      6976.0000         0.4959         0.7242         0.6333       -99.2206      -39.96134      0.5254833
      6976.5000          0.551         0.6794         0.6333       -96.7093      -37.45004      0.5568745
      6977.0000          0.551         0.7348         0.6222       -76.6615      -17.40224       0.807472
      6977.5000          0.551         0.7344         0.6378        -63.341      -4.081741      0.9739782
      6978.0000          0.551         0.7898         0.6778       -61.1006      -1.841343              1
      6978.5000          0.551         0.9561         0.7778       -60.0634      -0.804142              1
      6979.0000          0.551         1.0142         0.7667       -60.6133      -1.354042              1
      6979.5000         0.6061         1.0111         0.7556       -60.6165      -1.357243              1
      6980.0000         0.6061         0.9553         0.7444       -60.0716     -0.8123436              1
      6980.5000         0.6061         0.8995         0.7444       -58.4595      0.7997589              1
      6981.0000         0.6061         0.8436         0.7444       -57.3416        1.91766              1
      6981.5000         0.6453         0.7878         0.7444        -58.901      0.3582573              1
      6982.0000         0.6612          0.732         0.7556       -66.1009       -6.84164      0.9394795
      6982.5000         0.6612         0.7317         0.8533       -71.2965      -12.03724      0.8745345
      6983.0000         0.6061         0.7314         1.0889       -75.9545      -16.69524      0.8163095
      6983.5000         0.6061         0.7131         1.3193       -77.9526      -18.69334      0.7913333
      6984.0000         0.6061         0.6753         1.4889        -80.884      -21.62474      0.7546907
      6984.5000         0.6061         0.6195         1.5111       -88.0017      -28.74244      0.6657194
      6985.0000          0.551         0.6192         1.4889      -123.0172      -63.75794      0.2280258
      6985.5000          0.551         0.6189         1.1393      -127.2182      -67.95894      0.1755133
      6986.0000         0.6061         0.6186              1      -130.1352      -70.87593      0.1390509
      6986.5000         0.6061         0.6184         0.9222      -106.4929      -47.23364      0.4345795
      6987.0000         0.6061         0.6181         0.9556      -101.1438      -41.88454      0.5014433
      6987.5000         0.6061         0.6178         0.9778      -100.5989      -41.33964      0.5082545
      6988.0000         0.6061         0.6175         0.9942      -100.6022      -41.34295      0.5082132
      6988.5000         0.6061         0.6728         0.9778      -101.1517      -41.89244      0.5013444
      6989.0000         0.6612         0.6725         0.9125      -100.0607      -40.80144       0.514982
      6989.5000         0.6612         0.7278            0.8       -88.3753      -29.11604      0.6610495
      6990.0000         0.6612         0.7275         0.7778       -76.2663      -17.00704       0.812412
      6990.5000         0.7163         0.7273         0.7667       -75.4484      -16.18914      0.8226357
      6991.0000         0.7163          0.727         0.7556       -75.4511      -16.19184      0.8226019
      6991.5000         0.6612         0.7267         0.7667       -77.0952      -17.83594      0.8020507
      6992.0000         0.6612         0.7486         0.7889       -78.9586      -19.69934      0.7787582
      6992.5000         0.6612         0.7817         0.7889       -79.8363      -20.57705      0.7677869
      6993.0000         0.7163         0.8564         0.7747       -79.8389      -20.57964      0.7677545
      6993.5000         0.7163         0.9478         0.7556       -78.7477      -19.48845      0.7813944
      6994.0000         0.7163         0.9642         0.7418       -76.2359      -16.97664      0.8127919
      6994.5000         0.7163         1.0028         0.7333       -73.2821      -14.02284      0.8497145
      6995.0000         0.7025         1.0025         0.7355       -71.9181      -12.65884      0.8667645
      6995.5000         0.6612         1.0022         0.7556       -70.9478      -11.68854      0.8788933
      6996.0000         0.6612          1.002         0.7906       -71.2099      -11.95064       0.875617
      6996.5000         0.6061         1.0017         0.8444        -72.746      -13.48674      0.8564157
      6997.0000         0.6061         0.9376         0.8569       -81.8564      -22.59714      0.7425357
      6997.5000          0.551         0.7789         0.8667       -96.2774      -37.01814      0.5622733
      6998.0000          0.551         0.6676         0.8196      -102.5689      -43.30964      0.4836295
      6998.5000          0.551         0.5561         0.7111      -108.8665      -49.60724      0.4049095
      6999.0000         0.6061         0.5587         0.6885      -112.7781      -53.51884      0.3560145
      6999.5000         0.6612         0.7222         0.6667      -122.0028      -62.74354      0.2407057
      7000.0000         0.6336         0.7038         0.6667      -131.3059      -72.04663      0.1244171
      7000.5000         0.5654          0.681         0.6667       -133.704      -74.44473     0.09444084
      7001.0000         0.5516         0.6667         0.6666      -134.0603      -74.80104     0.08998699
      7001.5000         0.4968         0.6667         0.6555      -135.9523      -76.69304     0.06633701
      7002.0000          0.442         0.6667         0.6554      -137.9124      -78.65314     0.04183578
      7002.5000         0.4423         0.7222         0.6665      -132.6771      -73.41783      0.1072771
      7003.0000         0.4425         0.7778         0.6775       -125.351      -66.09174      0.1988533
      7003.5000         0.4428         0.8333         0.7252      -104.2109      -44.95164      0.4631045
