#------------------------------------------------------------------------------
# Created by    : vladimir.rabinovich
# Created on    : 09/19/2023 17:19:41
#------------------------------------------------------------------------------
~Version Information Section
VERS.           2.0     :   CWLS log ASCII Standard - VERSION 2.0
WRAP.           NO      :   One line per depth step
~Well Information Section
#MNEM       .UNIT                                         VALUE :DESCRIPTION
#------------------------------------------------------------------------------
STRT        .FT                                            1000 :START DEPTH
STOP        .FT                                         10019.5 :STOP DEPTH
STEP        .FT                                             0.5 :STEP      
NULL        .                                           -999.25 :NULL      
COMP        .                                UNION PRODUCING CO :COMPANY   
WELL        .                                            BARROW :WELL      
FLD         .                                           WILDCAT :FIELD     
LOC         .                                                   :LOCATION  
CNTY        .                                          CHAMBERS :LOCATION  
STAT        .                                             TEXAS :STATE     
CTRY        .                                     UNITED STATES :COUNTRY   
SRVC        .                                                   :SERVICE COMPANY
DATE        .                             9/13/2023 11:19:11 AM :LOG DATE  
API         .                                    42071025090000 :API NUMBER
UWI         .                                    42071025090000 :UNIQUE WELL ID
XCOORD      .                                  1126276.26743497 :SURFACE X 
YCOORD      .                                  10763240.3077352 :SURFACE Y 
LAT         .                                        29.6474899 :LATITUDE  
LON         .                                       -94.6189869 :LONGITUDE 
ELEV        .FT                                              18 :ELEVATION VALUE
ELEV_TYPE   .                                                DF :ELEVATION REFERENCE TYPE
~Curve Information Section
#MNEM       .UNIT                                      API CODE :CURVE DESCRIPTION
#------------------------------------------------------------------------------
DEPT        .FT                                                 :DEPTH     
AM64        .OHMM                                               :          
AO18        .OHMM                                               :          
SN16        .OHMM                                               :          
SP          .MV                                                 :          
SP_NORM     .MV                                                 :SP Normalized
VSH_SP      .V/V                                                :Volume of Shale from SP
~A        DEPTH           AM64           AO18           SN16             SP        SP_NORM         VSH_SP
# ...
      7574.0000         0.7043         0.7778         0.8644       -79.7372      -3.000656      0.9874918
      7574.5000         0.7036         0.7778         0.8532       -81.5353       -4.78746      0.9651567
      7575.0000         0.7578         0.7778          0.853       -81.9312      -5.172058      0.9603493
      7575.5000          0.757         0.7778         0.8417       -81.8176      -5.047165      0.9619104
      7576.0000         0.7561         0.7778         0.8416       -80.2954      -3.513672      0.9810791
      7576.5000         0.7554         0.7778         0.8414        -79.048      -2.254967      0.9968129
      7577.0000         0.7544         0.7778          0.845       -77.0183      -0.213974              1
      7577.5000         0.7537         0.8333         0.8522       -76.4734      0.3422241              1
      7578.0000         0.7527         0.8333         0.8658        -77.571     -0.7440796              1
      7578.5000         0.7521         0.8396         0.8852       -79.2172      -2.378983      0.9952627
      7579.0000         0.7512         0.8889         0.9088       -82.2086      -5.359085      0.9580114
      7579.5000         0.7504         0.9444         0.9404       -84.1441      -7.283279       0.933959
      7580.0000         0.7496         0.9444         0.9402       -84.1468      -7.274689      0.9340664
      7580.5000         0.7487         0.9462         0.9401       -82.5083      -5.624893      0.9546888
      7581.0000         0.7479              1         0.9399       -81.9635      -5.068794      0.9616401
      7581.5000          0.747              1         0.9132       -81.4194      -4.513397      0.9685825
      7582.0000         0.7463              1         0.8729       -81.4222      -4.504898      0.9686888
      7582.5000         0.7454              1         0.8473       -81.4252      -4.496605      0.9687924
      7583.0000         0.7446              1          0.817       -81.4277      -4.487801      0.9689025
      7583.5000         0.7437         1.0556         0.8058       -81.9779      -5.026703      0.9621662
      7584.0000          0.743         1.0556         0.7945       -81.9803      -5.017807      0.9622774
      7584.5000          0.742         1.0556         0.7822       -82.5306      -5.556816      0.9555398
      7585.0000         0.7413         1.0556         0.7719       -82.5329      -5.547813      0.9556524
      7585.5000         0.7403         1.0556         0.7718       -83.0833      -6.086914      0.9489136
      7586.0000         0.7397         1.0556         0.7605       -83.0855       -6.07782      0.9490272
      7586.5000         0.7389         1.0556         0.7603       -83.0882      -6.069221      0.9491347
      7587.0000          0.738         1.0556         0.7602        -83.091       -6.06073      0.9492409
      7587.5000         0.7164         1.0556           0.76       -83.0937      -6.052124      0.9493484
      7588.0000         0.6812         1.0556         0.7487       -83.0966      -6.043732      0.9494534
      7588.5000         0.6635              1         0.7485       -82.5517      -5.487526      0.9564059
      7589.0000         0.6245              1         0.7484        -82.555      -5.479538      0.9565058
      7589.5000         0.5686              1         0.7482       -82.0102      -4.923439       0.963457
      7590.0000         0.5677              1         0.7481       -80.9193      -3.821236      0.9772345
      7590.5000          0.567              1         0.7479        -77.374     -0.2646408              1
      7591.0000          0.566              1         0.7588       -74.9066       2.214058              1
      7591.5000         0.5599              1         0.7587       -74.3617       2.770248              1
      7592.0000         0.5094              1         0.7474        -74.365       2.778252              1
      7592.5000         0.5086              1         0.7472       -74.3673       2.787247              1
      7593.0000         0.5077              1         0.7471        -74.637       2.528847              1
      7593.5000         0.5069              1         0.7469        -75.467       1.710136              1
      7594.0000         0.5294              1         0.7467       -77.3394     -0.1509628              1
      7594.5000         0.5604              1         0.7466       -78.7553      -1.555565              1
      7595.0000         0.5595              1         0.7464        -79.305      -2.093964      0.9988254
      7595.5000         0.5587              1         0.7463        -79.308      -2.085663      0.9989292
      7596.0000         0.5579         0.9444         0.7461       -79.3105      -2.076874      0.9990391
      7596.5000          0.557         0.9444         0.7459       -79.3135      -2.068573      0.9991428
      7597.0000         0.5562         0.9444         0.7458       -78.7686      -1.512375              1
      7597.5000         0.5553         0.8889         0.7456       -79.3191      -2.051575      0.9993553
      7598.0000         0.5624         0.8889         0.7483       -79.3964      -2.117577      0.9985303
      7598.5000         0.6089         0.8889         0.7564       -80.4189      -3.128784      0.9858902
      7599.0000         0.6632         0.8928         0.7673       -82.0993      -4.797882      0.9650265
      7599.5000         0.6622         0.9444         0.8005       -83.7071      -6.394386      0.9450701
      7600.0000         0.7166              1         0.8226       -83.3002      -5.976189      0.9502977
      7600.5000         0.5506         0.9745         0.8391       -82.2909      -4.955597       0.963055
      7601.0000         0.5501         0.9444         0.8333       -81.5395      -4.192894      0.9725888
      7601.5000         0.5744              1         0.7333       -80.4518      -3.093895      0.9863263
      7602.0000         0.6592              1         0.7221       -79.9145      -2.545296      0.9931838
      7602.5000         0.6818              1         0.7332       -79.9224      -2.541901      0.9932262
      7603.0000         0.7132              1         0.7442       -79.3838      -1.992004              1
      7603.5000         0.7126         0.9444         0.7664       -79.3916       -1.98851              1
      7604.0000         0.7671         0.8333         0.7885       -79.4002      -1.985809              1
      7604.5000         0.7666         0.7778         0.7996       -79.4079      -1.982208              1
      7605.0000          0.766         0.7778         0.7995       -79.4167      -1.979721              1
      7605.5000         0.8207         0.7715         0.8106       -79.9713      -2.523018      0.9934623
      7606.0000           0.82         0.7222         0.8105       -80.5273      -3.067719      0.9866535
      7606.5000         0.8195         0.7246         0.8105       -81.2132      -3.742325      0.9782209
      7607.0000         0.8189         0.7778         0.8104       -82.1851      -4.702919      0.9662135
      7607.5000         0.7633         0.7778         0.7993       -82.1923       -4.69883      0.9662646
      7608.0000         0.7627         0.8333         0.7992        -80.013      -2.508232      0.9936471
      7608.5000         0.7622         0.8585          0.788        -77.744     -0.2279358              1
      7609.0000         0.7616         0.9096          0.788       -76.7456      0.7817688              1
      7609.5000          0.706         0.9444          0.799       -77.3008      0.2378616              1
      7610.0000         0.7054         0.9613         0.8101       -77.8574     -0.3074417              1
      7610.5000         0.7049              1           0.81       -77.9093     -0.3480453              1
      7611.0000         0.7042              1           0.81       -78.4209     -0.8483429              1
      7611.5000         0.7038              1          0.821       -78.9747      -1.390846              1
