#------------------------------------------------------------------------------
# Created by    : vladimir.rabinovich
# Created on    : 09/19/2023 17:22:28
#------------------------------------------------------------------------------
~Version Information Section
VERS.           2.0     :   CWLS log ASCII Standard - VERSION 2.0
WRAP.           NO      :   One line per depth step
~Well Information Section
#MNEM       .UNIT                                         VALUE :DESCRIPTION
#------------------------------------------------------------------------------
STRT        .FT                                            1650 :START DEPTH
STOP        .FT                                         10241.5 :STOP DEPTH
STEP        .FT                                             0.5 :STEP      
NULL        .                                           -999.25 :NULL      
COMP        .                                 HARRISON DAN J JR :COMPANY   
WELL        .                                    G R CANADA EST :WELL      
FLD         .                                           WILDCAT :FIELD     
LOC         .                                                   :LOCATION  
CNTY        .                                          CHAMBERS :LOCATION  
STAT        .                                             TEXAS :STATE     
CTRY        .                                     UNITED STATES :COUNTRY   
SRVC        .                                                   :SERVICE COMPANY
DATE        .                             9/13/2023 11:19:11 AM :LOG DATE  
API         .                                    42071032580000 :API NUMBER
UWI         .                                    42071032580000 :UNIQUE WELL ID
XCOORD      .                                   1124905.0652959 :SURFACE X 
YCOORD      .                                  10748564.4390152 :SURFACE Y 
LAT         .                                        29.6070806 :LATITUDE  
LON         .                                       -94.6226563 :LONGITUDE 
ELEV        .FT                                            14.3 :ELEVATION VALUE
ELEV_TYPE   .                                                KB :ELEVATION REFERENCE TYPE
~Curve Information Section
#MNEM       .UNIT                                      API CODE :CURVE DESCRIPTION
#------------------------------------------------------------------------------
DEPT        .FT                                                 :DEPTH     
CILD        .MMHO                                               :          
IND         .OHMM                                               :          
SN16        .OHMM                                               :          
SP          .MV                                                 :          
SP_NORM     .MV                                                 :SP Normalized
VSH_SP      .V/V                                                :Volume of Shale from SP
~A        DEPTH           CILD            IND           SN16             SP        SP_NORM         VSH_SP
# ...
      5070.0000        -999.25         0.3183         0.3492      -121.9774      -64.03447      0.2020953
      5070.5000        -999.25          0.348         0.3663      -121.7376      -63.80032      0.2050592
      5071.0000        -999.25         0.3778         0.3847      -121.3943      -63.46267      0.2093333
      5071.5000        -999.25         0.4375         0.4323      -120.8009      -62.87492      0.2167732
      5072.0000        -999.25         0.4673         0.4745      -118.9994      -61.07906      0.2395056
      5072.5000        -999.25         0.4669         0.5096      -116.0174      -58.10271      0.2771808
      5073.0000        -999.25         0.4252         0.5839      -112.9147      -55.00566       0.316384
      5073.5000        -999.25         0.3462         0.6586      -110.6297      -52.72631      0.3452366
      5074.0000        -999.25         0.3327         0.7036      -110.0362      -52.13846      0.3526777
      5074.5000        -999.25         0.3156         0.7257      -110.6474      -52.75531      0.3448696
      5075.0000        -999.25         0.2852         0.7073      -111.2559      -53.36945      0.3370955
      5075.5000        -999.25          0.285         0.6759      -111.8663      -53.98551      0.3292974
      5076.0000        -999.25         0.2847         0.6698       -113.253      -55.37785      0.3116727
      5076.5000        -999.25         0.2844         0.6697      -114.2864       -56.4169      0.2985202
      5077.0000        -999.25         0.3141         0.6719      -114.8954      -57.03155      0.2907399
      5077.5000        -999.25         0.3828         0.6932      -115.5053       -57.6471      0.2829481
      5078.0000        -999.25         0.5237         0.7313      -109.1571      -51.30455      0.3632336
      5078.5000        -999.25         0.6499         0.8005       -93.3008      -35.45389      0.5638748
      5079.0000        -999.25         0.7333         0.9316       -78.2964      -20.45515      0.7537323
      5079.5000        -999.25         0.7631          1.123       -75.2753      -17.43969      0.7919026
      5080.0000        -999.25         0.7627         1.3193       -75.9117      -18.08174      0.7837754
      5080.5000        -999.25         0.6525          1.448       -79.1228       -21.2985       0.743057
      5081.0000        -999.25         0.5519         1.4961       -84.3378      -26.51914      0.6769729
      5081.5000        -999.25         0.4799         1.4064       -87.3485      -29.53549      0.6387913
      5082.0000        -999.25         0.4012         1.1814       -87.9591      -30.15174      0.6309907
      5082.5000        -999.25         0.3574         1.0297       -87.3656      -29.56389      0.6384318
      5083.0000        -999.25         0.3405         0.8826       -84.9738      -27.17773      0.6686363
      5083.5000        -999.25         0.3402         0.8203       -78.8095      -21.01908      0.7465938
      5084.0000        -999.25         0.3399          0.757       -75.9819      -18.19714      0.7823147
      5084.5000        -999.25         0.3396         0.7159       -75.3889      -17.60978      0.7897496
      5085.0000        -999.25         0.3694          0.691       -75.3996      -17.62613      0.7895427
      5085.5000        -999.25          0.369          0.667       -75.4083      -17.64048       0.789361
      5086.0000        -999.25         0.3988         0.6668       -75.4173      -17.65512      0.7891756
      5086.5000        -999.25         0.4285         0.6905       -75.4279      -17.67138      0.7889699
      5087.0000        -999.25         0.4282         0.7089       -74.1967      -16.44583      0.8044832
      5087.5000        -999.25         0.4279         0.7201       -72.4426      -14.69737      0.8266155
      5088.0000        -999.25         0.4361         0.7329       -70.5695      -12.82993      0.8502541
      5088.5000        -999.25         0.4574         0.7556       -66.4543      -8.720371      0.9022738
      5089.0000        -999.25         0.4673         0.7674       -63.0934       -5.36512      0.9447453
      5089.5000        -999.25         0.4868         0.7673       -61.6662      -3.943569      0.9627396
      5090.0000        -999.25         0.5165         0.7671       -62.4393      -4.722317      0.9528821
      5090.5000        -999.25         0.5162          0.761       -63.4867      -5.775364      0.9395524
      5091.0000        -999.25          0.546         0.7608       -64.0956      -6.389912      0.9317732
      5091.5000        -999.25         0.5456         0.7547        -64.105      -6.404968      0.9315827
      5092.0000        -999.25         0.5753         0.7546       -64.7141      -7.019718      0.9238011
      5092.5000        -999.25         0.5751         0.7544       -64.7233      -7.034557      0.9236132
      5093.0000        -999.25         0.6048         0.7602       -64.1297      -6.446609      0.9310556
      5093.5000        -999.25         0.6045         0.7661       -63.5309      -5.853458      0.9385638
      5094.0000        -999.25         0.6342         0.7719       -61.7486      -4.076809      0.9610531
      5094.5000        -999.25         0.6339         0.7785       -61.1033      -3.437153      0.9691499
      5095.0000        -999.25         0.6336         0.7835       -58.7633      -1.102806      0.9986987
      5095.5000        -999.25         0.6333         0.7977       -58.6773      -1.022453      0.9997158
      5096.0000        -999.25          0.663         0.8131       -58.1793     -0.5301018              1
      5096.5000        -999.25         0.6628         0.8129       -58.1883      -0.544754              1
      5097.0000        -999.25         0.6624         0.8128       -57.5966     0.04130173              1
      5097.5000        -999.25         0.6622         0.8764       -57.6056     0.02665329              1
      5098.0000        -999.25         0.6919         0.9558       -58.2158     -0.5891991              1
      5098.5000        -999.25          0.764         1.0408       -58.8248      -1.203846      0.9974197
      5099.0000        -999.25         0.8715         1.0928       -59.4347      -1.819393       0.989628
      5099.5000        -999.25         0.9013         1.0926       -59.7049      -2.095242      0.9861362
      5100.0000        -999.25         0.8709         1.0784       -61.2542      -3.650192      0.9664533
      5100.5000        -999.25         0.8401         1.0447       -64.8684      -7.270042      0.9206324
      5101.0000        -999.25         0.8396         1.0447       -69.0798      -11.48709       0.867252
      5101.5000        -999.25          0.839         1.0268       -68.4899      -10.90284      0.8746477
      5102.0000        -999.25         0.8685          1.013       -67.2222      -9.640785       0.890623
      5102.5000        -999.25         0.8678          0.973       -65.5047      -7.928936      0.9122919
      5103.0000        -999.25         0.8974         0.9345         -63.71      -6.139885      0.9349382
      5103.5000        -999.25         0.9267         0.9132       -61.3183       -3.75383      0.9651414
      5104.0000        -999.25         0.9303         0.9072       -60.7249       -3.16608      0.9725813
      5104.5000        -999.25         0.9556          0.937       -63.7386      -6.185432      0.9343616
      5105.0000        -999.25         0.9851         0.9712       -66.4727      -8.925182      0.8996812
      5105.5000        -999.25         0.9844         1.0026       -69.7624      -12.22053       0.857968
      5106.0000        -999.25          1.014         1.0291       -71.2372      -13.70097      0.8392282
      5106.5000        -999.25         1.0132         1.0444       -74.5851      -17.05452      0.7967782
      5107.0000        -999.25         1.0273         1.0503       -76.5518      -19.02688      0.7718117
      5107.5000        -999.25         1.0421         1.0503       -77.6059      -20.08663      0.7583971
