#------------------------------------------------------------------------------
# Created by    : vladimir.rabinovich
# Created on    : 09/19/2023 17:22:28
#------------------------------------------------------------------------------
~Version Information Section
VERS.           2.0     :   CWLS log ASCII Standard - VERSION 2.0
WRAP.           NO      :   One line per depth step
~Well Information Section
#MNEM       .UNIT                                         VALUE :DESCRIPTION
#------------------------------------------------------------------------------
STRT        .FT                                            1650 :START DEPTH
STOP        .FT                                         10241.5 :STOP DEPTH
STEP        .FT                                             0.5 :STEP      
NULL        .                                           -999.25 :NULL      
COMP        .                                 HARRISON DAN J JR :COMPANY   
WELL        .                                    G R CANADA EST :WELL      
FLD         .                                           WILDCAT :FIELD     
LOC         .                                                   :LOCATION  
CNTY        .                                          CHAMBERS :LOCATION  
STAT        .                                             TEXAS :STATE     
CTRY        .                                     UNITED STATES :COUNTRY   
SRVC        .                                                   :SERVICE COMPANY
DATE        .                             9/13/2023 11:19:11 AM :LOG DATE  
API         .                                    42071032580000 :API NUMBER
UWI         .                                    42071032580000 :UNIQUE WELL ID
XCOORD      .                                   1124905.0652959 :SURFACE X 
YCOORD      .                                  10748564.4390152 :SURFACE Y 
LAT         .                                        29.6070806 :LATITUDE  
LON         .                                       -94.6226563 :LONGITUDE 
ELEV        .FT                                            14.3 :ELEVATION VALUE
ELEV_TYPE   .                                                KB :ELEVATION REFERENCE TYPE
~Curve Information Section
#MNEM       .UNIT                                      API CODE :CURVE DESCRIPTION
#------------------------------------------------------------------------------
DEPT        .FT                                                 :DEPTH     
CILD        .MMHO                                               :          
IND         .OHMM                                               :          
SN16        .OHMM                                               :          
SP          .MV                                                 :          
SP_NORM     .MV                                                 :SP Normalized
VSH_SP      .V/V                                                :Volume of Shale from SP
~A        DEPTH           CILD            IND           SN16             SP        SP_NORM         VSH_SP
# ...
      3930.0000        -999.25           0.88         0.8532       -70.4446      -4.298737      0.9582438
      3930.5000        -999.25         0.8801         0.8347       -70.4474      -4.311165      0.9580866
      3931.0000        -999.25         0.8803         0.8176       -70.4507      -4.324089      0.9579229
      3931.5000        -999.25         0.8804         0.8177        -70.648      -4.531021      0.9553035
      3932.0000        -999.25         0.8806         0.8178        -71.658      -5.550644      0.9423969
      3932.5000        -999.25         0.8807         0.8178       -73.4626      -7.364876      0.9194319
      3933.0000        -999.25         0.8809         0.8179       -75.2676      -9.179504       0.896462
      3933.5000        -999.25          0.851          0.818       -77.6084      -11.52993      0.8667098
      3934.0000        -999.25         0.8211         0.8181       -80.0785      -14.00966      0.8353208
      3934.5000        -999.25         0.7912         0.8182       -84.2863      -18.22709      0.7819356
      3935.0000        -999.25         0.7613         0.8183        -88.562      -22.51241       0.727691
      3935.5000        -999.25         0.7014         0.8124       -92.7008      -26.66084      0.6751792
      3936.0000        -999.25         0.5791         0.8065       -95.2258      -29.19547      0.6430953
      3936.5000        -999.25         0.4315         0.7417       -99.3134       -33.2927      0.5912316
      3937.0000        -999.25         0.3905         0.6515      -110.8076      -44.79653      0.4456135
      3937.5000        -999.25         0.3717         0.6336      -119.1393      -53.13786      0.3400272
      3938.0000        -999.25         0.3719         0.6337       -123.014      -57.02219      0.2908584
      3938.5000        -999.25          0.372         0.6338      -125.1514      -59.16921      0.2636808
      3939.0000        -999.25         0.3722         0.6339      -126.3553      -60.38274      0.2483197
      3939.5000        -999.25         0.3723         0.6477      -126.9592      -60.99627      0.2405536
      3940.0000        -999.25         0.3725         0.6699      -126.7544       -60.8011       0.243024
      3940.5000        -999.25         0.3426         0.6917      -125.1635      -59.21983      0.2630402
      3941.0000        -999.25         0.3366         0.7179      -123.7209      -57.78686       0.281179
      3941.5000        -999.25         0.2828         0.7239      -122.1665      -56.24208      0.3007331
      3942.0000        -999.25          0.283          0.724      -126.3352      -60.42041      0.2478429
      3942.5000        -999.25         0.2531          0.702      -131.1816      -65.27644      0.1863742
      3943.0000        -999.25         0.2403         0.6645      -136.5906      -70.69508      0.1177839
      3943.5000        -999.25         0.1934         0.6422      -138.4306       -72.5447     0.09437088
      3944.0000        -999.25         0.1935         0.6169      -139.5997      -73.72343     0.07945029
      3944.5000        -999.25         0.2237         0.5944      -139.5287      -73.66206     0.08022704
      3945.0000        -999.25         0.2539         0.5813      -137.8039      -71.94688      0.1019382
      3945.5000        -999.25          0.284         0.5694      -135.0745      -69.22711      0.1363657
      3946.0000        -999.25          0.328         0.5755      -123.9962      -58.15845      0.2764753
      3946.5000        -999.25         0.4045         0.6191      -110.3573      -44.52917      0.4489978
      3947.0000        -999.25         0.4629         0.6592        -101.78       -35.9615      0.5574493
      3947.5000        -999.25         0.5549         0.6886       -93.0555      -27.24663      0.6677642
      3948.0000        -999.25         0.6596         0.7191       -87.9723      -22.17306      0.7319866
      3948.5000        -999.25         0.7354         0.7427       -84.3106      -18.52099      0.7782153
      3949.0000        -999.25         0.7803          0.773       -82.5728      -16.79282      0.8000909
      3949.5000        -999.25         0.7958         0.7999       -81.9747      -16.20435      0.8075399
      3950.0000        -999.25          0.826          0.821       -81.3777      -15.61697       0.814975
      3950.5000        -999.25         0.8261         0.8449       -81.9814       -16.2303      0.8072114
      3951.0000        -999.25         0.8263          0.845        -82.585      -16.84353       0.799449
      3951.5000        -999.25         0.8264         0.8093       -81.9875      -16.25566      0.8068904
      3952.0000        -999.25         0.8266         0.7974        -81.341      -15.61879       0.814952
      3952.5000        -999.25         0.8567         0.7975       -80.1923      -14.47971      0.8293707
      3953.0000        -999.25         0.8869         0.8103        -77.448      -11.74504      0.8639868
      3953.5000        -999.25         0.8871         0.8395       -61.5797       4.113628              1
      3954.0000        -999.25         0.9173         0.8649       -60.3809       5.302799              1
      3954.5000        -999.25         0.9181         0.9173       -59.7837       5.890373              1
      3955.0000        -999.25         0.9476         0.9616       -59.7867       5.877743              1
      3955.5000        -999.25         0.9778          1.007         -59.79       5.864815              1
      3956.0000        -999.25         0.9779         1.0131       -59.7929       5.852287              1
      3956.5000        -999.25         0.9781         1.0191       -59.7961       5.839458              1
      3957.0000        -999.25         0.9868         1.0201       -60.3996        5.22633              1
      3957.5000        -999.25         1.0084         1.0372       -61.0033       4.613003              1
      3958.0000        -999.25         1.0086         1.0383       -61.6069       3.999775              1
      3958.5000        -999.25         1.0087         1.0553       -62.8112       2.785847              1
      3959.0000        -999.25         1.0389         1.0614       -63.4154       2.172016              1
      3959.5000        -999.25          1.039         1.0674       -64.0185       1.559288              1
      3960.0000        -999.25         1.0392         1.0687       -64.0221       1.546059              1
      3960.5000        -999.25         1.0393         1.0795       -63.3617       2.196835              1
      3961.0000        -999.25         1.0395         1.0856       -62.2263       3.322605              1
      3961.5000        -999.25         1.0396         1.0976       -61.6282       3.911076              1
      3962.0000        -999.25         1.0398         1.1051       -61.6318       3.897846              1
      3962.5000        -999.25         1.0437         1.1098       -61.6345       3.885513              1
      3963.0000        -999.25         1.0701         1.1174       -61.6378       3.872585              1
      3963.5000        -999.25         1.1303         1.1338       -61.6406       3.860157              1
      3964.0000        -999.25         1.1605         1.1552       -61.6439       3.847225              1
      3964.5000        -999.25         1.2551         1.1997       -61.8561       3.625401              1
      3965.0000        -999.25          1.341         1.2135       -63.4518       2.020069              1
      3965.5000        -999.25         1.4059         1.2297       -64.0553       1.406944              1
      3966.0000        -999.25         1.4614         1.2554       -65.2596      0.1930161              1
      3966.5000        -999.25         1.4916         1.2955       -66.7467      -1.303711      0.9961556
      3967.0000        -999.25         1.4918         1.3215       -68.2694      -2.836044       0.976759
      3967.5000        -999.25         1.4919         1.3554       -69.4735      -4.049774      0.9613953
