#------------------------------------------------------------------------------
# Created by    : vladimir.rabinovich
# Created on    : 09/19/2023 17:22:53
#------------------------------------------------------------------------------
~Version Information Section
VERS.           2.0     :   CWLS log ASCII Standard - VERSION 2.0
WRAP.           NO      :   One line per depth step
~Well Information Section
#MNEM       .UNIT                                         VALUE :DESCRIPTION
#------------------------------------------------------------------------------
STRT        .FT                                            1498 :START DEPTH
STOP        .FT                                           11000 :STOP DEPTH
STEP        .FT                                             0.5 :STEP      
NULL        .                                           -999.25 :NULL      
COMP        .                                     CANNAN MORRIS :COMPANY   
WELL        .                                             GARTH :WELL      
FLD         .                                           WILDCAT :FIELD     
LOC         .                                                   :LOCATION  
CNTY        .                                          CHAMBERS :LOCATION  
STAT        .                                             TEXAS :STATE     
CTRY        .                                     UNITED STATES :COUNTRY   
SRVC        .                                                   :SERVICE COMPANY
DATE        .                             9/13/2023 11:19:11 AM :LOG DATE  
API         .                                    42071310360000 :API NUMBER
UWI         .                                    42071310360000 :UNIQUE WELL ID
XCOORD      .                                  1175356.83007784 :SURFACE X 
YCOORD      .                                  10818692.0839896 :SURFACE Y 
LAT         .                                        29.8017803 :LATITUDE  
LON         .                                       -94.4666967 :LONGITUDE 
ELEV        .FT                                              25 :ELEVATION VALUE
ELEV_TYPE   .                                                GL :ELEVATION REFERENCE TYPE
~Curve Information Section
#MNEM       .UNIT                                      API CODE :CURVE DESCRIPTION
#------------------------------------------------------------------------------
DEPT        .FT                                                 :DEPTH     
ILD         .OHMM                                               :          
SFL         .OHMM                                               :          
SP          .MV                                                 :          
SP_NORM     .MV                                                 :SP Normalized
VSH_SP      .V/V                                                :Volume of Shale from SP
~A        DEPTH            ILD            SFL             SP        SP_NORM         VSH_SP
# ...
      3390.0000         0.7792         0.7553       -22.3543       -7.56687      0.9168751
      3390.5000         0.7942         0.7735       -21.5341      -6.751002      0.9272025
      3391.0000         0.8092         0.7998       -20.7133      -5.934537      0.9375375
      3391.5000         0.8241         0.8552       -19.3666      -4.592169      0.9545295
      3392.0000         0.8398         0.9106       -17.9169      -3.146802      0.9728253
      3392.5000         0.8575         0.9781       -16.8472      -2.081435       0.986311
      3393.0000         0.8751         1.0522       -20.7936      -6.032167      0.9363016
      3393.5000         0.8928         1.1804       -25.4302       -10.6731      0.8775557
      3394.0000         0.9105         1.2351       -28.3492      -13.59643      0.8405515
      3394.5000         0.9029         1.2504       -31.9769      -17.22847      0.7945764
      3395.0000         0.8715         1.2419       -34.3393       -19.5952      0.7646177
      3395.5000         0.8402         1.2335        -37.376      -22.63623      0.7261237
      3396.0000         0.8088         1.2259       -39.9334      -25.19796      0.6936967
      3396.5000         0.7828         1.2186       -41.8655       -27.1344      0.6691848
      3397.0000         0.7587         1.2114       -43.2092      -28.48243      0.6521211
      3397.5000         0.7345         1.2046       -44.4266      -29.70417      0.6366561
      3398.0000         0.7103         1.2102       -45.4865       -30.7684      0.6231849
      3398.5000         0.6878         1.2158       -46.3906      -31.67683      0.6116857
      3399.0000         0.6722         1.2214       -47.2947      -32.58526      0.6001865
      3399.5000         0.6565          1.227       -48.1989      -33.49379      0.5886862
      3400.0000         0.6409         1.2085       -46.6971      -31.99633      0.6076414
      3400.5000         0.6252         1.1665       -41.1275      -26.43106      0.6780878
      3401.0000         0.6195         1.1245       -40.9862      -26.29409      0.6798216
      3401.5000         0.6143         1.0879       -41.7065      -27.01873       0.670649
      3402.0000          0.609         1.0594       -42.4271      -27.74366      0.6614726
      3402.5000         0.6038         1.0595       -43.1473      -28.46819      0.6523014
      3403.0000         0.5972         1.0596       -43.8676      -29.19283      0.6431288
      3403.5000         0.5891         1.0597       -44.5878      -29.91736      0.6339575
      3404.0000         0.5828         1.0575       -45.2465      -30.58039      0.6255647
      3404.5000         0.5778          1.054       -44.5566      -29.89482      0.6342427
      3405.0000         0.5727         1.0505       -43.8669      -29.20946      0.6429182
      3405.5000         0.5677         1.0444       -43.1773      -28.52419      0.6515925
      3406.0000         0.5631         1.0337        -39.622      -24.97323      0.6965414
      3406.5000         0.5585          1.023       -36.8047      -22.16026      0.7321486
      3407.0000          0.554         1.0125       -34.3479      -19.70779      0.7631925
      3407.5000         0.5494         1.0044       -31.0353      -16.39952      0.8050693
      3408.0000         0.5453          0.999       -29.6408      -15.00936      0.8226663
      3408.5000         0.5417         1.0127       -30.1416      -15.51449      0.8162723
      3409.0000         0.5427         1.0313       -32.1964      -17.57362      0.7902073
      3409.5000         0.5545         1.0578       -33.0398      -18.42135      0.7794765
      3410.0000         0.5876         1.0843       -33.8097      -19.19559      0.7696761
      3410.5000          0.622         1.1107       -30.1061      -15.49632      0.8165023
      3411.0000         0.6572         1.1305       -22.4904      -7.884954      0.9128487
      3411.5000         0.7053          1.137       -20.7654      -6.164287      0.9346293
      3412.0000         0.7535         1.1435       -20.1782       -5.58142      0.9420074
      3412.5000         0.8018         1.1508       -19.6927      -5.100252      0.9480981
      3413.0000         0.8504         1.1605       -19.3523      -4.764187       0.952352
      3413.5000         0.8991         1.1702       -19.0187      -4.434918        0.95652
      3414.0000         0.9369         1.1799       -18.6851      -4.105652      0.9606879
      3414.5000          0.964         1.1413       -18.4448      -3.869684      0.9636749
      3415.0000         0.9912         1.1011       -18.2551      -3.684318      0.9660213
      3415.5000         1.0183         1.0774       -18.0655      -3.499051      0.9683664
      3416.0000         1.0363         1.0538       -17.6211      -3.058983      0.9739369
      3416.5000         1.0526         1.0511        -17.082      -2.524218      0.9807061
      3417.0000         1.0689          1.058       -16.5425      -1.989049      0.9874804
      3417.5000         1.0852         1.0649       -15.7855      -1.236382      0.9970078
      3418.0000         1.0993         1.0719       -14.9764     -0.4316158              1
      3418.5000          1.105         1.0789       -14.3484      0.1920519              1
      3419.0000         1.1108         1.0878       -13.8093      0.7268181              1
      3419.5000         1.1186         1.0968       -13.2698       1.261986              1
      3420.0000          1.127         1.1058       -12.7304       1.797052              1
      3420.5000         1.1361         1.1147       -12.4275        2.09562              1
      3421.0000         1.1452         1.1237       -12.2917       2.227086              1
      3421.5000         1.1539          1.133       -12.2142       2.300254              1
      3422.0000         1.1621         1.1433       -12.3134       2.196721              1
      3422.5000         1.1711         1.1537       -12.5283       1.977488              1
      3423.0000         1.1808         1.1724       -12.9115       1.589955              1
      3423.5000         1.1904         1.1917       -13.4019       1.095222              1
      3424.0000         1.2112         1.2111       -13.9785      0.5142889              1
      3424.5000         1.2387         1.2352       -14.6705      -0.182044              1
      3425.0000         1.2667         1.2602       -15.4205     -0.9363766              1
      3425.5000         1.2961         1.2846       -16.1089      -1.629109      0.9920366
      3426.0000         1.3256         1.3052       -16.7969      -2.321443      0.9832729
      3426.5000         1.3519         1.3258       -17.3971      -2.925976      0.9756206
      3427.0000         1.3762         1.3464       -17.7979      -3.331108      0.9704923
      3427.5000         1.3795          1.367       -18.1989      -3.736442      0.9653615
      3428.0000         1.3618         1.3478       -18.4325      -3.974376      0.9623497
      3428.5000          1.317          1.304       -18.6168      -4.163008       0.959962
      3429.0000         1.2531         1.2236       -18.8213       -4.37184      0.9573185
      3429.5000         1.1766         1.1685       -19.0881      -4.642974      0.9538864
      3430.0000         1.1078           1.12       -19.3551      -4.914307      0.9504518
      3430.5000         1.0436         1.0721       -19.6521      -5.215639      0.9466375
      3431.0000         0.9954         0.9655       -19.9524      -5.520272      0.9427814
      3431.5000         0.9704         0.9331       -20.2528      -5.825006       0.938924
      3432.0000         0.9578         0.9298       -20.4994      -6.075937      0.9357476
      3432.5000         0.9522         0.9282       -14.4639    -0.04477024              1
      3433.0000         0.9489         0.9346       -10.6217       3.793096              1
      3433.5000         0.9531         0.9409        -9.2021       5.208364              1
