#------------------------------------------------------------------------------
# Created by    : vladimir.rabinovich
# Created on    : 09/19/2023 17:22:55
#------------------------------------------------------------------------------
~Version Information Section
VERS.           2.0     :   CWLS log ASCII Standard - VERSION 2.0
WRAP.           NO      :   One line per depth step
~Well Information Section
#MNEM       .UNIT                                         VALUE :DESCRIPTION
#------------------------------------------------------------------------------
STRT        .FT                                            1527 :START DEPTH
STOP        .FT                                            8498 :STOP DEPTH
STEP        .FT                                             0.5 :STEP      
NULL        .                                           -999.25 :NULL      
COMP        .                           SAN JUAN EXPLORATION CO :COMPANY   
WELL        .                                MIDDLETON ETAL R M :WELL      
FLD         .                                           WILDCAT :FIELD     
LOC         .                                                   :LOCATION  
CNTY        .                                          CHAMBERS :LOCATION  
STAT        .                                             TEXAS :STATE     
CTRY        .                                     UNITED STATES :COUNTRY   
SRVC        .                                                   :SERVICE COMPANY
DATE        .                             9/13/2023 11:19:11 AM :LOG DATE  
API         .                                    42071022810000 :API NUMBER
UWI         .                                    42071022810000 :UNIQUE WELL ID
XCOORD      .                                  1136491.54221464 :SURFACE X 
YCOORD      .                                  10781024.2027564 :SURFACE Y 
LAT         .                                        29.6967824 :LATITUDE  
LON         .                                       -94.5875983 :LONGITUDE 
ELEV        .FT                                              24 :ELEVATION VALUE
ELEV_TYPE   .                                                DF :ELEVATION REFERENCE TYPE
~Curve Information Section
#MNEM       .UNIT                                      API CODE :CURVE DESCRIPTION
#------------------------------------------------------------------------------
DEPT        .FT                                                 :DEPTH     
LAT         .OHMM                                               :          
LN          .OHMM                                               :          
SN          .OHMM                                               :          
SP          .MV                                                 :          
SP_NORM     .MV                                                 :SP Normalized
VSH_SP      .V/V                                                :Volume of Shale from SP
~A        DEPTH            LAT             LN             SN             SP        SP_NORM         VSH_SP
# ...
      5669.0000         0.3416         0.2985         0.2932      -143.4216       -74.2858      0.1672069
      5669.5000         0.3984         0.3012         0.3081      -140.3669      -71.23109      0.2019194
      5670.0000         0.4552         0.3078         0.3229      -136.8977       -67.7619       0.241342
      5670.5000          0.512         0.3164         0.3378      -134.0398      -64.90399      0.2738183
      5671.0000         0.5607         0.3251         0.3575      -138.0662      -68.93039      0.2280638
      5671.5000         0.5833         0.3338         0.3825      -142.6404      -73.50459      0.1760842
      5672.0000          0.606         0.3388         0.4074      -146.4062       -77.2704      0.1332909
      5672.5000         0.6253         0.3434         0.4324       -149.563       -80.4272     0.09741818
      5673.0000         0.5604         0.3481         0.4517      -151.1606       -82.0248     0.07926369
      5673.5000         0.4955         0.3527         0.4354      -149.9819       -80.8461     0.09265795
      5674.0000         0.4307         0.3503         0.4191      -147.7583       -78.6225      0.1179262
      5674.5000         0.3752         0.3472         0.4344      -145.5549       -76.4191      0.1429648
      5675.0000         0.3335         0.3442         0.4519      -143.3538        -74.218      0.1679772
      5675.5000         0.2918         0.3411         0.4693      -144.3706       -75.2348      0.1564227
      5676.0000         0.2501         0.3379         0.4868      -149.5259      -80.39009     0.09783988
      5676.5000         0.2421         0.3345         0.4766       -149.729       -80.5932     0.09553181
      5677.0000         0.2593         0.3311         0.4211      -149.9321       -80.7963     0.09322392
      5677.5000         0.2766         0.3277         0.3655      -150.3726       -81.2368     0.08821817
      5678.0000         0.2939         0.3243         0.3098      -151.3813       -82.2455      0.0767557
      5678.5000          0.302         0.3204         0.2542      -152.3904      -83.25459     0.06528872
      5679.0000         0.2942         0.3134         0.2362      -153.3992       -84.2634     0.05382503
      5679.5000         0.2865         0.3064         0.2219      -154.5835      -85.44769     0.04036713
      5680.0000         0.2787         0.2993         0.2075      -144.1848        -75.049      0.1585341
      5680.5000         0.2701         0.2923         0.2424      -140.6929       -71.5571      0.1982148
      5681.0000         0.2568         0.2853         0.2822      -137.8804       -68.7446       0.230175
      5681.5000         0.2435         0.2826         0.3221      -135.6362       -66.5004      0.2556773
      5682.0000         0.2302         0.2836         0.3619      -133.3877      -64.25189      0.2812285
      5682.5000         0.2287         0.2846         0.4017      -131.1118        -61.976      0.3070909
      5683.0000         0.2506         0.2856         0.4412      -128.8337      -59.69789      0.3329785
      5683.5000         0.2726         0.2978         0.4607      -126.5264      -57.39059      0.3591978
      5684.0000         0.2945         0.3189         0.4802      -124.2097       -55.0739      0.3855239
      5684.5000         0.3165           0.34         0.4997      -121.4878        -52.352      0.4164546
      5685.0000         0.3384         0.3611         0.5192      -118.6617      -49.52589      0.4485694
      5685.5000         0.3604         0.3822         0.5387      -116.5127       -47.3769      0.4729898
      5686.0000         0.3823         0.4049         0.5588       -114.657      -45.52119      0.4940773
      5686.5000         0.3761         0.4298         0.5855      -113.0164       -43.8806      0.5127205
      5687.0000         0.3595         0.4546         0.6122      -112.3414       -43.2056      0.5203909
      5687.5000         0.3429         0.4794         0.6389       -114.923      -45.78719      0.4910546
      5688.0000         0.3263         0.5043         0.6656      -117.3448        -48.209      0.4635341
      5688.5000         0.3096         0.5291         0.6969      -118.8779       -49.7421      0.4461125
      5689.0000          0.293         0.5469         0.7371      -114.4746       -45.3388        0.49615
      5689.5000         0.2764         0.5637         0.7774      -108.1431      -39.00729       0.568099
      5690.0000         0.2653         0.5806         0.8176      -100.0634       -30.9276      0.6599137
      5690.5000         0.3092         0.5975         0.8485        -79.248       -10.1122      0.8964523
      5691.0000         0.3532         0.6144          0.844       -74.0171      -4.881294      0.9558944
      5691.5000         0.4036         0.6211         0.8792       -70.8829      -1.747093      0.9915103
      5692.0000         0.4568         0.6242         0.9376       -68.9061      0.2297058              1
      5692.5000         0.5014         0.6273         0.9664       -67.2994       1.836403              1
      5693.0000         0.4735         0.6303         0.9952       -66.1615       2.974304              1
      5693.5000         0.4455         0.6334          1.024       -65.1663       3.969505              1
      5694.0000         0.4176         0.6365         1.0528       -65.8127       3.323105              1
      5694.5000         0.3929         0.6494         1.0549       -66.4592       2.676605              1
      5695.0000         0.4053         0.6653         1.0543       -67.1058       2.030006              1
      5695.5000         0.4177         0.6812         1.0537       -67.7523       1.383507              1
      5696.0000         0.4301         0.6971         1.0531       -69.7372     -0.6013947              1
      5696.5000         0.4537         0.7142         1.0525         -71.97      -2.834198      0.9791569
      5697.0000         0.5072         0.7355          1.038        -74.205      -5.069199      0.9537591
      5697.5000         0.5607         0.7569         1.0112       -76.7729        -7.6371      0.9245784
      5698.0000          0.605         0.7782         0.9843       -79.6285       -10.4927      0.8921284
      5698.5000         0.5511         0.7794         0.9575       -77.0786      -7.942795      0.9211046
      5699.0000         0.4972         0.7698         0.9073       -73.1384      -4.002594      0.9658796
      5699.5000           0.43         0.7601         0.8548       -67.2372       1.898605              1
      5700.0000         0.3608         0.7505         0.8023       -65.1425       3.993301              1
      5700.5000         0.3404         0.7367         0.7499       -64.3397       4.796104              1
      5701.0000         0.3347         0.7056         0.7641       -66.4604         2.6754              1
      5701.5000          0.329         0.6746         0.7952       -71.5079      -2.372093       0.984408
      5702.0000         0.3357         0.6436         0.8264        -74.359      -5.223198      0.9520091
      5702.5000         0.3495         0.6103         0.8575       -75.4539        -6.3181       0.939567
      5703.0000         0.3633         0.5734          0.907       -76.5499      -7.414093      0.9271126
      5703.5000         0.3772         0.5365         1.0095       -77.6448      -8.508995      0.9146705
      5704.0000          0.391         0.5086         1.0742       -78.1648      -9.028999      0.9087614
      5704.5000         0.4048         0.4959         1.1234       -79.0737      -9.937897       0.898433
      5705.0000         0.4199         0.4831         1.1828       -80.5388        -11.403      0.8817841
      5705.5000         0.4968         0.4868         1.2615       -80.7449       -11.6091       0.879442
      5706.0000         0.5738         0.5026         1.3323       -79.4111       -10.2753      0.8945989
      5706.5000         0.6507         0.5183          1.358       -77.2123        -8.0765      0.9195852
