#------------------------------------------------------------------------------
# Created by    : vladimir.rabinovich
# Created on    : 09/19/2023 17:22:53
#------------------------------------------------------------------------------
~Version Information Section
VERS.           2.0     :   CWLS log ASCII Standard - VERSION 2.0
WRAP.           NO      :   One line per depth step
~Well Information Section
#MNEM       .UNIT                                         VALUE :DESCRIPTION
#------------------------------------------------------------------------------
STRT        .FT                                            1498 :START DEPTH
STOP        .FT                                           11000 :STOP DEPTH
STEP        .FT                                             0.5 :STEP      
NULL        .                                           -999.25 :NULL      
COMP        .                                     CANNAN MORRIS :COMPANY   
WELL        .                                             GARTH :WELL      
FLD         .                                           WILDCAT :FIELD     
LOC         .                                                   :LOCATION  
CNTY        .                                          CHAMBERS :LOCATION  
STAT        .                                             TEXAS :STATE     
CTRY        .                                     UNITED STATES :COUNTRY   
SRVC        .                                                   :SERVICE COMPANY
DATE        .                             9/13/2023 11:19:11 AM :LOG DATE  
API         .                                    42071310360000 :API NUMBER
UWI         .                                    42071310360000 :UNIQUE WELL ID
XCOORD      .                                  1175356.83007784 :SURFACE X 
YCOORD      .                                  10818692.0839896 :SURFACE Y 
LAT         .                                        29.8017803 :LATITUDE  
LON         .                                       -94.4666967 :LONGITUDE 
ELEV        .FT                                              25 :ELEVATION VALUE
ELEV_TYPE   .                                                GL :ELEVATION REFERENCE TYPE
~Curve Information Section
#MNEM       .UNIT                                      API CODE :CURVE DESCRIPTION
#------------------------------------------------------------------------------
DEPT        .FT                                                 :DEPTH     
ILD         .OHMM                                               :          
SFL         .OHMM                                               :          
SP          .MV                                                 :          
SP_NORM     .MV                                                 :SP Normalized
VSH_SP      .V/V                                                :Volume of Shale from SP
~A        DEPTH            ILD            SFL             SP        SP_NORM         VSH_SP
# ...
      9066.0000         0.6733         0.8282         -6.525     -0.3297091              1
      9066.5000         0.6644         0.8076        -6.5322     -0.3345385              1
      9067.0000         0.6571          0.787        -6.5395     -0.3394685              1
      9067.5000         0.6497         0.7666        -6.5467     -0.3442979              1
      9068.0000         0.6424          0.757        -6.5564     -0.3516273              1
      9068.5000          0.634         0.7473        -6.5695     -0.3623571              1
      9069.0000         0.6238         0.7379        -6.5826     -0.3730865              1
      9069.5000         0.6136         0.7293        -6.5956     -0.3837161              1
      9070.0000         0.6034         0.7258        -6.6087     -0.3944454              1
      9070.5000         0.5948         0.7276        -6.6483     -0.4316754              1
      9071.0000         0.5871         0.7294        -6.6996     -0.4806051              1
      9071.5000         0.5794         0.7324         -6.751     -0.5296345              1
      9072.0000         0.5772         0.7355        -6.8023     -0.5785642              1
      9072.5000         0.5775         0.7386        -6.8537     -0.6275935              1
      9073.0000         0.5777         0.7417        -6.9051     -0.6766229              1
      9073.5000          0.578         0.7416         -6.845     -0.6141524              1
      9074.0000         0.5782         0.7406        -6.7816     -0.5483823              1
      9074.5000         0.5785         0.7397        -6.7183     -0.4827118              1
      9075.0000         0.5788         0.7387        -6.6514     -0.4134417              1
      9075.5000          0.579         0.7376        -6.4882     -0.2478709              1
      9076.0000         0.5793         0.7365        -6.3247    -0.08200026              1
      9076.5000         0.5751         0.7353        -6.1612     0.08386993              1
      9077.0000         0.5688         0.7342        -5.9919      0.2555404              1
      9077.5000         0.5594         0.7331        -5.7689      0.4809108              1
      9078.0000         0.5498         0.7282        -5.5459      0.7062812              1
      9078.5000         0.5401         0.7222        -5.3232      0.9313512              1
      9079.0000         0.5286         0.7163        -5.1003       1.156622              1
      9079.5000         0.5137         0.7067        -4.8772       1.382092              1
      9080.0000         0.4988          0.695        -4.6598       1.601863              1
      9080.5000         0.4839         0.6834        -4.7415       1.522533              1
      9081.0000         0.4937         0.6709        -4.8233       1.443104              1
      9081.5000         0.5042         0.6579        -4.9555       1.313274              1
      9082.0000         0.5234         0.6449        -5.2346       1.036544              1
      9082.5000         0.5425         0.6351         -5.491       0.782515              1
      9083.0000         0.5617         0.6487        -5.7438      0.5320854              1
      9083.5000         0.5847         0.6926        -5.9968       0.281456              1
      9084.0000         0.6091         0.7382        -6.2109     0.06972647              1
      9084.5000         0.6336         0.7901        -6.3861     -0.1031032              1
      9085.0000         0.6491         0.8504        -6.5612     -0.2758331              1
      9085.5000         0.6625         0.9105        -6.7361     -0.4483628              1
      9086.0000         0.6758         0.9004        -6.9045     -0.6143918              1
      9086.5000         0.6892          0.887        -7.0664     -0.7739215              1
      9087.0000         0.6993         0.8737        -7.1864      -0.891551              1
      9087.5000         0.7023         0.8593        -7.0997     -0.8024807              1
      9088.0000         0.7053         0.8446         -7.013     -0.7134104              1
      9088.5000         0.7082         0.8422        -6.9264     -0.6244402              1
      9089.0000         0.7112         0.8564        -6.8397     -0.5353694              1
      9089.5000         0.7066         0.8705          -6.79     -0.4832988              1
      9090.0000         0.7018         0.8812        -6.7865     -0.4774284              1
      9090.5000         0.6944         0.8915        -6.7829      -0.471458              1
      9091.0000         0.6854         0.9017        -6.9388     -0.6249876              1
      9091.5000         0.6763         0.8961        -7.1686     -0.8524175              1
      9092.0000         0.6677         0.8853        -7.3983      -1.079747      0.9991516
      9092.5000         0.6593         0.8673        -7.6799      -1.358976      0.9961811
      9093.0000         0.6509          0.849        -8.0713      -1.748005      0.9920425
      9093.5000         0.6413         0.8309        -8.4633      -2.137635      0.9878975
      9094.0000         0.6307          0.817        -8.8547      -2.526665      0.9837589
      9094.5000         0.6201         0.8031        -9.1958      -2.865395      0.9801553
      9095.0000         0.6096          0.789        -9.4402      -3.107424      0.9775806
      9095.5000          0.599         0.7744        -9.5866      -3.251454      0.9760484
      9096.0000         0.5883         0.7598        -9.7022      -3.364683      0.9748438
      9096.5000         0.5776         0.7417        -9.7505      -3.410613      0.9743552
      9097.0000          0.567         0.7231        -9.7802      -3.437943      0.9740645
      9097.5000         0.5568         0.7045        -9.7462      -3.401572      0.9744514
      9098.0000         0.5482         0.6859        -9.6229      -3.275902      0.9757883
      9098.5000         0.5397         0.6713        -9.4996      -3.150232      0.9771252
      9099.0000         0.5311         0.6584        -9.3763      -3.024561      0.9784621
      9099.5000          0.524           0.67        -9.2001       -2.84599      0.9803618
      9100.0000         0.5176         0.6832        -9.0102      -2.653719      0.9824072
      9100.5000         0.5228         0.6965         -9.162      -2.803149      0.9808176
      9101.0000          0.529         0.7063        -9.3139      -2.952679      0.9792268
      9101.5000         0.5397         0.7141        -9.4657      -3.102109      0.9776371
      9102.0000         0.5506         0.7219        -9.6175      -3.251539      0.9760475
      9102.5000         0.5614         0.7218        -9.8255      -3.457167      0.9738599
      9103.0000         0.5733         0.7127        -10.078      -3.707297       0.971199
      9103.5000         0.5858         0.6964       -10.3301      -3.957027      0.9685423
      9104.0000         0.5982         0.7292       -10.5822      -4.206757      0.9658856
      9104.5000         0.6107         0.7662       -10.8344      -4.456586      0.9632278
      9105.0000         0.6223         0.8032       -11.0868      -4.706615      0.9605679
      9105.5000         0.6284         0.8373       -11.3528      -4.970246      0.9577633
      9106.0000         0.6344         0.8708       -11.6368      -5.251874      0.9547673
      9106.5000         0.6405         0.8984       -11.8147      -5.427404      0.9528999
      9107.0000         0.6466         0.8822       -11.6512      -5.261534      0.9546645
      9107.5000         0.6484         0.8661       -11.4877      -5.095664      0.9564291
      9108.0000         0.6447         0.8499       -11.3245      -4.930093      0.9581905
      9108.5000         0.6409         0.8337        -11.161      -4.764223      0.9599551
      9109.0000         0.6372         0.8176       -10.9978      -4.598652      0.9617165
      9109.5000         0.6326         0.8014       -10.8344      -4.432882        0.96348
