#------------------------------------------------------------------------------
# Created by    : vladimir.rabinovich
# Created on    : 09/19/2023 17:22:28
#------------------------------------------------------------------------------
~Version Information Section
VERS.           2.0     :   CWLS log ASCII Standard - VERSION 2.0
WRAP.           NO      :   One line per depth step
~Well Information Section
#MNEM       .UNIT                                         VALUE :DESCRIPTION
#------------------------------------------------------------------------------
STRT        .FT                                            1650 :START DEPTH
STOP        .FT                                         10241.5 :STOP DEPTH
STEP        .FT                                             0.5 :STEP      
NULL        .                                           -999.25 :NULL      
COMP        .                                 HARRISON DAN J JR :COMPANY   
WELL        .                                    G R CANADA EST :WELL      
FLD         .                                           WILDCAT :FIELD     
LOC         .                                                   :LOCATION  
CNTY        .                                          CHAMBERS :LOCATION  
STAT        .                                             TEXAS :STATE     
CTRY        .                                     UNITED STATES :COUNTRY   
SRVC        .                                                   :SERVICE COMPANY
DATE        .                             9/13/2023 11:19:11 AM :LOG DATE  
API         .                                    42071032580000 :API NUMBER
UWI         .                                    42071032580000 :UNIQUE WELL ID
XCOORD      .                                   1124905.0652959 :SURFACE X 
YCOORD      .                                  10748564.4390152 :SURFACE Y 
LAT         .                                        29.6070806 :LATITUDE  
LON         .                                       -94.6226563 :LONGITUDE 
ELEV        .FT                                            14.3 :ELEVATION VALUE
ELEV_TYPE   .                                                KB :ELEVATION REFERENCE TYPE
~Curve Information Section
#MNEM       .UNIT                                      API CODE :CURVE DESCRIPTION
#------------------------------------------------------------------------------
DEPT        .FT                                                 :DEPTH     
CILD        .MMHO                                               :          
IND         .OHMM                                               :          
SN16        .OHMM                                               :          
SP          .MV                                                 :          
SP_NORM     .MV                                                 :SP Normalized
VSH_SP      .V/V                                                :Volume of Shale from SP
~A        DEPTH           CILD            IND           SN16             SP        SP_NORM         VSH_SP
# ...
     10200.0000       1487.505         0.7084         0.7455       -32.6822       4.354836              1
     10200.5000        1505.52         0.7082         0.7455       -32.6869       4.350136              1
     10201.0000       1514.465         0.7229         0.7454       -32.6907       4.346336              1
     10201.5000       1541.531          0.743         0.7394       -32.0944       4.942638              1
     10202.0000       1555.443         0.7676         0.7333       -32.0986       4.938438              1
     10202.5000       1571.555         0.7974         0.7333       -32.1031       4.933937              1
     10203.0000       1577.583         0.7972         0.7332       -32.1071       4.929935              1
     10203.5000       1577.627          0.797         0.7391       -32.1115       4.925537              1
     10204.0000       1571.672         0.7968         0.7478       -32.1156       4.921436              1
     10204.5000       1559.746         0.7965         0.7569       -32.7206       4.316437              1
     10205.0000       1541.833         0.8264         0.7747       -32.7247       4.312336              1
     10205.5000       1510.765         0.8262         0.7811        -32.729       4.308037              1
     10206.0000       1458.084          0.826         0.8045        -32.734       4.303036              1
     10206.5000       1406.998         0.8381         0.8234       -32.7598       4.277237              1
     10207.0000       1326.431         0.8856         0.8521        -33.343       3.694038              1
     10207.5000       1278.178         0.8854         0.8836       -33.3466       3.690437              1
     10208.0000       1212.742         0.9152         0.9236        -33.952       3.085037              1
     10208.5000       1164.105          0.945          0.951       -33.9557       3.081337              1
     10209.0000       1105.041         1.0049         0.9951        -34.561       2.476036              1
     10209.5000       1052.929         1.0347         1.0234       -34.5648       2.472237              1
     10210.0000       1027.281         1.0945         1.0487         -35.17       1.867039              1
     10210.5000       992.2824         1.1244         1.0642       -35.8724       1.164639              1
     10211.0000       955.5081         1.1542         1.0785       -36.3796      0.6574364              1
     10211.5000       937.5941          1.154         1.0805       -37.2179     -0.1808624              1
     10212.0000       937.6281         1.1537         1.0843       -38.1898      -1.152763       0.997786
     10212.5000       961.6299         1.1536         1.0842       -39.0637      -2.026665      0.9851208
     10213.0000       981.4966         1.1533         1.0901       -39.3994      -2.362362      0.9802556
     10213.5000       1021.594         1.1531         1.0901        -40.005      -2.967964      0.9714788
     10214.0000       1061.827         1.1529           1.09       -40.6091      -3.572063      0.9627237
     10214.5000       1153.414         1.1227          1.084       -40.0127      -2.975662      0.9713672
     10215.0000        1234.26         1.1225         1.0837       -39.4162      -2.379162      0.9800121
     10215.5000        1267.27         1.0922         1.0659       -37.6194     -0.5823631              1
     10216.0000       1275.214          1.062         1.0409       -36.9244      0.1126366              1
     10216.5000       1291.306         1.0494         1.0001        -35.826       1.211037              1
     10217.0000       1293.688         1.0315         0.9737       -35.2288       1.808235              1
     10217.5000       1303.365         1.0013         0.9164       -34.6332       2.403835              1
     10218.0000       1309.395         0.9711         0.8771       -34.6371       2.399937              1
     10218.5000       1315.425         0.9408         0.8268       -34.0407       2.996338              1
     10219.0000       1315.475         0.9106         0.7939        -34.045       2.992039              1
     10219.5000        1315.51         0.8803          0.761       -34.0494       2.987637              1
     10220.0000       1315.559         0.8801         0.7394       -34.0535       2.983536              1
     10220.5000       1315.595         0.8498          0.719       -34.0578       2.979237              1
     10221.0000       1315.637         0.8196          0.699        -34.062       2.975037              1
     10221.5000        1315.68         0.7894         0.6771       -34.0662       2.970837              1
     10222.0000       1315.726         0.7868         0.6663       -34.0713       2.965736              1
     10222.5000       1315.764         0.7589         0.6472       -34.0747       2.962337              1
     10223.0000        1315.81         0.7287         0.6384       -34.0797       2.957336              1
     10223.5000       1311.788         0.6984         0.6291       -34.6838       2.353237              1
     10224.0000       1309.904         0.6983         0.6231       -34.6881       2.348938              1
     10224.5000       1309.946          0.668         0.6111       -34.6924       2.344635              1
     10225.0000       1309.989         0.6678          0.605       -34.6971       2.339935              1
     10225.5000       1316.019         0.6676          0.599       -34.7009       2.336136              1
     10226.0000       1316.061         0.6674          0.587       -34.7051       2.331936              1
     10226.5000       1316.111         0.6672          0.581       -34.7094       2.327637              1
     10227.0000       1316.146         0.6669         0.5809       -35.3145       1.722538              1
     10227.5000       1316.194         0.6667         0.5749       -35.3185       1.718536              1
     10228.0000       1322.219         0.6665         0.5688       -35.3229       1.714138              1
     10228.5000       1322.266         0.6663         0.5628        -35.327       1.710037              1
     10229.0000       1322.304         0.6661         0.5568       -35.3313       1.705738              1
     10229.5000        1322.35         0.6659         0.5567       -35.3363       1.700737              1
     10230.0000       1322.389         0.6957         0.5566       -35.3397       1.697338              1
     10230.5000       1322.433         0.6955         0.5506        -35.344       1.693035              1
     10231.0000       1328.461         0.6953         0.5506       -35.3482       1.688835              1
     10231.5000       1328.505         0.7251         0.5505       -35.3531       1.683937              1
     10232.0000        1322.55         0.7249         0.5504       -35.3567       1.680336              1
     10232.5000       1322.601         0.7548         0.5504       -35.3615       1.675537              1
     10233.0000       1322.651         0.7545         0.5503       -35.9658       1.071236              1
     10233.5000       1316.696         0.7543         0.5502       -35.9705       1.066536              1
     10234.0000       1316.746         0.7841         0.5502       -35.9743       1.062737              1
     10234.5000       1310.792         0.7839         0.5501       -35.9789       1.058136              1
     10235.0000       1298.866         0.8137         0.5501       -35.9828       1.054237              1
     10235.5000       1292.911         0.8135           0.55       -35.9873       1.049736              1
     10236.0000       1286.974         0.8133         0.5499       -35.9913       1.045738              1
     10236.5000       1285.293         0.8431         0.5499        -35.395       1.642036              1
     10237.0000       1269.093         0.8429         0.5509       -35.3992       1.637836              1
     10237.5000       1240.891         0.8727         0.5557       -35.4035       1.633537              1
