#------------------------------------------------------------------------------
# Created by    : vladimir.rabinovich
# Created on    : 09/19/2023 17:19:41
#------------------------------------------------------------------------------
~Version Information Section
VERS.           2.0     :   CWLS log ASCII Standard - VERSION 2.0
WRAP.           NO      :   One line per depth step
~Well Information Section
#MNEM       .UNIT                                         VALUE :DESCRIPTION
#------------------------------------------------------------------------------
STRT        .FT                                            1000 :START DEPTH
STOP        .FT                                         10019.5 :STOP DEPTH
STEP        .FT                                             0.5 :STEP      
NULL        .                                           -999.25 :NULL      
COMP        .                                UNION PRODUCING CO :COMPANY   
WELL        .                                            BARROW :WELL      
FLD         .                                           WILDCAT :FIELD     
LOC         .                                                   :LOCATION  
CNTY        .                                          CHAMBERS :LOCATION  
STAT        .                                             TEXAS :STATE     
CTRY        .                                     UNITED STATES :COUNTRY   
SRVC        .                                                   :SERVICE COMPANY
DATE        .                             9/13/2023 11:19:11 AM :LOG DATE  
API         .                                    42071025090000 :API NUMBER
UWI         .                                    42071025090000 :UNIQUE WELL ID
XCOORD      .                                  1126276.26743497 :SURFACE X 
YCOORD      .                                  10763240.3077352 :SURFACE Y 
LAT         .                                        29.6474899 :LATITUDE  
LON         .                                       -94.6189869 :LONGITUDE 
ELEV        .FT                                              18 :ELEVATION VALUE
ELEV_TYPE   .                                                DF :ELEVATION REFERENCE TYPE
~Curve Information Section
#MNEM       .UNIT                                      API CODE :CURVE DESCRIPTION
#------------------------------------------------------------------------------
DEPT        .FT                                                 :DEPTH     
AM64        .OHMM                                               :          
AO18        .OHMM                                               :          
SN16        .OHMM                                               :          
SP          .MV                                                 :          
SP_NORM     .MV                                                 :SP Normalized
VSH_SP      .V/V                                                :Volume of Shale from SP
~A        DEPTH           AM64           AO18           SN16             SP        SP_NORM         VSH_SP
# ...
      2178.0000         0.5079         0.5922         0.6761       -81.3848      -41.87863      0.1113341
      2178.5000         0.5076         0.5357         0.7626       -83.2327      -43.72652     0.07116251
      2179.0000         0.5073          0.535         0.7053         -84.48      -44.97383     0.04404715
      2179.5000         0.5071         0.4785         0.6289        -84.896      -45.38983     0.03500366
      2180.0000         0.5068         0.4222         0.5955       -85.4528      -45.94662     0.02289946
      2180.5000         0.5065         0.4214         0.5789       -85.4651      -45.95893     0.02263194
      2181.0000         0.5613          0.365         0.5618       -84.2248      -44.71863     0.04959505
      2181.5000         0.5611         0.3642         0.5616       -82.7499      -43.24373     0.08165807
      2182.0000         0.5608         0.3633         0.5726       -80.4377      -40.93153      0.1319233
      2182.5000         0.5605         0.3625         0.6252       -77.3025      -37.79633      0.2000799
      2183.0000         0.5602         0.4727         0.6945       -75.0754      -35.56923       0.248495
      2183.5000           0.56         0.5276         0.7384       -66.4057      -26.89953      0.4369668
      2184.0000         0.5597         0.5822          0.883        -61.467      -21.96083      0.5443298
      2184.5000         0.5594         0.6926         0.9728        -57.559      -18.05283      0.6292864
      2185.0000         0.5591         0.7472         1.0938       -48.9055      -9.399326      0.8174059
      2185.5000         0.5589         0.7589         1.1517       -44.4763      -4.970127      0.9136929
      2186.0000         0.6136         0.9121         1.1713       -33.6083       5.897873              1
      2186.5000         0.6134          0.967         1.1822       -34.7127       4.793472              1
      2187.0000         0.6131          0.966          1.182       -35.2717        4.23447              1
      2187.5000         0.6129         0.9097         1.1819       -35.1437       4.362473              1
      2188.0000         0.6125         0.9088         1.1706       -34.7454       4.760773              1
      2188.5000         0.6674         0.9081         1.1704       -33.5566       5.949574              1
      2189.0000         0.6671         0.9071         1.1702       -31.4859       8.020271              1
      2189.5000         0.6668         0.9064         1.1698       -30.9476       8.558573              1
      2190.0000         0.6666         0.8778         1.1422       -30.9608       8.545372              1
      2190.5000         0.7214         0.8492         1.1142       -32.1038        7.40237              1
      2191.0000         0.7211         0.8483         1.0757       -34.2655       5.240673              1
      2191.5000         0.7208         0.8475         1.0472       -35.3686       4.137573              1
      2192.0000         0.7206         0.8467         1.0315       -35.3795       4.126671              1
      2192.5000         0.7203         0.9014         1.0246       -34.8435       4.662674              1
      2193.0000         0.7007           0.92         1.0245        -34.076       5.430172              1
      2193.5000         0.6095         0.9553         1.0243        -32.677       6.829174              1
      2194.0000         0.5542         0.9544         1.0208       -31.5916       7.914572              1
      2194.5000         0.4988         0.9535         1.0017       -31.6048       7.901373              1
      2195.0000         0.4847         0.9667         0.9738       -31.7806       7.725573              1
      2195.5000          0.388          1.063         0.9125        -32.174       7.332172              1
      2196.0000         0.3878         1.1178         0.8281       -34.3558       5.150372              1
      2196.5000         0.3875         1.1168         0.7344       -38.2142       1.291973              1
      2197.0000         0.3872         1.1078         0.7343       -45.1899      -5.683727      0.8981798
      2197.5000         0.3869         0.9485         0.7341       -49.1785      -9.672329      0.8114711
      2198.0000         0.3867         0.8867         0.7228       -51.5096      -12.00343       0.760795
      2198.5000         0.3863          0.669         0.7115       -54.1245      -14.61833      0.7039494
      2199.0000         0.3889         0.5545         0.6769       -57.1477      -17.64153      0.6382276
      2199.5000         0.4409         0.4451         0.6334       -79.3137      -39.80753      0.1563581
      2200.0000         0.6058         0.3889         0.6999       -80.9652      -41.45903      0.1204559
      2200.5000         0.5502         0.4692         0.7383       -83.7082      -44.20203     0.06082552
      2201.0000         0.5496         0.4983         0.7552       -83.1644      -43.65823     0.07264726
      2201.5000         0.5491         0.5186         0.7439       -82.6195      -43.11333     0.08449289
      2202.0000         0.5485         0.5522         0.7215       -81.5286      -42.02243       0.108208
      2202.5000          0.548         0.5597         0.6286       -80.7908      -41.28463      0.1242472
      2203.0000         0.5474         0.6061         0.6211       -79.3457      -39.83953      0.1556624
      2203.5000         0.5469         0.6053         0.6242       -78.8008      -39.29462      0.1675082
      2204.0000         0.5463         0.6599         0.6319       -78.8042      -39.29803      0.1674342
      2204.5000         0.5458         0.6592         0.6292       -78.8066      -39.30043       0.167382
      2205.0000         0.5452         0.7138         0.6205       -78.8097      -39.30353      0.1673146
      2205.5000         0.5447         0.7131         0.6185       -78.8121      -39.30593      0.1672624
      2206.0000         0.5441         0.7121         0.5979       -77.1739      -37.66772      0.2028756
      2206.5000         0.5436         0.6558         0.5585       -74.9264      -35.42023      0.2517342
      2207.0000          0.543          0.655         0.4642       -72.8026      -33.29642      0.2979038
      2207.5000         0.5425         0.6542         0.5223       -70.5003      -30.99413      0.3479538
      2208.0000          0.542         0.6534         0.7083       -67.0754      -27.56923      0.4224081
      2208.5000         0.5414         0.5969         0.8082       -72.2632      -32.75703      0.3096299
      2209.0000         0.5409         0.5406         0.9718       -75.5084      -36.00223       0.239082
      2209.5000         0.4852         0.4841         1.0856       -76.6457      -37.13953      0.2143581
      2210.0000         0.4847         0.4834         1.1121       -77.1955      -37.68933      0.2024058
      2210.5000         0.4841          0.538         1.0631       -77.1983      -37.69213       0.202345
      2211.0000         0.4836         0.5373         1.0036       -75.7167      -36.21053      0.2345538
      2211.5000          0.483         0.5918          0.885        -62.979      -23.47283      0.5114602
      2212.0000         0.4825         0.5934         0.7836       -57.1309      -17.62473      0.6385928
      2212.5000         0.4818         0.6737          0.718       -48.7596      -9.253429      0.8205776
      2213.0000         0.4814         0.7561         0.7226       -44.2632      -4.757027      0.9183255
      2213.5000         0.4807         0.8898         0.7954       -42.1998      -2.693626       0.963182
      2214.0000         0.5354         1.0322         0.8654       -40.9298      -1.423626      0.9907907
      2214.5000         0.5348         1.1614         0.9395       -40.0165     -0.5103264              1
      2215.0000         0.5343         1.2528         0.9505        -39.472     0.03417206              1
      2215.5000         0.5337          1.252         0.9392       -39.4753     0.03087234              1
