#------------------------------------------------------------------------------
# Created by    : vladimir.rabinovich
# Created on    : 09/19/2023 17:22:53
#------------------------------------------------------------------------------
~Version Information Section
VERS.           2.0     :   CWLS log ASCII Standard - VERSION 2.0
WRAP.           NO      :   One line per depth step
~Well Information Section
#MNEM       .UNIT                                         VALUE :DESCRIPTION
#------------------------------------------------------------------------------
STRT        .FT                                            1498 :START DEPTH
STOP        .FT                                           11000 :STOP DEPTH
STEP        .FT                                             0.5 :STEP      
NULL        .                                           -999.25 :NULL      
COMP        .                                     CANNAN MORRIS :COMPANY   
WELL        .                                             GARTH :WELL      
FLD         .                                           WILDCAT :FIELD     
LOC         .                                                   :LOCATION  
CNTY        .                                          CHAMBERS :LOCATION  
STAT        .                                             TEXAS :STATE     
CTRY        .                                     UNITED STATES :COUNTRY   
SRVC        .                                                   :SERVICE COMPANY
DATE        .                             9/13/2023 11:19:11 AM :LOG DATE  
API         .                                    42071310360000 :API NUMBER
UWI         .                                    42071310360000 :UNIQUE WELL ID
XCOORD      .                                  1175356.83007784 :SURFACE X 
YCOORD      .                                  10818692.0839896 :SURFACE Y 
LAT         .                                        29.8017803 :LATITUDE  
LON         .                                       -94.4666967 :LONGITUDE 
ELEV        .FT                                              25 :ELEVATION VALUE
ELEV_TYPE   .                                                GL :ELEVATION REFERENCE TYPE
~Curve Information Section
#MNEM       .UNIT                                      API CODE :CURVE DESCRIPTION
#------------------------------------------------------------------------------
DEPT        .FT                                                 :DEPTH     
ILD         .OHMM                                               :          
SFL         .OHMM                                               :          
SP          .MV                                                 :          
SP_NORM     .MV                                                 :SP Normalized
VSH_SP      .V/V                                                :Volume of Shale from SP
~A        DEPTH            ILD            SFL             SP        SP_NORM         VSH_SP
# ...
      8450.0000         2.0907         1.7945       -17.9666      -6.338749      0.9432048
      8450.5000         1.7911         1.6755       -18.3561      -6.731562      0.9390259
      8451.0000         1.6224         1.5666       -18.7126      -7.091375      0.9351981
      8451.5000          1.417          1.464       -18.0623      -6.444387       0.942081
      8452.0000         1.3224         1.3708       -16.8623      -5.247702      0.9548117
      8452.5000         1.2579         1.2924       -15.5152      -3.903913      0.9691073
      8453.0000         1.2249         1.2492       -14.4428      -2.834826      0.9804806
      8453.5000         1.1924         1.2121       -13.5576       -1.95294      0.9898623
      8454.0000         1.1506         1.1765         -12.96      -1.358653      0.9961845
      8454.5000          1.075         1.1345       -12.3631     -0.7650661              1
      8455.0000         0.9824         1.0914       -11.9208     -0.3260794              1
      8455.5000         0.9086         1.0265        -11.584    0.007408142              1
      8456.0000          0.846         0.9318       -11.2472      0.3408947              1
      8456.5000         0.7833         0.8455       -10.9938      0.5909824              1
      8457.0000         0.7302         0.7687       -10.9397      0.6417694              1
      8457.5000         0.6887         0.7122       -10.8856      0.6925564              1
      8458.0000         0.6611         0.6835       -10.8721      0.7027435              1
      8458.5000         0.6484         0.6555       -11.0469      0.5246305              1
      8459.0000         0.6357         0.6899       -11.2218      0.3464174              1
      8459.5000         0.6744         0.7609       -11.3963      0.1686039              1
      8460.0000         0.7313          0.883       -11.7178      -0.156209              1
      8460.5000         0.8229         0.9915       -12.1147     -0.5564222              1
      8461.0000         0.9145         1.0887       -12.8784      -1.323435      0.9965592
      8461.5000         1.0061         1.1604       -13.8011      -2.249448       0.986708
      8462.0000          1.096          1.205       -14.7827      -3.234361      0.9762302
      8462.5000         1.1844         1.2495       -15.7716      -4.226574      0.9656748
      8463.0000         1.2653          1.294       -16.6537      -5.111987      0.9562554
      8463.5000          1.317         1.3201       -17.4451      -5.906701      0.9478011
      8464.0000         1.3342         1.3377       -17.4865      -5.951413      0.9473254
      8464.5000         1.3431         1.3434       -17.2994      -5.767627      0.9492806
      8465.0000          1.352         1.3476        -17.112      -5.583539      0.9512389
      8465.5000         1.3432          1.345       -16.9249      -5.399753      0.9531941
      8466.0000         1.3334         1.3425       -16.7123      -5.190465      0.9554206
      8466.5000         1.3202         1.3399       -16.4731      -4.954579        0.95793
      8467.0000          1.307         1.3374       -16.2335      -4.718291      0.9604437
      8467.5000         1.2938         1.3323        -15.994      -4.482105      0.9629563
      8468.0000         1.2824          1.327       -15.7547      -4.246118      0.9654669
      8468.5000         1.2715         1.3218       -15.9838      -4.478531      0.9629943
      8469.0000         1.2607         1.3165       -16.5617      -5.059745      0.9568112
      8469.5000         1.2498         1.3107       -17.2746      -5.775956      0.9491919
      8470.0000         1.2265         1.3048       -18.3064       -6.81107      0.9381801
      8470.5000         1.1804         1.3003       -19.6966      -8.204583      0.9233555
      8471.0000         1.1015         1.3067       -21.6008       -10.1121      0.9030628
      8471.5000         0.9974         1.3132       -26.3662      -14.88081      0.8523318
      8472.0000         0.9069         1.3241       -30.3023      -18.82022      0.8104232
      8472.5000         0.8278         1.3378       -34.4886      -23.00984      0.7658528
      8473.0000         0.7768          1.351       -38.8393      -27.36385      0.7195336
      8473.5000          0.767         1.3628       -40.3681      -28.89596      0.7032344
      8474.0000         0.7569         1.3801       -42.1913      -30.72247      0.6838035
      8474.5000         0.7465         1.3647       -44.1888      -32.72329      0.6625182
      8475.0000         0.7361         1.3266       -45.6145       -34.1523       0.647316
      8475.5000         0.7254          1.292       -46.9911      -35.53221      0.6326361
      8476.0000         0.7066         1.3461       -48.3187      -36.86312      0.6184774
      8476.5000         0.6877         1.4002       -49.8327      -38.38044      0.6023358
      8477.0000         0.6689         1.4831       -51.4106      -39.96165      0.5855144
      8477.5000         0.6496         1.5882        -53.278      -41.83237      0.5656131
      8478.0000         0.6268          1.692       -55.1699      -43.72758      0.5454513
      8478.5000          0.604         1.7952       -57.6434      -46.20439      0.5191022
      8479.0000         0.5813         1.8064       -62.8751       -51.4394      0.4634106
      8479.5000         0.5585         1.7624       -68.4651      -57.03272      0.4039072
      8480.0000         0.5357         1.7163       -75.6157      -64.18663      0.3278018
      8480.5000         0.5153         1.6702       -77.7407      -66.31494      0.3051602
      8481.0000         0.4913         1.6241       -75.0857      -63.66326      0.3333696
      8481.5000         0.5112         1.5875       -70.8011      -59.38197      0.3789152
      8482.0000         0.6671         1.9448       -62.2764      -50.86058      0.4695683
      8482.5000         1.0008          2.408       -56.1907       -44.7782      0.5342745
      8483.0000         1.2628         2.7253       -53.2608      -41.85161      0.5654084
      8483.5000         1.4873          3.118       -51.1725      -39.76662      0.5875891
      8484.0000         1.6236         3.5273       -49.3149      -37.91233      0.6073156
      8484.5000          1.739         4.1369       -47.7028      -36.30355      0.6244303
      8485.0000          1.813         4.5061       -46.8734      -35.47746      0.6332185
      8485.5000          1.852         4.8067       -48.8242      -37.43157      0.6124301
      8486.0000         1.8411         4.9076       -50.7775      -39.38819       0.591615
      8486.5000         1.7891         4.5541       -52.4388       -41.0528      0.5739064
      8487.0000         1.6679         4.3349       -53.9111      -42.52841      0.5582084
      8487.5000         1.5179         4.0962       -55.3859      -44.00652      0.5424838
      8488.0000         1.3688         3.6003       -56.8042      -45.42814      0.5273602
      8488.5000         1.2584         3.3319        -58.306      -46.93325      0.5113484
      8489.0000         1.1369         3.1422       -57.2606      -45.89117      0.5224344
      8489.5000         1.0615         2.9094       -50.8806      -39.51448      0.5902715
      8490.0000         1.0295         2.5745       -45.8697      -34.50689      0.6435437
      8490.5000         1.0169         1.3357       -41.1337      -29.77421      0.6938914
      8491.0000         1.0044         1.1451       -34.9499      -23.59372      0.7596413
      8491.5000         0.9918         1.1125       -24.4939      -13.14103      0.8708401
      8492.0000         0.9776         1.1274       -26.4128      -15.06324       0.850391
      8492.5000         0.9605         1.1562       -28.3293      -16.98306      0.8299675
      8493.0000         0.9434         1.2203        -30.636      -19.29307      0.8053929
      8493.5000         0.9263         1.2901       -33.0015      -21.66188      0.7801927
