#------------------------------------------------------------------------------
# Created by    : vladimir.rabinovich
# Created on    : 09/19/2023 17:22:28
#------------------------------------------------------------------------------
~Version Information Section
VERS.           2.0     :   CWLS log ASCII Standard - VERSION 2.0
WRAP.           NO      :   One line per depth step
~Well Information Section
#MNEM       .UNIT                                         VALUE :DESCRIPTION
#------------------------------------------------------------------------------
STRT        .FT                                            1650 :START DEPTH
STOP        .FT                                         10241.5 :STOP DEPTH
STEP        .FT                                             0.5 :STEP      
NULL        .                                           -999.25 :NULL      
COMP        .                                 HARRISON DAN J JR :COMPANY   
WELL        .                                    G R CANADA EST :WELL      
FLD         .                                           WILDCAT :FIELD     
LOC         .                                                   :LOCATION  
CNTY        .                                          CHAMBERS :LOCATION  
STAT        .                                             TEXAS :STATE     
CTRY        .                                     UNITED STATES :COUNTRY   
SRVC        .                                                   :SERVICE COMPANY
DATE        .                             9/13/2023 11:19:11 AM :LOG DATE  
API         .                                    42071032580000 :API NUMBER
UWI         .                                    42071032580000 :UNIQUE WELL ID
XCOORD      .                                   1124905.0652959 :SURFACE X 
YCOORD      .                                  10748564.4390152 :SURFACE Y 
LAT         .                                        29.6070806 :LATITUDE  
LON         .                                       -94.6226563 :LONGITUDE 
ELEV        .FT                                            14.3 :ELEVATION VALUE
ELEV_TYPE   .                                                KB :ELEVATION REFERENCE TYPE
~Curve Information Section
#MNEM       .UNIT                                      API CODE :CURVE DESCRIPTION
#------------------------------------------------------------------------------
DEPT        .FT                                                 :DEPTH     
CILD        .MMHO                                               :          
IND         .OHMM                                               :          
SN16        .OHMM                                               :          
SP          .MV                                                 :          
SP_NORM     .MV                                                 :SP Normalized
VSH_SP      .V/V                                                :Volume of Shale from SP
~A        DEPTH           CILD            IND           SN16             SP        SP_NORM         VSH_SP
# ...
      7350.0000        -999.25         0.3902         0.6179       -62.7642      -5.480572      0.9350642
      7350.5000       2059.841         0.3598         0.6119       -58.5557      -1.276039      0.9959995
      7351.0000       2041.693         0.3295         0.6119       -56.1628       1.112896              1
      7351.5000       1983.939         0.3292         0.6118       -56.1564       1.115334              1
      7352.0000       1933.538          0.359         0.6058       -55.5676       1.700169              1
      7352.5000       1880.405         0.3887         0.6058       -55.5706       1.693207              1
      7353.0000        1861.31         0.4184         0.6058       -56.7754      0.4844437              1
      7353.5000       1854.205         0.4181         0.6057        -58.001      -0.745121              1
      7354.0000       1848.963         0.4479         0.6117       -59.7844       -2.53249        0.97779
      7354.5000       1854.803         0.4775         0.6206       -61.6166      -4.368652       0.951179
      7355.0000       1857.477         0.4883         0.6295       -63.9947      -6.750717      0.9166563
      7355.5000       1866.408          0.507         0.6325       -65.2631      -8.023079      0.8982162
      7356.0000       1884.223         0.5367         0.6354       -67.0037      -9.767643      0.8729327
      7356.5000       1901.965         0.5364         0.6354       -67.0062      -9.774109       0.872839
      7357.0000       1909.198         0.5662         0.6354       -66.4091      -9.180973      0.8814352
      7357.5000       1913.594         0.5757         0.6294       -65.1648      -7.940639       0.899411
      7358.0000       1913.413         0.5956         0.6294       -64.0127      -6.792503      0.9160507
      7358.5000        1907.21         0.5952         0.6174       -63.3632      -6.146965      0.9254063
      7359.0000       1907.062          0.595         0.6114       -62.2169      -5.004627      0.9419619
      7359.5000       1898.313         0.5946         0.6114       -61.6187      -4.410389      0.9505741
      7360.0000       1888.736         0.5944         0.6113       -61.0213      -3.816956      0.9591746
      7360.5000       1886.706          0.594         0.6113       -60.4235      -3.223118      0.9677809
      7361.0000       1882.367          0.587         0.6113       -60.4272      -3.230785      0.9676698
      7361.5000       1882.205         0.5634         0.6112       -60.4297      -3.237247      0.9675761
      7362.0000       1881.996         0.5558         0.6112       -60.4332      -3.244713      0.9674679
      7362.5000       1887.836         0.5328         0.6112       -60.4357      -3.251175      0.9673743
      7363.0000       1896.661         0.5325         0.6111       -59.8386      -2.658039      0.9759704
      7363.5000       1905.433         0.5021         0.6171       -59.8412      -2.664604      0.9758753
      7364.0000       1913.527         0.4933          0.629       -59.6516      -2.478966      0.9785657
      7364.5000       1917.047         0.4715         0.6319       -59.2464      -2.077732      0.9843807
      7365.0000       1910.878         0.4412         0.6379       -58.6494      -1.484695      0.9929754
      7365.5000       1898.698         0.4409         0.6409        -58.652      -1.491261      0.9928803
      7366.0000       1885.722         0.4406         0.6408       -58.6555      -1.498722      0.9927722
      7366.5000       1856.411         0.4403         0.6408       -58.8578      -1.704987      0.9897828
      7367.0000       1838.183           0.44         0.6408       -61.0639      -3.915051      0.9577529
      7367.5000       1832.162         0.4697         0.6358       -62.3734      -5.228516      0.9387172
      7368.0000       1849.904         0.4694         0.6288       -64.6735      -7.532581      0.9053249
      7368.5000       1863.712         0.4779         0.6258       -65.2767      -8.139748      0.8965254
      7369.0000       1891.448         0.4989         0.6168       -65.2801      -8.147106      0.8964188
      7369.5000       1932.288         0.4985         0.6157        -65.165      -8.035973      0.8980294
      7370.0000       1968.922         0.5193         0.6107       -64.0849      -6.959835      0.9136256
      7370.5000       1956.247          0.528         0.6107       -63.3633      -6.242199      0.9240261
      7371.0000        1938.61         0.5277         0.6107       -62.2891      -5.171963      0.9395368
      7371.5000       1926.486         0.5467         0.6106       -60.8322      -3.719028      0.9605938
      7372.0000       1903.456         0.5572         0.6166       -59.8924      -2.783192      0.9741566
      7372.5000       1866.234         0.5568         0.6195       -58.5577      -1.452457      0.9934427
      7373.0000       1829.265         0.6005         0.6285       -57.4964     -0.3951187              1
      7373.5000       1758.079         0.6163         0.6344       -57.4991      -0.401783              1
      7374.0000       1711.072          0.646         0.6403       -57.5024     -0.4090462              1
      7374.5000       1637.947         0.6457         0.6453       -57.5051     -0.4157104              1
      7375.0000       1589.081         0.6754         0.6582       -57.5084     -0.4229774              1
      7375.5000       1539.348         0.6751         0.6671       -57.5111     -0.4296417              1
      7376.0000       1403.895         0.7048          0.682       -57.5144     -0.4369049              1
      7376.5000       1381.421         0.7346         0.7237       -57.5172     -0.4436684              1
      7377.0000       1373.583         0.7342         0.7894       -57.5204     -0.4508324              1
      7377.5000       1373.417          0.764         0.8013       -58.4565      -1.390896      0.9943348
      7378.0000       1373.212         0.7636         0.7953       -59.9289       -2.86726      0.9729382
      7378.5000       1373.055         0.7634         0.7714       -60.1034      -3.045727      0.9703518
      7379.0000       1372.841          0.733         0.7415       -61.1361       -4.08239      0.9553277
      7379.5000       1378.681         0.7327         0.7296       -61.7395      -4.689751      0.9465253
      7380.0000       1459.985         0.7324         0.7295       -62.3433      -5.297516      0.9377171
      7380.5000       1629.806         0.7021         0.7325       -62.3461      -5.304279      0.9376191
      7381.0000       1655.459         0.6717         0.7414       -62.3493      -5.311443      0.9375153
      7381.5000       1671.351         0.6715         0.7503       -62.9527      -5.918808      0.9287129
      7382.0000       1684.308         0.6411         0.7593       -62.9559      -5.925972      0.9286091
      7382.5000       1706.909         0.6108         0.7592       -62.3577      -5.331738      0.9372212
      7383.0000        1719.56         0.5804         0.7592       -61.7608        -4.7388      0.9458145
      7383.5000       1742.602         0.5501         0.7502       -61.1626      -4.144566      0.9544266
      7384.0000       1802.197         0.5198         0.7233       -60.5656      -3.551529      0.9630213
      7384.5000       1897.428         0.5195         0.6905        -60.464      -3.453892      0.9644364
      7385.0000         1921.6         0.4891         0.6516       -59.9708      -2.964653      0.9715267
      7385.5000       1900.268         0.4889         0.6307       -59.3728      -2.370621      0.9801359
      7386.0000       1849.359         0.4886         0.6157       -58.1752      -1.176987       0.997435
      7386.5000       1797.874         0.4883         0.6157        -57.577     -0.5827484              1
      7387.0000       1705.275         0.4879         0.6157       -56.9799     0.01038742              1
      7387.5000       1607.264         0.4877         0.6246       -56.3818      0.6045227              1
