#------------------------------------------------------------------------------
# Created by    : vladimir.rabinovich
# Created on    : 09/19/2023 17:22:55
#------------------------------------------------------------------------------
~Version Information Section
VERS.           2.0     :   CWLS log ASCII Standard - VERSION 2.0
WRAP.           NO      :   One line per depth step
~Well Information Section
#MNEM       .UNIT                                         VALUE :DESCRIPTION
#------------------------------------------------------------------------------
STRT        .FT                                            1527 :START DEPTH
STOP        .FT                                            8498 :STOP DEPTH
STEP        .FT                                             0.5 :STEP      
NULL        .                                           -999.25 :NULL      
COMP        .                           SAN JUAN EXPLORATION CO :COMPANY   
WELL        .                                MIDDLETON ETAL R M :WELL      
FLD         .                                           WILDCAT :FIELD     
LOC         .                                                   :LOCATION  
CNTY        .                                          CHAMBERS :LOCATION  
STAT        .                                             TEXAS :STATE     
CTRY        .                                     UNITED STATES :COUNTRY   
SRVC        .                                                   :SERVICE COMPANY
DATE        .                             9/13/2023 11:19:11 AM :LOG DATE  
API         .                                    42071022810000 :API NUMBER
UWI         .                                    42071022810000 :UNIQUE WELL ID
XCOORD      .                                  1136491.54221464 :SURFACE X 
YCOORD      .                                  10781024.2027564 :SURFACE Y 
LAT         .                                        29.6967824 :LATITUDE  
LON         .                                       -94.5875983 :LONGITUDE 
ELEV        .FT                                              24 :ELEVATION VALUE
ELEV_TYPE   .                                                DF :ELEVATION REFERENCE TYPE
~Curve Information Section
#MNEM       .UNIT                                      API CODE :CURVE DESCRIPTION
#------------------------------------------------------------------------------
DEPT        .FT                                                 :DEPTH     
LAT         .OHMM                                               :          
LN          .OHMM                                               :          
SN          .OHMM                                               :          
SP          .MV                                                 :          
SP_NORM     .MV                                                 :SP Normalized
VSH_SP      .V/V                                                :Volume of Shale from SP
~A        DEPTH            LAT             LN             SN             SP        SP_NORM         VSH_SP
# ...
      7075.0000         0.6858         0.6499         0.6566       -71.3021      -4.275734       0.963194
      7075.5000         0.6989         0.6427         0.6441        -70.682      -3.618591      0.9705776
      7076.0000         0.7121         0.6353         0.6317        -70.062      -2.961548      0.9779601
      7076.5000         0.7252         0.6279         0.6193       -69.1572      -2.019714      0.9885426
      7077.0000         0.7384         0.6205         0.6069       -68.0261     -0.8515701              1
      7077.5000         0.7515         0.6131         0.5945       -66.8961      0.3154678              1
      7078.0000         0.7647         0.6125         0.5908       -65.8251       1.423508              1
      7078.5000         0.7778         0.6225         0.6004       -65.6459       1.639755              1
      7079.0000         0.7906         0.6326         0.6101       -65.4667       1.855995              1
      7079.5000         0.8008         0.6426         0.6198       -65.5515       1.808235              1
      7080.0000          0.811         0.6527         0.6294       -66.3917       1.005074              1
      7080.5000         0.8212         0.6627         0.6391       -67.2319      0.2019119              1
      7081.0000         0.7908         0.6737         0.6488       -68.0721     -0.6012421              1
      7081.5000         0.7595          0.686         0.6663       -68.9124      -1.404503       0.995455
      7082.0000         0.7282         0.6982         0.6853       -70.4781      -2.933167      0.9782791
      7082.5000         0.6969         0.7104         0.7043        -72.062      -4.480019      0.9608986
      7083.0000         0.6662         0.7227         0.7234       -73.6908      -6.071785      0.9430137
      7083.5000         0.6546         0.7349         0.7424       -75.6654      -8.009338      0.9212434
      7084.0000          0.643         0.7459         0.7615       -77.6177      -9.924599      0.8997236
      7084.5000         0.6314         0.7405         0.7635       -79.0577      -11.32756        0.88396
      7085.0000         0.6198         0.7352         0.7572       -80.4955      -12.72832      0.8682212
      7085.5000           0.62         0.7298         0.7509       -82.1444      -14.34018      0.8501104
      7086.0000         0.6257         0.7245         0.7446        -83.863      -16.02174      0.8312165
      7086.5000         0.6315           0.72         0.7383        -86.022       -18.1437      0.8073742
      7087.0000         0.6373         0.7208          0.723        -84.564      -16.64866      0.8241724
      7087.5000          0.643         0.7217         0.7069       -82.2837      -14.33131        0.85021
      7088.0000         0.6488         0.7226         0.6908       -80.0057      -12.01627      0.8762217
      7088.5000         0.6546         0.7234         0.6748       -78.5994      -10.57294      0.8924389
      7089.0000         0.6603         0.7243         0.6587       -77.2538      -9.190292      0.9079742
      7089.5000         0.6661         0.7252         0.6429       -75.9103      -7.809753      0.9234859
      7090.0000          0.666         0.7306         0.6588       -74.9634      -6.825813      0.9345414
      7090.5000         0.6656         0.7393         0.6747       -74.2557       -6.08107      0.9429093
      7091.0000         0.6653         0.7479         0.6907       -73.5492      -5.337532      0.9512637
      7091.5000         0.6649         0.7565         0.7066       -72.8416      -4.592888      0.9596305
      7092.0000         0.6646         0.7651         0.7225       -72.5692      -4.283447      0.9631073
      7092.5000         0.6642         0.7738         0.7384       -72.6353      -4.312508      0.9627808
      7093.0000         0.6639         0.7824         0.7544        -73.019      -4.659164      0.9588858
      7093.5000         0.6635          0.791         0.7687       -73.9344      -5.537521      0.9490166
      7094.0000         0.6632         0.7968         0.7822       -74.8511      -6.417175      0.9391329
      7094.5000         0.6628         0.7994         0.7957       -75.7665       -7.29554      0.9292636
      7095.0000         0.6628         0.8019         0.8092       -75.8126      -7.304596      0.9291618
      7095.5000         0.6674         0.8044         0.8227       -75.4554      -6.910355      0.9335915
      7096.0000         0.6719         0.8069         0.8362         -75.21      -6.627914       0.936765
      7096.5000         0.6764         0.8095         0.8466        -75.019      -6.399872      0.9393273
      7097.0000         0.6809          0.812         0.8265       -74.8278      -6.171631      0.9418918
      7097.5000         0.6855         0.8037         0.8063       -75.0465      -6.353294      0.9398506
      7098.0000           0.69         0.7944         0.7862       -75.4678      -6.737549      0.9355332
      7098.5000         0.6945         0.7851         0.7661       -75.7919      -7.024612      0.9323077
      7099.0000         0.7009         0.7759         0.7459       -75.3043      -6.499969      0.9382026
      7099.5000          0.718         0.7666         0.7258       -74.8174      -5.976028      0.9440896
      7100.0000         0.7352         0.7573          0.712       -74.3304      -5.451988      0.9499776
      7100.5000         0.7523         0.7489         0.7079       -73.8429      -4.927452      0.9558713
      7101.0000         0.7694         0.7451         0.7038        -73.356      -4.403511      0.9617583
      7101.5000         0.7866         0.7413         0.6998       -72.8478      -3.858269      0.9678846
      7102.0000         0.8037         0.7375         0.6957       -72.3287      -3.302124      0.9741334
      7102.5000         0.8209         0.7337         0.6916       -71.8098      -2.746185      0.9803799
      7103.0000         0.8294         0.7299         0.7117       -71.2909      -2.190247      0.9866264
      7103.5000         0.8321         0.7261          0.732        -70.772      -1.636337      0.9928501
      7104.0000         0.8349         0.7245         0.7524       -70.2529      -1.119942      0.9986523
      7104.5000         0.8376         0.7263         0.7728        -69.734     -0.6037521              1
      7105.0000         0.8404          0.728         0.7931       -69.7188     -0.5912628              1
      7105.5000         0.8417         0.7298         0.8135       -69.7592     -0.6343765              1
      7106.0000         0.8411         0.7316         0.8338       -69.7994     -0.6772842              1
      7106.5000         0.8405         0.7334         0.8373       -69.8929     -0.7734909              1
      7107.0000         0.8399         0.7351         0.8353       -70.3248      -1.208099      0.9976618
      7107.5000         0.8394         0.7369         0.8332       -70.7567      -1.642708      0.9927785
      7108.0000         0.8388         0.7332         0.8312       -71.1886      -2.077316      0.9878953
      7108.5000         0.8382         0.7258         0.8292       -71.6206      -2.512024      0.9830109
      7109.0000         0.8537         0.7184         0.8253       -72.0525      -2.946632      0.9781277
      7109.5000         0.8717          0.711         0.8122       -72.4844      -3.381241      0.9732445
      7110.0000         0.8896         0.7036          0.799       -72.0698      -2.969353      0.9778724
      7110.5000         0.9076         0.6962         0.7859       -71.1173      -2.019569      0.9885442
      7111.0000         0.9256         0.6888         0.7728       -70.1648      -1.069778       0.999216
      7111.5000         0.9427         0.6811         0.7596       -69.2336     -0.1412811              1
      7112.0000         0.9483         0.6725         0.7465       -68.3699      0.7197037              1
      7112.5000         0.9539         0.6639         0.7333       -67.7515       1.335396              1
