#------------------------------------------------------------------------------
# Created by    : vladimir.rabinovich
# Created on    : 09/19/2023 17:22:28
#------------------------------------------------------------------------------
~Version Information Section
VERS.           2.0     :   CWLS log ASCII Standard - VERSION 2.0
WRAP.           NO      :   One line per depth step
~Well Information Section
#MNEM       .UNIT                                         VALUE :DESCRIPTION
#------------------------------------------------------------------------------
STRT        .FT                                            1650 :START DEPTH
STOP        .FT                                         10241.5 :STOP DEPTH
STEP        .FT                                             0.5 :STEP      
NULL        .                                           -999.25 :NULL      
COMP        .                                 HARRISON DAN J JR :COMPANY   
WELL        .                                    G R CANADA EST :WELL      
FLD         .                                           WILDCAT :FIELD     
LOC         .                                                   :LOCATION  
CNTY        .                                          CHAMBERS :LOCATION  
STAT        .                                             TEXAS :STATE     
CTRY        .                                     UNITED STATES :COUNTRY   
SRVC        .                                                   :SERVICE COMPANY
DATE        .                             9/13/2023 11:19:11 AM :LOG DATE  
API         .                                    42071032580000 :API NUMBER
UWI         .                                    42071032580000 :UNIQUE WELL ID
XCOORD      .                                   1124905.0652959 :SURFACE X 
YCOORD      .                                  10748564.4390152 :SURFACE Y 
LAT         .                                        29.6070806 :LATITUDE  
LON         .                                       -94.6226563 :LONGITUDE 
ELEV        .FT                                            14.3 :ELEVATION VALUE
ELEV_TYPE   .                                                KB :ELEVATION REFERENCE TYPE
~Curve Information Section
#MNEM       .UNIT                                      API CODE :CURVE DESCRIPTION
#------------------------------------------------------------------------------
DEPT        .FT                                                 :DEPTH     
CILD        .MMHO                                               :          
IND         .OHMM                                               :          
SN16        .OHMM                                               :          
SP          .MV                                                 :          
SP_NORM     .MV                                                 :SP Normalized
VSH_SP      .V/V                                                :Volume of Shale from SP
~A        DEPTH           CILD            IND           SN16             SP        SP_NORM         VSH_SP
# ...
      4500.0000        -999.25         0.6306         0.8598       -83.4835      -21.45668      0.7564681
      4500.5000        -999.25         0.7506         0.9253       -94.8985      -32.87399      0.6205477
      4501.0000        -999.25         0.8403         0.9119       -92.3555      -30.33331      0.6507939
      4501.5000        -999.25         0.9599         0.8774       -85.8954      -23.87553      0.7276723
      4502.0000        -999.25         1.1201         0.8714       -79.4995      -17.48193      0.8037865
      4502.5000        -999.25         1.3194         0.9011         -74.49      -12.47475      0.8633958
      4503.0000        -999.25         1.3846         0.9606       -72.5448      -10.53187      0.8865254
      4503.5000        -999.25         1.4686         1.2951       -70.8923      -8.881687      0.9061704
      4504.0000        -999.25         1.4983         1.4465       -70.2941      -8.285797      0.9132643
      4504.5000        -999.25         1.3777         1.6054       -69.6971      -7.691113      0.9203439
      4505.0000        -999.25         1.2173         1.6566       -67.7744      -5.770729      0.9432056
      4505.5000        -999.25         1.1365         1.7247       -64.8982      -2.896847      0.9774185
      4506.0000        -999.25         1.0642         1.6931       -68.1599      -6.160854      0.9385613
      4506.5000        -999.25         1.0456         1.5634       -74.5585      -12.56178      0.8623598
      4507.0000        -999.25         1.0011         1.5017        -78.121      -16.12659      0.8199216
      4507.5000        -999.25         0.9846         1.4677       -78.7241        -16.732      0.8127143
      4508.0000        -999.25         0.9922         1.4378       -78.7275      -16.73772      0.8126462
      4508.5000        -999.25         1.0137         1.4195       -78.7301      -16.74264      0.8125876
      4509.0000        -999.25         1.0433         1.3899       -78.7335      -16.74835      0.8125197
      4509.5000        -999.25          1.047         1.3769        -77.374      -15.39117      0.8286766
      4510.0000        -999.25         1.0724          1.348       -75.7365      -13.75598      0.8481431
      4510.5000        -999.25         1.1021         1.3232       -74.5376      -12.55939      0.8623882
      4511.0000        -999.25         1.1015         1.2703       -73.9405      -11.96461       0.869469
      4511.5000        -999.25         1.1396         1.1959       -73.0866      -11.11303      0.8796068
      4512.0000        -999.25         1.1607          1.109       -71.5442      -9.572937      0.8979412
      4512.5000        -999.25         1.1603         1.0834       -67.9441      -5.975155      0.9407719
      4513.0000        -999.25         1.1899          1.073        -66.088      -4.121368      0.9628409
      4513.5000        -999.25         1.1894          1.073        -64.346      -2.381687      0.9835513
      4514.0000        -999.25          1.189         1.0789        -64.349      -2.386997      0.9834881
      4514.5000        -999.25         1.1885         1.0931        -64.953      -2.993317        0.97627
      4515.0000        -999.25         1.1881         1.1086       -66.2836      -4.326229       0.960402
      4515.5000        -999.25         1.1875         1.1205        -67.962      -6.006943      0.9403936
      4516.0000        -999.25         1.1872         1.1264       -68.7397      -6.786961      0.9311076
      4516.5000        -999.25         1.1473         1.1263       -69.1692      -7.218773       0.925967
      4517.0000        -999.25         1.0912         1.1195        -69.172      -7.223888      0.9259061
      4517.5000        -999.25         1.0356         1.0665       -69.1751      -7.229309      0.9258416
      4518.0000        -999.25         1.0052          1.023       -68.3051      -6.361618      0.9361712
      4518.5000        -999.25         0.9632         0.9769       -66.7787      -4.837536      0.9543151
      4519.0000        -999.25         0.9442          0.957       -64.9805      -3.041649      0.9756947
      4519.5000        -999.25         0.9137          0.923       -63.7385      -1.801964      0.9904528
      4520.0000        -999.25         0.9021          0.917       -61.9834    -0.04917908              1
      4520.5000        -999.25         0.8828         0.9169       -61.2927      0.6392021              1
      4521.0000        -999.25         0.8691         0.9109       -60.1872        1.74239              1
      4521.5000        -999.25         0.8519         0.8989       -60.0486       1.878674              1
      4522.0000        -999.25         0.8514          0.869       -59.5927       2.332256              1
      4522.5000        -999.25          0.851         0.8928       -59.5957       2.326946              1
      4523.0000        -999.25         0.8506          0.919       -59.5989        2.32143              1
      4523.5000        -999.25         0.8501         0.9404       -59.6017       2.316315              1
      4524.0000        -999.25         0.8496         0.9583       -59.6048       2.310898              1
      4524.5000        -999.25         0.8492         0.9702       -59.6078       2.305584              1
      4525.0000        -999.25         0.8487          0.982       -60.2114       1.699669              1
      4525.5000        -999.25         0.8483          0.982        -60.215       1.693752              1
      4526.0000        -999.25         0.8779          0.976       -60.8775       1.028938              1
      4526.5000        -999.25         0.8872         0.9753       -62.0227      -0.118576              1
      4527.0000        -999.25          0.907         0.9737       -63.2265      -1.324692      0.9961346
      4527.5000        -999.25         0.9367         0.9768       -63.8305      -1.931007      0.9889166
      4528.0000        -999.25         0.9361         1.0115       -63.8332       -1.93602      0.9888569
      4528.5000        -999.25         0.9497         1.0526       -63.8365      -1.941635        0.98879
      4529.0000        -999.25         0.9653          1.107       -63.6351      -1.742554      0.9911601
      4529.5000        -999.25         0.9948          1.157       -62.6412     -0.7509689              1
      4530.0000        -999.25         1.0255         1.2203       -61.5368      0.3511162              1
      4530.5000        -999.25          1.054         1.2562       -59.6442       2.241405              1
      4531.0000        -999.25         1.0857         1.2918       -60.2483       1.634991              1
      4531.5000        -999.25         1.1432         1.3204       -60.8767       1.004272              1
      4532.0000        -999.25         1.1792         1.3573       -62.6567     -0.7780418              1
      4532.5000        -999.25         1.2624         1.3867       -63.3344      -1.458057      0.9945469
      4533.0000        -999.25         1.3221          1.405       -64.4645      -2.590473      0.9810658
      4533.5000        -999.25         1.3516         1.4109       -65.0677      -3.195992      0.9738572
      4534.0000        -999.25         1.3618         1.4037        -65.071      -3.201603      0.9737905
      4534.5000        -999.25         1.3808         1.3153       -64.3032      -2.436115      0.9829034
      4535.0000        -999.25         1.3803         1.2588       -63.2752      -1.410431      0.9951139
      4535.5000        -999.25         1.3498         1.2017        -62.677     -0.8145447              1
      4536.0000        -999.25         1.3193         1.1628       -62.6805     -0.8203621              1
      4536.5000        -999.25         1.2889          1.118       -62.6835      -0.825676              1
      4537.0000        -999.25         1.2883         1.0808       -62.6865     -0.8309937              1
      4537.5000        -999.25         1.2405         1.0642       -62.6901     -0.8369102              1
