#------------------------------------------------------------------------------
# Created by    : vladimir.rabinovich
# Created on    : 09/19/2023 17:22:50
#------------------------------------------------------------------------------
~Version Information Section
VERS.           2.0     :   CWLS log ASCII Standard - VERSION 2.0
WRAP.           NO      :   One line per depth step
~Well Information Section
#MNEM       .UNIT                                         VALUE :DESCRIPTION
#------------------------------------------------------------------------------
STRT        .FT                                          1999.5 :START DEPTH
STOP        .FT                                            9645 :STOP DEPTH
STEP        .FT                                             0.5 :STEP      
NULL        .                                           -999.25 :NULL      
COMP        .                          STANDARD OIL CO OF TEXAS :COMPANY   
WELL        .                                  STATE TRACT 1-4D :WELL      
FLD         .                                           WILDCAT :FIELD     
LOC         .                                                   :LOCATION  
CNTY        .                                          CHAMBERS :LOCATION  
STAT        .                                             TEXAS :STATE     
CTRY        .                                     UNITED STATES :COUNTRY   
SRVC        .                                                   :SERVICE COMPANY
DATE        .                             9/13/2023 11:19:11 AM :LOG DATE  
API         .                                    42071032270000 :API NUMBER
UWI         .                                    42071032270000 :UNIQUE WELL ID
XCOORD      .                                  1086986.65859336 :SURFACE X 
YCOORD      .                                  10762945.0682871 :SURFACE Y 
LAT         .                                        29.6451099 :LATITUDE  
LON         .                                       -94.7426468 :LONGITUDE 
ELEV        .FT                                              20 :ELEVATION VALUE
ELEV_TYPE   .                                                DF :ELEVATION REFERENCE TYPE
~Curve Information Section
#MNEM       .UNIT                                      API CODE :CURVE DESCRIPTION
#------------------------------------------------------------------------------
DEPT        .FT                                                 :DEPTH     
DT          .US/F                                               :          
IND         .OHMM                                               :          
SN          .OHMM                                               :          
SP          .MV                                                 :          
SP_NORM     .MV                                                 :SP Normalized
VSH_SP      .V/V                                                :Volume of Shale from SP
~A        DEPTH             DT            IND             SN             SP        SP_NORM         VSH_SP
# ...
      8573.5000       104.3269         0.7648         0.9804       -48.6275      -6.652191      0.9364922
      8574.0000       105.8961          0.749         0.9647       -49.0196      -7.044292      0.9320866
      8574.5000       107.7596         0.7486         0.9529       -49.0196      -7.044292      0.9320866
      8575.0000       108.5025         0.7443         0.9294        -47.451      -5.475693      0.9497113
      8575.5000       109.8205         0.7323         0.9098       -45.8824      -3.907093      0.9673361
      8576.0000       110.9767         0.7255         0.8824       -44.3137      -2.338394      0.9849619
      8576.5000       109.8163         0.7005         0.8667       -42.7451     -0.7697906              1
      8577.0000       107.6672         0.6912         0.7843       -41.1765      0.7988091              1
      8577.5000       105.7496         0.6842         0.7882       -39.6078       2.367508              1
      8578.0000        104.943         0.6683         0.8784       -39.6078       2.367508              1
      8578.5000       107.0598         0.6679         0.8824       -48.2353      -6.259991       0.940899
      8579.0000       112.4194          0.652         0.8784       -48.2353      -6.259991       0.940899
      8579.5000       114.7643         0.6362         0.8588       -46.2745      -4.299194      0.9629304
      8580.0000       114.5935         0.6348         0.8392       -44.3137      -2.338394      0.9849619
      8580.5000       112.9142         0.6176         0.8196       -41.9608     0.01450729              1
      8581.0000        109.195          0.604         0.7922            -40       1.975307              1
      8581.5000       107.2214         0.6036         0.7961       -38.8235       3.151806              1
      8582.0000       106.1782         0.6032            0.8       -37.6471       4.328209              1
      8582.5000       106.9513         0.6028         0.8039            -40       1.975307              1
      8583.0000       108.2059         0.6025            0.8       -44.3137      -2.338394      0.9849619
      8583.5000       110.6446         0.6175         0.7922       -47.0588      -5.083492      0.9541181
      8584.0000       111.2814         0.6327         0.7922       -45.8824      -3.907093      0.9673361
      8584.5000       110.6443         0.6633         0.8078       -44.7059      -2.730591      0.9805552
      8585.0000       107.3426         0.7249         0.8902       -43.5294      -1.554092      0.9937742
      8585.5000       103.0052         0.7866         0.9451       -42.3529      -0.377594              1
      8586.0000       100.4876         0.8815         1.0039       -41.1765      0.7988091              1
      8586.5000         95.827         0.9934         1.0353       -41.1765      0.7988091              1
      8587.0000         94.961         1.1372         1.2392       -41.5686      0.4067078              1
      8587.5000        93.4615         1.3849         1.3098       -43.1373      -1.161991      0.9981799
      8588.0000        89.2874         1.5404          1.592       -44.7059      -2.730591      0.9805552
      8588.5000        85.1381         1.5904         1.9804       -45.8824      -3.907093      0.9673361
      8589.0000        80.9888         1.6056         2.0196        -47.451      -5.475693      0.9497113
      8589.5000        76.8395         1.5896         2.0784       -49.0196      -7.044292      0.9320866
      8590.0000         79.372         1.5582         2.1373       -50.5882      -8.612892      0.9144619
      8590.5000        85.4462         1.4958         2.0392       -50.1961      -8.220791      0.9188675
      8591.0000        88.9263         1.3869         1.7176       -49.0196      -7.044292      0.9320866
      8591.5000        90.9368          1.216         1.6627       -47.8431      -5.867794      0.9453057
      8592.0000        90.0084         1.1217         1.6078       -47.0588      -5.083492      0.9541181
      8592.5000        89.8708         1.0585         1.6078       -50.5882      -8.612892      0.9144619
      8593.0000         87.188         1.0259         1.6824       -56.0784      -14.10309      0.8527743
      8593.5000        82.8923         0.9974         1.8235       -62.3529      -20.37759      0.7822742
      8594.0000        76.4092         0.9815         1.8941       -62.3529      -20.37759      0.7822742
      8594.5000        72.9923         0.9744         1.8941            -60      -18.02469      0.8087113
      8595.0000        77.4776         0.9343         1.6902       -57.6471      -15.67179      0.8351484
      8595.5000         86.238         0.8873          1.552       -53.3333      -11.35799      0.8836181
      8596.0000        97.1737         0.8714          1.416       -49.0196      -7.044292      0.9320866
      8596.5000        99.6732         0.8555         1.2078       -44.7059      -2.730591      0.9805552
      8597.0000        98.7938         0.8552         1.0706            -40       1.975307              1
      8597.5000        97.2782         0.8548         1.0667            -40       1.975307              1
      8598.0000         95.032         0.8544         1.1059       -41.5686      0.4067078              1
      8598.5000        92.9954          0.854         1.1686       -43.5294      -1.554092      0.9937742
      8599.0000        90.7497          0.851            1.2       -46.2745      -4.299194      0.9629304
      8599.5000        89.5143         0.8338         1.1922       -46.2745      -4.299194      0.9629304
      8600.0000        92.8267         0.8064         1.1137       -45.4902      -3.514893      0.9717428
      8600.5000        98.8565         0.7621         1.0588       -43.5294      -1.554092      0.9937742
      8601.0000       103.7656         0.7048         1.0078       -41.1765      0.7988091              1
      8601.5000       107.1468         0.6567         0.9255       -42.3529      -0.377594              1
      8602.0000       110.5281         0.6497         0.8784       -42.7451     -0.7697906              1
      8602.5000       111.0859         0.6338         0.8706       -43.9216      -1.946293      0.9893675
      8603.0000        108.592          0.649         0.8745       -45.4902      -3.514893      0.9717428
      8603.5000       109.0648         0.6796         0.9059       -46.2745      -4.299194      0.9629304
      8604.0000       109.1063         0.7257         0.9451        -47.451      -5.475693      0.9497113
      8604.5000       105.5125          0.774         1.1137       -49.0196      -7.044292      0.9320866
      8605.0000        98.3977         0.8203         1.1686       -50.9804      -9.005093      0.9100552
      8605.5000        90.5613         0.8522           1.48       -53.7255      -11.75019      0.8792114
      8606.0000        83.6585         0.8638          1.484       -56.4706      -14.49529      0.8483675
      8606.5000         88.858         0.8789           1.48       -58.8235      -16.84819      0.8219304
      8607.0000         93.504         0.8785            1.4       -57.2549      -15.27959      0.8395551
      8607.5000        98.1501         0.8626         1.2784       -53.7255      -11.75019      0.8792114
      8608.0000       102.7961         0.8466            1.2       -50.1961      -8.220791      0.9188675
      8608.5000       107.7869         0.8307         1.1216       -50.1961      -8.220791      0.9188675
      8609.0000       104.8513         0.7994         1.0784       -51.7647      -9.789394      0.9012427
      8609.5000        99.1711          0.768         1.0863       -55.2941      -13.31879      0.8615866
      8610.0000        93.0915         0.7366          1.149       -58.8235      -16.84819      0.8219304
      8610.5000        91.9231         0.7362         1.2667       -61.1765      -19.20119      0.7954922
      8611.0000        92.3777         0.7358         1.2667       -60.7843      -18.80899      0.7998989
