#------------------------------------------------------------------------------
# Created by    : vladimir.rabinovich
# Created on    : 09/19/2023 17:22:50
#------------------------------------------------------------------------------
~Version Information Section
VERS.           2.0     :   CWLS log ASCII Standard - VERSION 2.0
WRAP.           NO      :   One line per depth step
~Well Information Section
#MNEM       .UNIT                                         VALUE :DESCRIPTION
#------------------------------------------------------------------------------
STRT        .FT                                          1999.5 :START DEPTH
STOP        .FT                                            9645 :STOP DEPTH
STEP        .FT                                             0.5 :STEP      
NULL        .                                           -999.25 :NULL      
COMP        .                          STANDARD OIL CO OF TEXAS :COMPANY   
WELL        .                                  STATE TRACT 1-4D :WELL      
FLD         .                                           WILDCAT :FIELD     
LOC         .                                                   :LOCATION  
CNTY        .                                          CHAMBERS :LOCATION  
STAT        .                                             TEXAS :STATE     
CTRY        .                                     UNITED STATES :COUNTRY   
SRVC        .                                                   :SERVICE COMPANY
DATE        .                             9/13/2023 11:19:11 AM :LOG DATE  
API         .                                    42071032270000 :API NUMBER
UWI         .                                    42071032270000 :UNIQUE WELL ID
XCOORD      .                                  1086986.65859336 :SURFACE X 
YCOORD      .                                  10762945.0682871 :SURFACE Y 
LAT         .                                        29.6451099 :LATITUDE  
LON         .                                       -94.7426468 :LONGITUDE 
ELEV        .FT                                              20 :ELEVATION VALUE
ELEV_TYPE   .                                                DF :ELEVATION REFERENCE TYPE
~Curve Information Section
#MNEM       .UNIT                                      API CODE :CURVE DESCRIPTION
#------------------------------------------------------------------------------
DEPT        .FT                                                 :DEPTH     
DT          .US/F                                               :          
IND         .OHMM                                               :          
SN          .OHMM                                               :          
SP          .MV                                                 :          
SP_NORM     .MV                                                 :SP Normalized
VSH_SP      .V/V                                                :Volume of Shale from SP
~A        DEPTH             DT            IND             SN             SP        SP_NORM         VSH_SP
# ...
      6065.5000       111.5199         0.2879         0.6392      -121.1765      -79.20119       0.121335
      6066.0000       113.1742         0.2884         0.6392      -118.0392      -76.06389      0.1565855
      6066.5000       112.3756         0.2735         0.5412       -114.902       -72.9267      0.1918349
      6067.0000       109.8966         0.2654         0.5098      -113.3333      -71.35799      0.2094608
      6067.5000       108.5424         0.2435         0.4824      -113.7255       -71.7502       0.205054
      6068.0000       107.9635         0.2441         0.4588      -119.6078      -77.63249      0.1389608
      6068.5000       109.6653         0.2447          0.451      -124.7059      -82.73059     0.08167876
      6069.0000       111.1884         0.2452         0.4392      -130.1961      -88.22079     0.01999107
      6069.5000       112.6908         0.2457         0.4353      -130.1961      -88.22079     0.01999107
      6070.0000       114.4612         0.2307         0.4431      -130.1961      -88.22079     0.01999107
      6070.5000       115.0906         0.2313         0.4667       -127.451      -85.47569     0.05083491
      6071.0000       115.1804         0.2318         0.4784      -121.9608      -79.98549      0.1125226
      6071.5000       115.2638         0.2324         0.4784      -119.2157      -77.24039      0.1433664
      6072.0000       115.2468         0.2329         0.4627      -120.3922      -78.41689      0.1301474
      6072.5000       116.1285          0.241         0.4471      -122.7451      -80.76979      0.1037102
      6073.0000       117.3243         0.2495         0.4275      -125.4902      -83.51489     0.07286637
      6073.5000        117.048         0.2501         0.4392      -127.8431       -85.8678     0.04642924
      6074.0000       116.5371         0.2506         0.4431      -130.9804      -89.00508     0.01117886
      6074.5000       115.7784         0.2511         0.4431      -130.9804      -89.00508     0.01117886
      6075.0000       114.4209         0.2517         0.4431      -128.6275      -86.65219     0.03761583
      6075.5000       112.0378         0.2522         0.4235      -125.8824      -83.90709     0.06845967
      6076.0000       111.0614         0.2527         0.4118      -124.7059      -82.73059     0.08167876
      6076.5000       111.1684         0.2533         0.4118      -127.0588       -85.0835     0.05524162
      6077.0000       112.3968         0.2382         0.4118      -129.4118      -87.43649     0.02880345
      6077.5000       112.6298         0.2388         0.4235      -131.7647      -89.78938    0.002366484
      6078.0000       111.7598         0.2483         0.4353      -133.3333      -91.35799              0
      6078.5000       111.2174         0.2554          0.451      -133.3333      -91.35799              0
      6079.0000       111.3776         0.2561         0.4627      -132.9412      -90.96588              0
      6079.5000       110.2127         0.2566         0.4706      -130.5882      -88.61288     0.01558557
      6080.0000       109.9034         0.2415         0.4588      -127.0588       -85.0835     0.05524162
      6080.5000       112.9973         0.2421         0.4588      -125.8824      -83.90709     0.06845967
      6081.0000       116.6809         0.2426         0.4706      -124.7059      -82.73059     0.08167876
      6081.5000       122.4389         0.2432         0.4824      -123.1373      -81.16199     0.09930351
      6082.0000       125.0631         0.2437          0.502      -121.5686      -79.59329      0.1169293
      6082.5000       124.1317         0.2443         0.5176      -120.3922      -78.41689      0.1301474
      6083.0000       121.0921         0.2448         0.5294      -118.0392      -76.06389      0.1565855
      6083.5000       115.9073         0.2453         0.4941      -116.4706      -74.49529      0.1742103
      6084.0000        112.159         0.2459         0.5569      -121.5686      -79.59329      0.1169293
      6084.5000       107.8177         0.2464         0.5765      -126.6667      -84.69139     0.05964729
      6085.0000       107.5547         0.2316            0.6      -132.1569      -90.18159              0
      6085.5000       108.3266         0.2321         0.6235      -129.4118      -87.43649     0.02880345
      6086.0000       111.7628         0.2326         0.6471      -126.6667      -84.69139     0.05964729
      6086.5000       114.0614         0.2331          0.651      -123.5294      -81.55409     0.09489784
      6087.0000       120.4838         0.2336          0.651      -121.9608      -79.98549      0.1125226
      6087.5000       120.8892         0.2342         0.6078      -125.8824      -83.90709     0.06845967
      6088.0000       117.2582         0.2347         0.5647      -130.1961      -88.22079     0.01999107
      6088.5000       114.6441         0.2352         0.5176      -130.1961      -88.22079     0.01999107
      6089.0000       110.8364         0.2358         0.4745      -129.4118      -87.43649     0.02880345
      6089.5000       108.8832         0.2363         0.4275       -127.451      -85.47569     0.05083491
      6090.0000        108.594         0.2369         0.4118      -125.8824      -83.90709     0.06845967
      6090.5000       110.2184         0.2219         0.5137      -124.6959       -82.7206     0.08179105
      6091.0000       113.1523         0.2225         0.6157      -125.4602      -83.48489     0.07320344
      6091.5000       117.5121          0.223         0.6706      -127.7934       -85.8181     0.04698764
      6092.0000       116.8704         0.2236         0.6706      -130.1266      -88.15129     0.02077201
      6092.5000       114.5344         0.2086         0.6627      -132.4599      -90.48459              0
      6093.0000       112.2102         0.2091         0.6157      -134.7934      -92.81808              0
      6093.5000       109.8333         0.2096         0.5686      -136.3426      -94.36729              0
      6094.0000       111.3157         0.2102         0.5804      -135.1462      -93.17088              0
      6094.5000       118.0709         0.1952         0.5961      -132.3808      -90.40549              0
      6095.0000       121.0876         0.1958         0.5922      -129.6152      -87.63989     0.02651806
      6095.5000       118.8769         0.1963         0.4824      -129.5953         -87.62     0.02674163
      6096.0000       115.2087         0.1968         0.4431      -129.5755      -87.60019     0.02696417
      6096.5000       112.2325         0.1974         0.4157      -129.5556      -87.58029     0.02718773
      6097.0000       109.3235         0.2135         0.4078      -129.1434      -87.16809     0.03181921
      6097.5000       107.9019          0.245         0.4078      -126.3774       -84.4021     0.06289776
      6098.0000       111.0732         0.2611         0.4118      -120.0805      -78.10519      0.1336495
      6098.5000       111.6148         0.2771         0.4314      -113.3932      -71.41789      0.2087877
      6099.0000       111.0627         0.3086         0.4627      -106.7062       -64.7309      0.2839225
      6099.5000       108.8311         0.3104         0.5176      -100.0196      -58.04429      0.3590529
      6100.0000       107.3941         0.3252         0.5725      -103.5294       -61.5541      0.3196169
      6100.5000       107.9809         0.3257          0.604      -106.2745      -64.29919      0.2887731
      6101.0000       107.9812         0.3263         0.5924      -111.7647       -69.7894      0.2270854
      6101.5000       108.1753         0.3268         0.5808      -117.2549      -75.27959      0.1653979
      6102.0000       109.5244         0.3195         0.6046      -120.3922      -78.41689      0.1301474
      6102.5000       112.6224         0.3124         0.6166      -118.0392      -76.06389      0.1565855
      6103.0000       114.9601          0.313         0.6129      -115.6863        -73.711      0.1830225
