#------------------------------------------------------------------------------
# Created by    : vladimir.rabinovich
# Created on    : 09/19/2023 17:22:28
#------------------------------------------------------------------------------
~Version Information Section
VERS.           2.0     :   CWLS log ASCII Standard - VERSION 2.0
WRAP.           NO      :   One line per depth step
~Well Information Section
#MNEM       .UNIT                                         VALUE :DESCRIPTION
#------------------------------------------------------------------------------
STRT        .FT                                            1650 :START DEPTH
STOP        .FT                                         10241.5 :STOP DEPTH
STEP        .FT                                             0.5 :STEP      
NULL        .                                           -999.25 :NULL      
COMP        .                                 HARRISON DAN J JR :COMPANY   
WELL        .                                    G R CANADA EST :WELL      
FLD         .                                           WILDCAT :FIELD     
LOC         .                                                   :LOCATION  
CNTY        .                                          CHAMBERS :LOCATION  
STAT        .                                             TEXAS :STATE     
CTRY        .                                     UNITED STATES :COUNTRY   
SRVC        .                                                   :SERVICE COMPANY
DATE        .                             9/13/2023 11:19:11 AM :LOG DATE  
API         .                                    42071032580000 :API NUMBER
UWI         .                                    42071032580000 :UNIQUE WELL ID
XCOORD      .                                   1124905.0652959 :SURFACE X 
YCOORD      .                                  10748564.4390152 :SURFACE Y 
LAT         .                                        29.6070806 :LATITUDE  
LON         .                                       -94.6226563 :LONGITUDE 
ELEV        .FT                                            14.3 :ELEVATION VALUE
ELEV_TYPE   .                                                KB :ELEVATION REFERENCE TYPE
~Curve Information Section
#MNEM       .UNIT                                      API CODE :CURVE DESCRIPTION
#------------------------------------------------------------------------------
DEPT        .FT                                                 :DEPTH     
CILD        .MMHO                                               :          
IND         .OHMM                                               :          
SN16        .OHMM                                               :          
SP          .MV                                                 :          
SP_NORM     .MV                                                 :SP Normalized
VSH_SP      .V/V                                                :Volume of Shale from SP
~A        DEPTH           CILD            IND           SN16             SP        SP_NORM         VSH_SP
# ...
      9060.0000       1207.152         0.8889         0.8508       -58.9742     -0.9530334              1
      9060.5000       1226.061         0.9191         0.8705       -59.5798      -1.547974      0.9920583
      9061.0000       1225.172         0.9192         0.8789       -60.1873      -2.144817      0.9834085
      9061.5000       1204.689         0.9303         0.8882       -60.8548      -2.801659       0.973889
      9062.0000       1177.332         0.9495         0.8969       -62.6016        -4.5378      0.9487275
      9062.5000       1144.158         0.9497         0.9001       -62.6773       -4.60284      0.9477849
      9063.0000       1105.536          0.942          0.906       -63.8147      -5.729584      0.9314553
      9063.5000        1077.64         0.9199         0.9059       -63.8963      -5.800529      0.9304271
      9064.0000       1039.728         0.8817         0.8999       -64.4272       -6.32077      0.9228874
      9064.5000       1008.744         0.8302         0.8867       -64.4323      -6.315208       0.922968
      9065.0000       997.3988         0.8003         0.8639       -64.4382      -6.310455      0.9230369
      9065.5000       1029.946         0.7704         0.8711       -64.4442      -6.305794      0.9231045
      9066.0000         1063.8         0.7706         0.9176        -64.451      -6.301933      0.9231604
      9066.5000       1099.764         0.7707         0.9439       -63.7618      -5.602077      0.9333032
      9067.0000       1105.777         0.7709          1.007       -63.2609      -5.090519      0.9407171
      9067.5000       1099.824          0.801         1.0428       -62.3167      -4.135662      0.9545556
      9068.0000       1087.281         0.8012         1.0427       -61.4718      -3.280106       0.966955
      9068.5000       1063.956         0.8013         1.0161       -60.8759      -2.673546      0.9757457
      9069.0000       1045.074         0.8015         0.9709       -60.2825      -2.069489      0.9845002
      9069.5000       1028.088         0.8016         0.9364       -60.2504       -2.02673      0.9851199
      9070.0000       1028.115         0.8018         0.8872       -59.6938      -1.459476      0.9933409
      9070.5000       1064.077         0.8019         0.8579        -59.699      -1.454018        0.99342
      9071.0000           1111         0.8021         0.8274       -59.7049      -1.449257       0.993489
      9071.5000       1159.945         0.8022         0.8134       -59.7109      -1.444599      0.9935566
      9072.0000       1187.996         0.8024         0.7974       -59.7175       -1.44054      0.9936153
      9072.5000       1225.874         0.8025         0.7914       -59.7228      -1.435184       0.993693
      9073.0000       1271.388         0.8027         0.7854       -59.7294      -1.431126      0.9937518
      9073.5000       1369.646         0.8028         0.7853       -60.3353      -2.026367      0.9851251
      9074.0000       1509.141         0.7586         0.7912       -62.1437      -3.824108      0.9590709
      9074.5000       1585.275          0.683         0.8517       -63.6329       -5.30265      0.9376428
      9075.0000       1902.677         0.5931         0.9762       -65.7592      -7.418293      0.9069813
      9075.5000       1920.665         0.5329         1.0896       -85.2664      -26.91484      0.6244227
      9076.0000       1884.773         0.4433         1.1196       -96.4017      -38.03948       0.463196
      9076.5000       1872.199         0.4434         1.1491        -100.47      -42.09712      0.4043896
      9077.0000       1860.876         0.4736         1.1554       -104.822      -46.43846      0.3414716
      9077.5000       1853.916         0.4752          1.161      -107.3902        -48.996      0.3044058
      9078.0000       1831.001         0.5339          1.019      -109.0382      -50.63335      0.2806761
      9078.5000       1810.349         0.5662         0.8325      -111.0102      -52.59469      0.2522509
      9079.0000       1765.193         0.6544         0.7907      -115.6566      -57.23043      0.1850662
      9079.5000       1728.436         0.6845         0.8324      -113.8721      -55.43527       0.211083
      9080.0000       1543.696         0.7448         0.9314       -94.0469      -35.59941      0.4985593
      9080.5000       1447.503         0.8049         1.0651       -90.6978      -32.23965      0.5472514
      9081.0000       1364.115         0.8051         1.1128       -91.0558        -32.587      0.5422174
      9081.5000       1280.307         0.8052         1.0889       -93.8288      -35.34933      0.5021836
      9082.0000       1280.343         0.8354         1.0274       -95.9869      -37.49678      0.4710611
      9082.5000        1265.64         0.8356         0.9574       -73.9048      -15.40402      0.7912461
      9083.0000       1238.487         0.8057         0.9102       -70.6588      -12.14736      0.8384441
      9083.5000       1196.607         0.8058         0.8677       -70.0633      -11.54121      0.8472288
      9084.0000       1227.757          0.776         0.8418       -68.2687       -9.73595       0.873392
      9084.5000       1376.308         0.7103         0.8258       -67.4734      -8.929989      0.8850726
      9085.0000       1426.846         0.6561         0.8033       -65.8782      -7.324131      0.9083459
      9085.5000       1496.128         0.5662         0.7779       -65.2823      -6.717579      0.9171365
      9086.0000       1560.125         0.5363         0.7236       -64.6889      -6.113522       0.925891
      9086.5000       1743.502         0.5365         0.6465       -63.8819       -5.29586      0.9377412
      9087.0000       1721.033         0.5066         0.5867       -62.8986      -4.301903      0.9521464
      9087.5000       1687.865         0.5368         0.6344       -60.8849      -2.277542      0.9814849
      9088.0000       1660.502         0.5369         0.6761       -59.9078      -1.289783      0.9958003
      9088.5000       1628.045         0.5671         0.7001       -58.7114    -0.08272552              1
      9089.0000       1589.833         0.5973         0.7178       -58.7185    -0.07916641              1
      9089.5000       1520.321         0.6362         0.7304       -58.1227      0.5272903              1
      9090.0000       1359.587         0.6877         0.7655       -57.5292       1.131443              1
      9090.5000       1167.088         0.7179         0.7779       -57.5349       1.136402              1
      9091.0000       1039.038         0.7781         0.7952       -58.1417      0.5402603              1
      9091.5000       1029.423         0.8181         0.8079       -59.8315      -1.138882      0.9979872
      9092.0000       1029.459         0.8985         0.8249       -62.3578      -3.654522      0.9615287
      9092.5000       1023.495         0.9287         0.8509       -65.0132      -6.299263      0.9231991
      9093.0000       1017.538         0.9288         0.8845       -67.1745      -8.449905      0.8920304
      9093.5000       1004.914          0.929         0.9122        -69.237      -10.50175      0.8622935
      9094.0000       993.6469         0.8991         0.9799       -70.1894      -11.44349      0.8486451
      9094.5000       987.6873         0.8275         1.0547       -70.1952      -11.43863      0.8487155
      9095.0000       1011.675         0.7793         1.0899       -69.6007      -10.83347      0.8574859
      9095.5000        1090.49         0.7071         0.9601       -68.1387      -9.360817      0.8788288
      9096.0000       1167.424         0.6895         0.8304       -65.4084      -6.619858      0.9185528
      9096.5000       1218.837         0.6596         0.7845       -62.4669      -3.667698      0.9613377
      9097.0000       1233.353         0.6598         0.7766        -61.216      -2.406143      0.9796211
      9097.5000       1233.381         0.6599         0.7705       -61.4987      -2.678185      0.9756785
