#------------------------------------------------------------------------------
# Created by    : vladimir.rabinovich
# Created on    : 09/19/2023 17:22:28
#------------------------------------------------------------------------------
~Version Information Section
VERS.           2.0     :   CWLS log ASCII Standard - VERSION 2.0
WRAP.           NO      :   One line per depth step
~Well Information Section
#MNEM       .UNIT                                         VALUE :DESCRIPTION
#------------------------------------------------------------------------------
STRT        .FT                                            1650 :START DEPTH
STOP        .FT                                         10241.5 :STOP DEPTH
STEP        .FT                                             0.5 :STEP      
NULL        .                                           -999.25 :NULL      
COMP        .                                 HARRISON DAN J JR :COMPANY   
WELL        .                                    G R CANADA EST :WELL      
FLD         .                                           WILDCAT :FIELD     
LOC         .                                                   :LOCATION  
CNTY        .                                          CHAMBERS :LOCATION  
STAT        .                                             TEXAS :STATE     
CTRY        .                                     UNITED STATES :COUNTRY   
SRVC        .                                                   :SERVICE COMPANY
DATE        .                             9/13/2023 11:19:11 AM :LOG DATE  
API         .                                    42071032580000 :API NUMBER
UWI         .                                    42071032580000 :UNIQUE WELL ID
XCOORD      .                                   1124905.0652959 :SURFACE X 
YCOORD      .                                  10748564.4390152 :SURFACE Y 
LAT         .                                        29.6070806 :LATITUDE  
LON         .                                       -94.6226563 :LONGITUDE 
ELEV        .FT                                            14.3 :ELEVATION VALUE
ELEV_TYPE   .                                                KB :ELEVATION REFERENCE TYPE
~Curve Information Section
#MNEM       .UNIT                                      API CODE :CURVE DESCRIPTION
#------------------------------------------------------------------------------
DEPT        .FT                                                 :DEPTH     
CILD        .MMHO                                               :          
IND         .OHMM                                               :          
SN16        .OHMM                                               :          
SP          .MV                                                 :          
SP_NORM     .MV                                                 :SP Normalized
VSH_SP      .V/V                                                :Volume of Shale from SP
~A        DEPTH           CILD            IND           SN16             SP        SP_NORM         VSH_SP
# ...
      6210.0000        -999.25         0.6276         0.6137        -58.392      -8.327583      0.9127669
      6210.5000        -999.25         0.6274         0.6544         -64.33      -14.26943      0.8420306
      6211.0000        -999.25         0.6273          0.733       -65.5337      -15.47697      0.8276551
      6211.5000        -999.25         0.6271          0.727        -65.537      -15.48412      0.8275701
      6212.0000        -999.25         0.5969         0.7085       -64.7968      -14.74775      0.8363363
      6212.5000        -999.25         0.5968          0.691       -62.5399       -12.4947      0.8631583
      6213.0000        -999.25         0.5966         0.6769       -59.3314      -9.290043       0.901309
      6213.5000        -999.25         0.5965         0.6551       -52.9361      -2.898582      0.9773978
      6214.0000        -999.25         0.5963         0.6355       -51.4755      -1.441822      0.9947402
      6214.5000        -999.25         0.5962         0.6311       -51.7408      -1.710968      0.9915361
      6215.0000        -999.25          0.566          0.631       -56.5491      -6.523109      0.9342487
      6215.5000        -999.25         0.5545         0.6369       -58.4552      -8.433052      0.9115113
      6216.0000        -999.25         0.5057         0.6429       -64.3628       -14.3445      0.8411369
      6216.5000        -999.25         0.5055         0.6547       -66.3913      -16.37683      0.8169425
      6217.0000        -999.25         0.4753         0.6726       -69.7741      -19.76348      0.7766252
      6217.5000        -999.25         0.4451         0.6849       -73.0382      -23.03143      0.7377211
      6218.0000        -999.25          0.415         0.7202       -79.9902      -29.98726      0.6549135
      6218.5000        -999.25         0.3848           0.75       -86.5951      -36.59601       0.576238
      6219.0000        -999.25         0.3546          0.732       -99.2152      -49.21996      0.4259529
      6219.5000        -999.25         0.3244           0.69      -105.2047      -55.21329      0.3546037
      6220.0000        -999.25         0.3243         0.6364      -105.2271      -55.23953      0.3542913
      6220.5000        -999.25         0.3241         0.6023      -101.0264      -51.04268      0.4042538
      6221.0000        -999.25         0.3239         0.5706       -95.9066      -45.92672       0.465158
      6221.5000        -999.25         0.3238         0.5441       -89.6209      -39.64487      0.5399421
      6222.0000        -999.25         0.3237         0.5287       -86.3396      -36.36741      0.5789594
      6222.5000        -999.25         0.3536         0.6242       -84.2213      -34.25295      0.6041316
      6223.0000        -999.25         0.3534         0.7681       -86.2261      -36.26159      0.5802191
      6223.5000        -999.25         0.3833         1.0061        -89.032      -39.07133      0.5467698
      6224.0000        -999.25         0.3831         1.0508       -92.8177      -42.86088      0.5016562
      6224.5000        -999.25         0.4014         1.0896      -100.4493      -50.49632      0.4107581
      6225.0000        -999.25         0.4432         1.0672      -107.0594      -57.11027      0.3320206
      6225.5000        -999.25         0.4728         1.0059      -113.6595      -63.71421      0.2534023
      6226.0000        -999.25         0.5027         0.8961       -118.539      -68.59755      0.1952673
      6226.5000        -999.25         0.5025         0.7789      -109.7451       -59.8075      0.2999108
      6227.0000        -999.25         0.5212         0.6995       -85.4495      -35.51574      0.5890984
      6227.5000        -999.25         0.5322         0.6534       -70.5615      -20.63158      0.7662908
      6228.0000        -999.25         0.5459         0.6235       -62.6326      -12.70652      0.8606367
      6228.5000        -999.25          0.592         0.5988        -61.205      -11.28276      0.8775861
      6229.0000        -999.25         0.5918         0.5756       -60.2359       -10.3175      0.8890773
      6229.5000        -999.25         0.6076         0.5756       -58.7494       -8.83485       0.906728
      6230.0000        -999.25         0.6216         0.5815       -57.8216      -7.910892      0.9177275
      6230.5000        -999.25         0.6214         0.5977       -56.6418      -6.734932       0.931727
      6231.0000        -999.25         0.6213         0.6411       -56.6443      -6.741276      0.9316515
      6231.5000        -999.25         0.6211          0.653       -56.6477       -6.74852      0.9315652
      6232.0000        -999.25          0.621         0.6529       -56.0494       -6.15406      0.9386421
      6232.5000        -999.25         0.6421         0.6419       -55.4521      -5.560604      0.9457071
      6233.0000        -999.25         0.6507         0.6229       -54.6572      -4.769547      0.9551244
      6233.5000        -999.25         0.6505         0.6109       -53.0558      -3.171989       0.974143
      6234.0000        -999.25         0.6533         0.6112       -51.6005      -1.720531      0.9914222
      6234.5000        -999.25         0.7103         0.6287       -51.2598      -1.383675      0.9954324
      6235.0000        -999.25         0.7102         0.6483       -52.4646      -2.592316      0.9810439
      6235.5000        -999.25           0.71         0.7062       -56.2559      -6.387463      0.9358636
      6236.0000        -999.25         0.7199         0.7314       -62.6806        -12.816      0.8593333
      6236.5000        -999.25         0.7398         0.7419       -66.0052      -16.14445      0.8197089
      6237.0000        -999.25         0.7396         0.7478       -71.0949      -21.23799      0.7590715
      6237.5000        -999.25         0.7395         0.7537       -76.8999      -27.04683      0.6899186
      6238.0000        -999.25         0.6192         0.7765       -81.9116      -32.06237      0.6302099
      6238.5000        -999.25         0.4949         0.8193       -84.1674      -34.32201      0.6033093
      6239.0000        -999.25         0.3486          0.861       -89.1247      -39.28316      0.5442481
      6239.5000        -999.25         0.2584         0.8115       -94.7586       -44.9209      0.4771322
      6240.0000        -999.25         0.2282         0.7236       -108.859      -59.02515      0.3092245
      6240.5000        -999.25          0.228         0.6793      -134.7797      -84.94968   0.0005990891
      6241.0000        -999.25         0.2279         0.6459      -135.3828      -85.55663              0
      6241.5000        -999.25         0.2277         0.6279      -134.7856      -84.96327    0.000437237
      6242.0000        -999.25         0.2276         0.6278      -132.7151      -82.89662     0.02504022
      6242.5000        -999.25         0.2575         0.6218      -129.9866      -80.17196     0.05747668
      6243.0000        -999.25         0.2691         0.6277      -125.9963       -76.1855      0.1049345
      6243.5000        -999.25         0.3172          0.648      -123.3859      -73.57895      0.1359649
      6244.0000        -999.25         0.3559         0.6754      -122.7876      -72.98448      0.1430419
      6244.5000        -999.25          0.377         0.6961      -122.1905      -72.39123      0.1501044
      6245.0000        -999.25         0.4493         0.7051      -121.5935      -71.79807      0.1571659
      6245.5000        -999.25         0.5268          0.705      -121.5525      -71.76091      0.1576082
      6246.0000        -999.25         0.6168         0.6982      -120.3977      -70.60995      0.1713101
      6246.5000        -999.25         0.7067         0.6751      -118.2888       -68.5049      0.1963703
      6247.0000        -999.25         0.7666         0.6618      -102.9866      -53.20654      0.3784935
      6247.5000        -999.25         0.8029          0.657       -83.8925      -34.11629      0.6057585
