#------------------------------------------------------------------------------
# Created by    : vladimir.rabinovich
# Created on    : 09/19/2023 17:19:41
#------------------------------------------------------------------------------
~Version Information Section
VERS.           2.0     :   CWLS log ASCII Standard - VERSION 2.0
WRAP.           NO      :   One line per depth step
~Well Information Section
#MNEM       .UNIT                                         VALUE :DESCRIPTION
#------------------------------------------------------------------------------
STRT        .FT                                            1000 :START DEPTH
STOP        .FT                                         10019.5 :STOP DEPTH
STEP        .FT                                             0.5 :STEP      
NULL        .                                           -999.25 :NULL      
COMP        .                                UNION PRODUCING CO :COMPANY   
WELL        .                                            BARROW :WELL      
FLD         .                                           WILDCAT :FIELD     
LOC         .                                                   :LOCATION  
CNTY        .                                          CHAMBERS :LOCATION  
STAT        .                                             TEXAS :STATE     
CTRY        .                                     UNITED STATES :COUNTRY   
SRVC        .                                                   :SERVICE COMPANY
DATE        .                             9/13/2023 11:19:11 AM :LOG DATE  
API         .                                    42071025090000 :API NUMBER
UWI         .                                    42071025090000 :UNIQUE WELL ID
XCOORD      .                                  1126276.26743497 :SURFACE X 
YCOORD      .                                  10763240.3077352 :SURFACE Y 
LAT         .                                        29.6474899 :LATITUDE  
LON         .                                       -94.6189869 :LONGITUDE 
ELEV        .FT                                              18 :ELEVATION VALUE
ELEV_TYPE   .                                                DF :ELEVATION REFERENCE TYPE
~Curve Information Section
#MNEM       .UNIT                                      API CODE :CURVE DESCRIPTION
#------------------------------------------------------------------------------
DEPT        .FT                                                 :DEPTH     
AM64        .OHMM                                               :          
AO18        .OHMM                                               :          
SN16        .OHMM                                               :          
SP          .MV                                                 :          
SP_NORM     .MV                                                 :SP Normalized
VSH_SP      .V/V                                                :Volume of Shale from SP
~A        DEPTH           AM64           AO18           SN16             SP        SP_NORM         VSH_SP
# ...
      5180.0000         0.9366         1.2783         1.0398       -56.2416       4.499443              1
      5180.5000         0.9366         1.3106          1.073       -56.9423       3.797432              1
      5181.0000         0.9366         1.3654          1.095       -57.8885       2.849918              1
      5181.5000         0.9366         1.3644          1.106       -58.5665       2.170605              1
      5182.0000         0.9366         1.3637         1.0836       -58.9882       1.747589              1
      5182.5000         0.9366         1.3627         1.0349       -61.9381      -1.203621              1
      5183.0000         0.9366         1.3064         0.9832       -63.3706      -2.637436      0.9931458
      5183.5000         0.9366         1.3055         0.9573       -64.5519      -3.820049      0.9804296
      5184.0000         0.9366         1.2492         0.9385       -65.0174      -4.286861      0.9754101
      5184.5000         0.9366         1.2483         0.9272       -65.5668      -4.837578      0.9694884
      5185.0000         0.9366          1.192          0.927         -65.57      -4.842087      0.9694399
      5185.5000         0.9366          1.191         0.9269       -65.5723      -4.845703      0.9694011
      5186.0000         0.9366         1.1903         0.9267       -65.0279      -4.302612      0.9752407
      5186.5000         0.9366         1.2145         0.9265       -64.4636      -3.739624      0.9812944
      5187.0000         0.9366         1.2442         0.9263       -63.3925      -2.669838      0.9927974
      5187.5000         0.9366         1.2434         0.9262       -62.8476      -2.126251      0.9986424
      5188.0000         0.9366         1.2425         0.9371       -62.0436      -1.323563              1
      5188.5000         0.9366         1.2974         0.9386       -61.2118     -0.4930763              1
      5189.0000         0.9366         1.2964         0.9923       -60.4289      0.2885094              1
      5189.5000         0.9366         1.2956         1.0258       -59.5758       1.140297              1
      5190.0000         0.9366         1.3143         1.0697       -59.7945      0.9202881              1
      5190.5000         0.9366         1.3496         1.1363       -65.5997       -4.88623      0.9689653
      5191.0000         0.9366         1.3663         1.1584       -66.8912      -6.179039      0.9550641
      5191.5000         0.9366         1.4034         1.1693       -68.3407      -7.629852       0.939464
      5192.0000         0.9366         1.4581         1.1803        -69.063       -8.35347      0.9316831
      5192.5000         0.9366         1.5128         1.1801       -69.4404      -8.732178       0.927611
      5193.0000         0.9366         1.5394          1.165       -69.4429      -8.735992        0.92757
      5193.5000         0.9158         1.7334         1.1353       -69.4459      -8.740307      0.9275236
      5194.0000         0.8815         1.8673         1.1063       -69.3199       -8.61562      0.9288643
      5194.5000         0.8815         1.7317         1.0461        -68.904      -8.201031      0.9333223
      5195.0000         0.8264         1.5087         1.0044       -69.8777      -9.176044      0.9228382
      5195.5000         0.7713         1.3967         0.9346       -71.8238      -11.12346      0.9018983
      5196.0000         0.7077         1.3246         0.9079        -69.752      -9.052967      0.9241617
      5196.5000         0.6612         1.2839         0.8565       -68.7149      -8.017181      0.9352991
      5197.0000         0.6061         1.2831         0.8198       -78.9524        -18.256      0.8252043
      5197.5000         0.6061         1.2822         0.8006       -80.9573      -20.26221      0.8036322
      5198.0000          0.551         1.2814         0.7894       -81.5477      -20.85392      0.7972697
      5198.5000          0.551         1.2805         0.8003       -81.7531      -21.06063       0.795047
      5199.0000          0.551         1.2839         0.8012       -80.3622      -19.67104      0.8099888
      5199.5000          0.551         1.3345         0.8234       -78.2322      -17.54236      0.8328778
      5200.0000         0.6061         1.3892         0.8288       -79.3291      -18.64058      0.8210691
      5200.5000           0.58         1.2779         0.8332       -89.7285      -29.04129      0.7092335
      5201.0000         0.4955         1.2782         0.8109       -89.1927       -28.5068      0.7149806
      5201.5000         0.4725         1.2785         0.7909       -89.2034      -28.51881      0.7148515
      5202.0000         0.3848         1.2788          0.733        -89.215      -28.53172      0.7147127
      5202.5000           0.31         1.2791         0.6625       -88.1297      -27.44774      0.7263684
      5203.0000          0.274         1.3349         0.6218        -87.595      -26.91435      0.7321038
      5203.5000         0.2738         1.2796         0.6107       -88.7556      -28.07626      0.7196101
      5204.0000         0.2735         1.2799         0.6106       -98.5605      -37.88248      0.6141669
      5204.5000         0.2732         1.2802         0.6488      -102.6105      -41.93378      0.5706044
      5205.0000         0.2729         1.2249         0.7216      -107.3365       -46.6611      0.5197731
      5205.5000         0.2727         1.1075         0.7584      -113.8338      -53.15972      0.4498955
      5206.0000         0.2173         0.8922         0.8104      -118.8482      -58.17543      0.3959632
      5206.5000          0.217         0.7786         0.8336      -133.1099      -72.43843      0.2425975
      5207.0000         0.2167         0.6149         0.8769      -133.6425      -72.97235      0.2368564
      5207.5000         0.2194         0.5596            0.9      -134.7457      -74.07686        0.22498
      5208.0000         0.2713         0.5599         0.9768      -135.3037      -74.63617      0.2189659
      5208.5000          0.271         0.5046          0.999      -135.8622      -75.19599      0.2129463
      5209.0000         0.2157         0.4841         0.9639      -137.3783       -76.7134      0.1966301
      5209.5000         0.2154         0.4496         0.7989      -140.2614      -79.59782      0.1656149
      5210.0000         0.1929         0.5055         0.7278      -142.6275      -81.96523      0.1401588
      5210.5000         0.1597         0.5613         0.6877      -144.6605      -83.99955      0.1182844
      5211.0000         0.1595         0.6171         0.6728      -145.3468      -84.68716      0.1108908
      5211.5000         0.1592         0.6174         0.6653      -146.8713      -86.21298     0.09448406
      5212.0000         0.1589         0.6177         0.6542      -146.8809      -86.22389     0.09436675
      5212.5000         0.1586          0.618         0.6652      -146.3465       -85.6908       0.100099
      5213.0000         0.1584         0.6182         0.6874      -144.0095      -83.35512      0.1252138
      5213.5000         0.1581         0.6185         0.7095      -140.3505      -79.69742      0.1645439
      5214.0000         0.1578         0.6188         0.7351      -138.7037      -78.05194      0.1822372
      5214.5000         0.1276         0.6191         0.8094      -138.1799      -77.52945      0.1878554
      5215.0000         0.1022         0.5638         0.8559      -139.2875      -78.63837      0.1759315
      5215.5000         0.1019         0.5641         0.9204      -141.1703      -80.52248      0.1556723
      5216.0000         0.1016         0.5644          0.977      -143.1396      -82.49309      0.1344829
      5216.5000         0.1014         0.4841         1.0259      -144.2443      -83.59909      0.1225904
      5217.0000         0.1011         0.4538         1.0425      -143.1618      -82.51791       0.134216
      5217.5000         0.1008         0.4186         1.0536      -142.4706      -81.82802      0.1416342
