#------------------------------------------------------------------------------
# Created by    : vladimir.rabinovich
# Created on    : 09/19/2023 17:22:55
#------------------------------------------------------------------------------
~Version Information Section
VERS.           2.0     :   CWLS log ASCII Standard - VERSION 2.0
WRAP.           NO      :   One line per depth step
~Well Information Section
#MNEM       .UNIT                                         VALUE :DESCRIPTION
#------------------------------------------------------------------------------
STRT        .FT                                            1527 :START DEPTH
STOP        .FT                                            8498 :STOP DEPTH
STEP        .FT                                             0.5 :STEP      
NULL        .                                           -999.25 :NULL      
COMP        .                           SAN JUAN EXPLORATION CO :COMPANY   
WELL        .                                MIDDLETON ETAL R M :WELL      
FLD         .                                           WILDCAT :FIELD     
LOC         .                                                   :LOCATION  
CNTY        .                                          CHAMBERS :LOCATION  
STAT        .                                             TEXAS :STATE     
CTRY        .                                     UNITED STATES :COUNTRY   
SRVC        .                                                   :SERVICE COMPANY
DATE        .                             9/13/2023 11:19:11 AM :LOG DATE  
API         .                                    42071022810000 :API NUMBER
UWI         .                                    42071022810000 :UNIQUE WELL ID
XCOORD      .                                  1136491.54221464 :SURFACE X 
YCOORD      .                                  10781024.2027564 :SURFACE Y 
LAT         .                                        29.6967824 :LATITUDE  
LON         .                                       -94.5875983 :LONGITUDE 
ELEV        .FT                                              24 :ELEVATION VALUE
ELEV_TYPE   .                                                DF :ELEVATION REFERENCE TYPE
~Curve Information Section
#MNEM       .UNIT                                      API CODE :CURVE DESCRIPTION
#------------------------------------------------------------------------------
DEPT        .FT                                                 :DEPTH     
LAT         .OHMM                                               :          
LN          .OHMM                                               :          
SN          .OHMM                                               :          
SP          .MV                                                 :          
SP_NORM     .MV                                                 :SP Normalized
VSH_SP      .V/V                                                :Volume of Shale from SP
~A        DEPTH            LAT             LN             SN             SP        SP_NORM         VSH_SP
# ...
      7531.0000         0.8782          0.687         0.7312       -69.0665      -2.247223      0.9859862
      7531.5000         0.8747         0.6882         0.7262          -69.2       -2.38343      0.9844558
      7532.0000         0.8712         0.6884         0.7211       -69.3333       -2.51944      0.9829276
      7532.5000         0.8677          0.688         0.7188       -69.2701      -2.458954      0.9836072
      7533.0000         0.8642         0.6876         0.7247       -68.8528      -2.044357      0.9882656
      7533.5000         0.8607         0.6872         0.7306       -68.4349      -1.629166      0.9929307
      7534.0000         0.8572         0.6867         0.7365       -68.0177      -1.214676      0.9975879
      7534.5000         0.8537         0.6863         0.7424       -67.6003     -0.7999954              1
      7535.0000         0.8498         0.6859         0.7483       -67.5914     -0.7938004              1
      7535.5000         0.8416         0.6855         0.7542       -67.9082      -1.113312      0.9987268
      7536.0000         0.8335         0.6851         0.7595       -68.2255      -1.433319      0.9951313
      7536.5000         0.8253         0.6847         0.7549       -68.5428      -1.753326      0.9915357
      7537.0000         0.8172         0.6842         0.7503       -68.8595      -2.072731      0.9879469
      7537.5000          0.809         0.6838         0.7456       -68.5492      -1.765144      0.9914029
      7538.0000         0.8009         0.6837          0.741       -68.2365      -1.455154      0.9948859
      7538.5000         0.7927         0.6836         0.7364       -67.9236      -1.144958      0.9983712
      7539.0000         0.7846         0.6835         0.7317       -67.5863      -0.810379              1
      7539.5000         0.7764         0.6834         0.7317       -67.2432      -0.469986              1
      7540.0000         0.7683         0.6833         0.7338          -66.9     -0.1294937              1
      7540.5000         0.7601         0.6832         0.7359       -66.5574      0.2103958              1
      7541.0000          0.752          0.683          0.738       -66.2162      0.5488892              1
      7541.5000          0.744         0.6829         0.7401       -66.4597       0.302681              1
      7542.0000         0.7366         0.6828         0.7421       -66.7031     0.05657196              1
      7542.5000         0.7293         0.6827         0.7436       -66.9307     -0.1737366              1
      7543.0000          0.722         0.6814           0.74       -66.6217      0.1325607              1
      7543.5000         0.7147          0.679         0.7364       -66.3125      0.4390488              1
      7544.0000         0.7074         0.6765         0.7328       -66.0037      0.7451324              1
      7544.5000         0.7001         0.6741         0.7292       -65.6947       1.051422              1
      7545.0000         0.6928         0.6717         0.7256       -65.7819      0.9615173              1
      7545.5000         0.6855         0.6693         0.7312        -66.098      0.6427078              1
      7546.0000         0.6782         0.6669         0.7373       -66.4142      0.3237991              1
      7546.5000         0.6709         0.6644         0.7435       -66.7299    0.005393982              1
      7547.0000         0.6655          0.662         0.7496        -67.046     -0.3134155              1
      7547.5000         0.6706           0.66         0.7558       -67.3622     -0.6323242              1
      7548.0000         0.6757         0.6595         0.7545       -67.5453     -0.8181381              1
      7548.5000         0.6807         0.6591         0.7508       -67.6677     -0.9432449              1
      7549.0000         0.6858         0.6586          0.747       -67.5161     -0.7943573              1
      7549.5000         0.6909         0.6582         0.7433       -66.7264   -0.007369995              1
      7550.0000          0.696         0.6577         0.7365        -65.938      0.7783203              1
      7550.5000          0.701         0.6573         0.7289       -65.1483       1.565315              1
      7551.0000         0.7061         0.6568         0.7213       -64.9169       1.794006              1
      7551.5000         0.7112         0.6564         0.7136       -65.2814       1.426796              1
      7552.0000         0.7163         0.6559          0.706       -65.6459       1.059593              1
      7552.5000         0.7214         0.6555         0.6984        -66.011      0.6917801              1
      7553.0000         0.7254         0.6563         0.6907       -66.3755      0.3245697              1
      7553.5000          0.727          0.658         0.6831       -66.1656      0.5317535              1
      7554.0000         0.7287         0.6597         0.6755       -65.9104      0.7842484              1
      7554.5000         0.7303         0.6614         0.6678       -65.6549       1.037041              1
      7555.0000          0.732         0.6631         0.6627       -65.3993       1.289932              1
      7555.5000         0.7336         0.6648         0.6655       -65.4167       1.269821              1
      7556.0000         0.7353         0.6665         0.6684       -65.5327       1.151115              1
      7556.5000         0.7369         0.6682         0.6712       -65.6487        1.03241              1
      7557.0000         0.7385         0.6699         0.6741       -65.7646      0.9137955              1
      7557.5000         0.7402         0.6716         0.6769        -65.899      0.7766876              1
      7558.0000         0.7418         0.6764         0.6798       -66.0341      0.6388779              1
      7558.5000         0.7435         0.6829         0.6826       -66.1693      0.5009689              1
      7559.0000         0.7451         0.6893         0.6854       -66.2714      0.3961563              1
      7559.5000         0.7381         0.6957         0.6883       -66.2261      0.4309616              1
      7560.0000         0.7301         0.7021         0.6962       -66.1808      0.4619141              1
      7560.5000          0.722         0.7085         0.7099       -66.1355      0.4928665              1
      7561.0000         0.7139         0.7149         0.7236       -66.0902       0.523819              1
      7561.5000         0.7059         0.7227         0.7373       -66.1582      0.4414749              1
      7562.0000         0.6978         0.7321          0.751       -66.3008      0.2845306              1
      7562.5000         0.6897         0.7414         0.7647       -66.4432      0.1277847              1
      7563.0000         0.6817         0.7508           0.78       -66.5759    -0.01926422              1
      7563.5000         0.6765         0.7566         0.7969       -66.3658      0.1764908              1
      7564.0000         0.6775         0.7535         0.8139       -66.1555      0.3724442              1
      7564.5000         0.6786         0.7504         0.8309       -65.9456      0.5679932              1
      7565.0000         0.6797         0.7472         0.8371       -66.0913      0.4079514              1
      7565.5000         0.6807         0.7399         0.8307       -66.4412      0.0437088              1
      7566.0000         0.6818         0.7307         0.8243       -66.7916     -0.3210449              1
      7566.5000         0.6828         0.7216         0.8179       -67.1415     -0.6852875              1
      7567.0000         0.6839         0.7124         0.8114       -67.4915      -1.049629      0.9994423
      7567.5000         0.6849         0.7032         0.8028       -67.5908      -1.163277      0.9981654
      7568.0000          0.686          0.694         0.7939       -67.5726      -1.159424      0.9982087
      7568.5000         0.6921         0.6848          0.785       -67.5543      -1.155464      0.9982532
