#------------------------------------------------------------------------------
# Created by    : vladimir.rabinovich
# Created on    : 09/19/2023 17:22:53
#------------------------------------------------------------------------------
~Version Information Section
VERS.           2.0     :   CWLS log ASCII Standard - VERSION 2.0
WRAP.           NO      :   One line per depth step
~Well Information Section
#MNEM       .UNIT                                         VALUE :DESCRIPTION
#------------------------------------------------------------------------------
STRT        .FT                                            1498 :START DEPTH
STOP        .FT                                           11000 :STOP DEPTH
STEP        .FT                                             0.5 :STEP      
NULL        .                                           -999.25 :NULL      
COMP        .                                     CANNAN MORRIS :COMPANY   
WELL        .                                             GARTH :WELL      
FLD         .                                           WILDCAT :FIELD     
LOC         .                                                   :LOCATION  
CNTY        .                                          CHAMBERS :LOCATION  
STAT        .                                             TEXAS :STATE     
CTRY        .                                     UNITED STATES :COUNTRY   
SRVC        .                                                   :SERVICE COMPANY
DATE        .                             9/13/2023 11:19:11 AM :LOG DATE  
API         .                                    42071310360000 :API NUMBER
UWI         .                                    42071310360000 :UNIQUE WELL ID
XCOORD      .                                  1175356.83007784 :SURFACE X 
YCOORD      .                                  10818692.0839896 :SURFACE Y 
LAT         .                                        29.8017803 :LATITUDE  
LON         .                                       -94.4666967 :LONGITUDE 
ELEV        .FT                                              25 :ELEVATION VALUE
ELEV_TYPE   .                                                GL :ELEVATION REFERENCE TYPE
~Curve Information Section
#MNEM       .UNIT                                      API CODE :CURVE DESCRIPTION
#------------------------------------------------------------------------------
DEPT        .FT                                                 :DEPTH     
ILD         .OHMM                                               :          
SFL         .OHMM                                               :          
SP          .MV                                                 :          
SP_NORM     .MV                                                 :SP Normalized
VSH_SP      .V/V                                                :Volume of Shale from SP
~A        DEPTH            ILD            SFL             SP        SP_NORM         VSH_SP
# ...
     10958.0000         0.6848         0.6795        -1.1282        -1.1282      0.9986362
     10958.5000         0.6542         0.6509        -1.2094        -1.2094      0.9977723
     10959.0000         0.6235         0.6233        -1.3547        -1.3547      0.9962266
     10959.5000         0.5929         0.5956         -1.483         -1.483      0.9948617
     10960.0000         0.5624         0.5858        -1.5871        -1.5871      0.9937543
     10960.5000         0.5359         0.5818        -1.6911        -1.6911      0.9926479
     10961.0000         0.5248         0.5778        -1.7952        -1.7952      0.9915404
     10961.5000         0.5308         0.5737        -1.8994        -1.8994      0.9904319
     10962.0000         0.5368         0.5731        -1.9721        -1.9721      0.9896585
     10962.5000         0.5428         0.5731        -2.0424        -2.0424      0.9889106
     10963.0000         0.5488         0.5731        -2.1127        -2.1127      0.9881628
     10963.5000         0.5548         0.5735        -2.1507        -2.1507      0.9877585
     10964.0000         0.5622         0.5761        -2.1685        -2.1685      0.9875692
     10964.5000         0.5708         0.5787        -2.1863        -2.1863      0.9873798
     10965.0000         0.5794         0.5813        -2.2041        -2.2041      0.9871904
     10965.5000         0.5954         0.5839        -2.2119        -2.2119      0.9871075
     10966.0000         0.6136         0.5947        -2.1986        -2.1986       0.987249
     10966.5000         0.6337         0.6097        -2.1853        -2.1853      0.9873904
     10967.0000         0.6529         0.6345         -2.172         -2.172      0.9875319
     10967.5000         0.6706         0.6805        -2.1587        -2.1587      0.9876734
     10968.0000         0.6883         0.7257        -2.1454        -2.1454      0.9878149
     10968.5000         0.7059         0.7691        -2.1281        -2.1281       0.987999
     10969.0000         0.7176         0.8125        -2.1001        -2.1001      0.9882968
     10969.5000         0.7292         0.8558        -2.0721        -2.0721      0.9885947
     10970.0000         0.7407         0.8693        -2.0441        -2.0441      0.9888926
     10970.5000         0.7493         0.8773        -2.0161        -2.0161      0.9891904
     10971.0000         0.7505         0.8853        -1.9881        -1.9881      0.9894883
     10971.5000         0.7516         0.8869        -1.9634        -1.9634       0.989751
     10972.0000         0.7527         0.8879        -1.9408        -1.9408      0.9899915
     10972.5000         0.7538         0.8889        -1.9181        -1.9181       0.990233
     10973.0000          0.755         0.8898        -1.8955        -1.8955      0.9904734
     10973.5000         0.7561          0.889        -1.8728        -1.8728      0.9907149
     10974.0000         0.7575         0.8881        -1.8502        -1.8502      0.9909553
     10974.5000         0.7592         0.8872        -1.8276        -1.8276      0.9911957
     10975.0000         0.7609         0.8863        -1.8029        -1.8029      0.9914585
     10975.5000         0.7627         0.8841        -1.7766        -1.7766      0.9917383
     10976.0000         0.7644         0.8807        -1.7504        -1.7504       0.992017
     10976.5000         0.7592         0.8774        -1.7242        -1.7242      0.9922957
     10977.0000         0.7539         0.8738         -1.698         -1.698      0.9925745
     10977.5000         0.7471         0.8603        -1.6718        -1.6718      0.9928532
     10978.0000         0.7097         0.8467        -1.6508        -1.6508      0.9930766
     10978.5000         0.6462         0.8331        -1.6344        -1.6344      0.9932511
     10979.0000         0.5701         0.8195         -1.618         -1.618      0.9934255
     10979.5000         0.5478         0.8059        -1.6016        -1.6016         0.9936
     10980.0000         0.5297         0.7923        -1.5852        -1.5852      0.9937745
     10980.5000         0.5195         0.7787        -1.5335        -1.5335      0.9943244
     10981.0000         0.5094         0.7662        -1.4639        -1.4639      0.9950649
     10981.5000         0.5079         0.7538        -1.3942        -1.3942      0.9958064
     10982.0000         0.5113         0.7415        -1.3246        -1.3246      0.9965468
     10982.5000         0.5166         0.7292        -1.2549        -1.2549      0.9972883
     10983.0000         0.5266         0.7169        -1.1853        -1.1853      0.9980287
     10983.5000         0.5366         0.7045        -1.1156        -1.1156      0.9987702
     10984.0000         0.5479         0.6992         -1.046         -1.046      0.9995106
     10984.5000         0.5653         0.6962        -0.9763        -0.9763              1
     10985.0000         0.5826         0.6932        -0.9067        -0.9067              1
     10985.5000         0.6003         0.6901        -0.8724        -0.8724              1
     10986.0000         0.6189         0.6933         -0.872         -0.872              1
     10986.5000         0.6374         0.6975        -0.8716        -0.8716              1
     10987.0000         0.6517         0.7017        -0.8712        -0.8712              1
     10987.5000         0.6617         0.7072        -0.8708        -0.8708              1
     10988.0000         0.6717         0.7208        -0.8704        -0.8704              1
     10988.5000         0.6782         0.7344        -0.8701        -0.8701              1
     10989.0000         0.6792          0.748        -0.8704        -0.8704              1
     10989.5000         0.6802         0.7616        -0.8782        -0.8782              1
     10990.0000         0.6812         0.7752         -0.886         -0.886              1
     10990.5000         0.6786         0.7832        -0.8938        -0.8938              1
     10991.0000         0.6722         0.7885        -0.9015        -0.9015              1
     10991.5000         0.6657         0.7938        -0.9093        -0.9093              1
     10992.0000         0.6593         0.7815        -0.9171        -0.9171              1
     10992.5000         0.6517         0.7632        -0.9249        -0.9249              1
     10993.0000         0.6388         0.7376        -0.9327        -0.9327              1
     10993.5000          0.626          0.707        -0.9404        -0.9404              1
     10994.0000         0.6131         0.6765        -0.9558        -0.9558              1
     10994.5000         0.6002          0.646        -0.9776        -0.9776              1
     10995.0000         0.5873         0.6155        -0.9995        -0.9995              1
     10995.5000         0.5741         0.5907        -1.0213        -1.0213      0.9997734
     10996.0000         0.5609         0.5773        -1.0432        -1.0432      0.9995404
     10996.5000         0.5477         0.5639         -1.065         -1.065      0.9993085
     10997.0000         0.5346         0.5505        -1.0869        -1.0869      0.9990755
     10997.5000         0.5214         0.5371        -1.1088        -1.1088      0.9988425
     10998.0000         0.5175         0.5237        -1.1306        -1.1306      0.9986106
     10998.5000         0.5185         0.5103        -1.1525        -1.1525      0.9983777
     10999.0000         0.5194         0.4969        -1.1743        -1.1743      0.9981458
     10999.5000         0.5204         0.4938        -1.1325        -1.1325      0.9985904
     11000.0000         0.5229         0.4943        -1.0908        -1.0908       0.999034
