#------------------------------------------------------------------------------
# Created by    : vladimir.rabinovich
# Created on    : 09/19/2023 17:22:28
#------------------------------------------------------------------------------
~Version Information Section
VERS.           2.0     :   CWLS log ASCII Standard - VERSION 2.0
WRAP.           NO      :   One line per depth step
~Well Information Section
#MNEM       .UNIT                                         VALUE :DESCRIPTION
#------------------------------------------------------------------------------
STRT        .FT                                            1650 :START DEPTH
STOP        .FT                                         10241.5 :STOP DEPTH
STEP        .FT                                             0.5 :STEP      
NULL        .                                           -999.25 :NULL      
COMP        .                                 HARRISON DAN J JR :COMPANY   
WELL        .                                    G R CANADA EST :WELL      
FLD         .                                           WILDCAT :FIELD     
LOC         .                                                   :LOCATION  
CNTY        .                                          CHAMBERS :LOCATION  
STAT        .                                             TEXAS :STATE     
CTRY        .                                     UNITED STATES :COUNTRY   
SRVC        .                                                   :SERVICE COMPANY
DATE        .                             9/13/2023 11:19:11 AM :LOG DATE  
API         .                                    42071032580000 :API NUMBER
UWI         .                                    42071032580000 :UNIQUE WELL ID
XCOORD      .                                   1124905.0652959 :SURFACE X 
YCOORD      .                                  10748564.4390152 :SURFACE Y 
LAT         .                                        29.6070806 :LATITUDE  
LON         .                                       -94.6226563 :LONGITUDE 
ELEV        .FT                                            14.3 :ELEVATION VALUE
ELEV_TYPE   .                                                KB :ELEVATION REFERENCE TYPE
~Curve Information Section
#MNEM       .UNIT                                      API CODE :CURVE DESCRIPTION
#------------------------------------------------------------------------------
DEPT        .FT                                                 :DEPTH     
CILD        .MMHO                                               :          
IND         .OHMM                                               :          
SN16        .OHMM                                               :          
SP          .MV                                                 :          
SP_NORM     .MV                                                 :SP Normalized
VSH_SP      .V/V                                                :Volume of Shale from SP
~A        DEPTH           CILD            IND           SN16             SP        SP_NORM         VSH_SP
      1650.0000        -999.25        -999.25         1.7373       -99.0991      -10.21021      0.7067781
      1650.5000        -999.25         1.0811         1.6715      -100.3003      -11.41142       0.663878
      1651.0000        -999.25          1.111         1.6714      -100.3003      -11.41142       0.663878
      1651.5000        -999.25         1.1409         1.6777      -100.3003      -11.41142       0.663878
      1652.0000        -999.25         1.1709         1.6831       -99.6997      -10.81081      0.6853281
      1652.5000        -999.25         1.2008         1.6837       -99.0991      -10.21021      0.7067781
      1653.0000        -999.25         1.2307         1.6888       -98.3881      -9.499214      0.7321709
      1653.5000        -999.25         1.2636         1.6947       -97.0327      -8.143814      0.7805781
      1654.0000        -999.25         1.2906         1.6945       -96.0961      -7.207214      0.8140281
      1654.5000        -999.25         1.3205         1.6752       -95.4955      -6.606613      0.8354781
      1655.0000        -999.25         1.3204         1.6465         -94.84      -5.951111      0.8588889
      1655.5000        -999.25         1.3504         1.6209        -93.523      -4.634117      0.9059244
      1656.0000        -999.25         1.3502         1.6164       -93.0662      -4.177315      0.9222388
      1656.5000        -999.25         1.3501         1.6183       -91.8919      -3.003014      0.9641781
      1657.0000        -999.25           1.35         1.6341       -91.2913      -2.402412      0.9856281
      1657.5000        -999.25         1.3499         1.6752       -91.2913      -2.402412      0.9856281
      1658.0000        -999.25         1.3198         1.7354       -91.8919      -3.003014      0.9641781
      1658.5000        -999.25         1.3197         1.8078       -94.2096      -5.320717       0.881403
      1659.0000        -999.25         1.2896         1.8784       -96.6967       -7.83065      0.7917625
      1659.5000        -999.25         1.2594         1.9855       -99.7891      -10.96735      0.6797374
      1660.0000        -999.25         1.2261         1.9916      -104.5045      -15.72706      0.5097479
      1660.5000        -999.25         1.1992         1.9318      -106.3063      -17.57316      0.4438158
      1661.0000        -999.25          1.164         1.7271      -106.3063      -17.61746      0.4422335
      1661.5000        -999.25         1.1089         1.6271      -106.3063      -17.66177      0.4406512
      1662.0000        -999.25         1.0788         1.6084      -105.7057      -17.10548      0.4605187
      1662.5000        -999.25         1.0486          1.591      -105.7057      -17.14978      0.4589364
      1663.0000        -999.25         1.0485          1.584      -104.5045      -15.99288      0.5002542
      1663.5000        -999.25         1.0484         1.5669      -103.6641      -15.19678      0.5286862
      1664.0000        -999.25         1.0483         1.5608      -102.7027      -14.27969      0.5614398
      1664.5000        -999.25         1.0482         1.5607      -101.4104      -13.03169       0.606011
      1665.0000        -999.25         1.0782         1.5546      -100.3003       -11.9659      0.6440751
      1665.5000        -999.25         1.0781         1.5545       -99.0359       -10.7458      0.6876501
      1666.0000        -999.25         1.1029         1.5406       -97.8651      -9.619301      0.7278821
      1666.5000        -999.25         1.1379         1.5244       -96.6611       -8.45961      0.7692996
      1667.0000        -999.25         1.1678          1.506       -95.4955       -7.33831      0.8093461
      1667.5000        -999.25         1.1702         1.2257       -94.2867      -6.173813      0.8509353
      1668.0000        -999.25         1.1977         1.1849        -92.799      -4.730423      0.9024849
      1668.5000        -999.25         1.2276         1.1538       -90.6907       -2.66642      0.9761993
      1669.0000        -999.25         1.2275         1.1184       -88.8889     -0.9089279              1
      1669.5000        -999.25         1.2274         1.0879       -87.0871      0.8485718              1
      1670.0000        -999.25         1.1973         1.0758       -86.4865       1.404861              1
      1670.5000        -999.25         1.1672          1.088       -85.2853        2.56176              1
      1671.0000        -999.25          1.077         1.1293       -84.6847       3.118057              1
      1671.5000        -999.25         1.0668          1.154       -84.6847       3.073753              1
      1672.0000        -999.25         1.0467         1.2007       -84.6847       3.029449              1
      1672.5000        -999.25         1.0767         1.2335       -85.8859       1.783943              1
      1673.0000        -999.25         1.1066         1.3139       -87.9978      -0.372261              1
      1673.5000        -999.25         1.1504         1.3788       -91.8919      -4.310661      0.9174764
      1674.0000        -999.25         1.2265         1.4808       -95.1491      -7.612167      0.7995654
      1674.5000        -999.25         1.2944         1.5504       -98.4985      -11.00587      0.6783619
      1675.0000        -999.25         1.3482         1.6059       -99.7988      -12.35047      0.6303403
      1675.5000        -999.25         1.3764          1.645      -100.9009      -13.49688      0.5893971
      1676.0000        -999.25         1.4231         1.6893      -100.8294      -13.46968      0.5903686
      1676.5000        -999.25         1.4362          1.709       -99.6997      -12.38428      0.6291327
      1677.0000        -999.25          1.438         1.7249       -98.4549      -11.18379      0.6720074
      1677.5000        -999.25         1.4661          1.739       -96.6967      -9.469894      0.7332181
      1678.0000        -999.25          1.466         1.7246       -96.0801      -8.897598      0.7536572
      1678.5000        -999.25         1.4959          1.589       -95.1934      -8.055199      0.7837429
      1679.0000        -999.25         1.4958         1.5334       -94.2943      -7.200401      0.8142714
      1679.5000        -999.25         1.4657         1.5125       -94.0196      -6.970009      0.8224997
      1680.0000        -999.25         1.4656         1.5092       -93.6937      -6.688416      0.8325566
      1680.5000        -999.25         1.4354         1.5091       -94.2943      -7.333313      0.8095245
      1681.0000        -999.25         1.4353         1.5153       -94.8949       -7.97821      0.7864925
      1681.5000        -999.25         1.4052         1.5327       -95.7142       -8.84182      0.7556493
      1682.0000        -999.25         1.3751         1.5452       -96.6967      -9.868622      0.7189778
      1682.5000        -999.25         1.3149         1.5564       -96.6967      -9.912926      0.7173955
      1683.0000        -999.25         1.2848         1.5682       -96.6967       -9.95723      0.7158132
      1683.5000        -999.25         1.2818         1.5741       -96.0961      -9.400932       0.735681
      1684.0000        -999.25         1.2245         1.5525       -96.0961      -9.445236      0.7340987
      1684.5000        -999.25          1.207         1.5082       -94.7595      -8.152939      0.7802522
      1685.0000        -999.25         1.1642         1.4737       -93.6937      -7.131447       0.816734
      1685.5000        -999.25         1.1274         1.4303       -93.0393      -6.521347      0.8385233
      1686.0000        -999.25          1.074         1.4027       -91.8919      -5.418251      0.8779196
      1686.5000        -999.25         1.0653         1.3763       -91.2913      -4.861954      0.8977874
      1687.0000        -999.25         1.0137         1.3541       -90.6907      -4.305656      0.9176551
      1687.5000        -999.25         0.9836         1.3224       -90.6907       -4.34996      0.9160728
