#------------------------------------------------------------------------------
# Created by    : vladimir.rabinovich
# Created on    : 09/19/2023 17:22:50
#------------------------------------------------------------------------------
~Version Information Section
VERS.           2.0     :   CWLS log ASCII Standard - VERSION 2.0
WRAP.           NO      :   One line per depth step
~Well Information Section
#MNEM       .UNIT                                         VALUE :DESCRIPTION
#------------------------------------------------------------------------------
STRT        .FT                                          1999.5 :START DEPTH
STOP        .FT                                            9645 :STOP DEPTH
STEP        .FT                                             0.5 :STEP      
NULL        .                                           -999.25 :NULL      
COMP        .                          STANDARD OIL CO OF TEXAS :COMPANY   
WELL        .                                  STATE TRACT 1-4D :WELL      
FLD         .                                           WILDCAT :FIELD     
LOC         .                                                   :LOCATION  
CNTY        .                                          CHAMBERS :LOCATION  
STAT        .                                             TEXAS :STATE     
CTRY        .                                     UNITED STATES :COUNTRY   
SRVC        .                                                   :SERVICE COMPANY
DATE        .                             9/13/2023 11:19:11 AM :LOG DATE  
API         .                                    42071032270000 :API NUMBER
UWI         .                                    42071032270000 :UNIQUE WELL ID
XCOORD      .                                  1086986.65859336 :SURFACE X 
YCOORD      .                                  10762945.0682871 :SURFACE Y 
LAT         .                                        29.6451099 :LATITUDE  
LON         .                                       -94.7426468 :LONGITUDE 
ELEV        .FT                                              20 :ELEVATION VALUE
ELEV_TYPE   .                                                DF :ELEVATION REFERENCE TYPE
~Curve Information Section
#MNEM       .UNIT                                      API CODE :CURVE DESCRIPTION
#------------------------------------------------------------------------------
DEPT        .FT                                                 :DEPTH     
DT          .US/F                                               :          
IND         .OHMM                                               :          
SN          .OHMM                                               :          
SP          .MV                                                 :          
SP_NORM     .MV                                                 :SP Normalized
VSH_SP      .V/V                                                :Volume of Shale from SP
~A        DEPTH             DT            IND             SN             SP        SP_NORM         VSH_SP
# ...
      5039.5000       128.9042          0.265            0.6      -105.8824      -63.90709       0.251106
      5040.0000       129.7034         0.2572         0.5654      -106.6667      -64.69139      0.2417691
      5040.5000        130.725         0.2517         0.5538       -107.451      -65.47569      0.2324322
      5041.0000       131.6012         0.2524         0.5462      -108.2353      -66.25999      0.2230953
      5041.5000        132.177         0.2685         0.5346      -108.2353      -66.25999      0.2230953
      5042.0000       132.1076         0.2691         0.5231      -108.2353      -66.25999      0.2230953
      5042.5000       131.7122         0.2387         0.5038       -105.098      -63.12269      0.2604441
      5043.0000       132.0211         0.2238         0.4769      -103.5294       -61.5541      0.2791179
      5043.5000       133.5348         0.2089         0.4462      -100.3922      -58.41689      0.3164656
      5044.0000       135.1839         0.2095         0.4154       -98.8235      -56.84819      0.3351406
      5044.5000       137.5109         0.2101         0.4385           -100      -58.02469      0.3211346
      5045.0000       140.2074         0.2108         0.4462      -105.4902      -63.51489      0.2557751
      5045.5000       141.4169         0.2114         0.4462      -113.7255       -71.7502      0.1577357
      5046.0000         142.15          0.212         0.4385      -119.6078      -77.63249     0.08770843
      5046.5000       141.8422         0.2126         0.4231           -120      -78.02469     0.08303942
      5047.0000       141.4048         0.2444         0.4038      -114.5098       -72.5345      0.1483988
      5047.5000        140.602         0.2605         0.3961      -111.7647       -69.7894      0.1810786
      5048.0000       139.7157         0.2765         0.3961      -106.2745      -64.29919      0.2464382
      5048.5000       138.8772         0.2792         0.4038      -100.7843      -58.80899      0.3117977
      5049.0000       138.0485         0.2777         0.4192       -95.2941      -53.31879      0.3771573
      5049.5000       138.7416         0.2628         0.4308      -101.1765      -59.20119      0.3071287
      5050.0000       139.4399         0.2479         0.4385       -107.451      -65.47569      0.2324322
      5050.5000        138.898         0.2301           0.45      -113.7341      -71.75879      0.1576335
      5051.0000       139.1696         0.2181         0.4577       -123.174       -81.1987     0.04525357
      5051.5000       140.2804         0.2133         0.4615      -126.7208       -84.7455    0.003029778
      5052.0000       141.4489         0.2039         0.4654        -126.74      -84.76469    0.002801259
      5052.5000       141.7947         0.2045         0.4731      -122.8394      -80.86409     0.04923702
      5053.0000       140.6647         0.2208         0.4846      -118.9327       -76.9574     0.09574527
      5053.5000       138.8182         0.2214         0.5077      -115.0042       -73.0289      0.1425131
      5054.0000       138.4929          0.253         0.5346      -110.6723      -68.69699      0.1940834
      5054.5000       140.0829         0.2691         0.5654      -101.9777      -60.00239      0.2975906
      5055.0000       139.1263         0.3007            0.6       -81.5686       -39.5933       0.540556
      5055.5000       137.2407          0.379         0.6196       -70.9804      -29.00509      0.6666061
      5056.0000       129.2329         0.4931         0.6627       -50.1961      -8.220791      0.9140382
      5056.5000       124.3531         0.6409         0.7294        -47.451      -5.475693      0.9467179
      5057.0000        122.077         0.7991         0.7961       -46.2745      -4.299194      0.9607239
      5057.5000       120.0987         0.9493         0.8667       -43.1373      -1.161991      0.9980716
      5058.0000       123.3465         1.0894         0.9373       -40.3922       1.583107              1
      5058.5000       126.9082         1.1729         1.0118       -38.8235       3.151806              1
      5059.0000        126.071         1.2137         1.0627       -38.4314       3.543907              1
      5059.5000        125.124          1.159         1.1098       -38.4314       3.543907              1
      5060.0000        126.093         1.0666         1.1255       -38.4314       3.543907              1
      5060.5000       128.3909         0.9897         1.1294       -38.8235       3.151806              1
      5061.0000       128.7845         0.9128         1.0902       -39.2157       2.759609              1
      5061.5000       127.2108         0.8513         1.0706       -39.6078       2.367508              1
      5062.0000       125.5354          0.789         1.0392            -40       1.975307              1
      5062.5000       124.3481         0.7574         1.0078            -40       1.975307              1
      5063.0000       124.3964         0.7291         0.9216       -40.7843       1.191006              1
      5063.5000        125.753         0.7142         0.8863       -40.7843       1.191006              1
      5064.0000       128.1365         0.7149         0.8863       -41.1765      0.7988091              1
      5064.5000       130.1521         0.7083          0.898       -41.5686      0.4067078              1
      5065.0000       125.8944         0.6767         0.9647       -41.9608     0.01450729              1
      5065.5000       120.7106         0.6549              1       -42.3529      -0.377594              1
      5066.0000       118.8049         0.6399         1.0353       -42.7451     -0.7697906              1
      5066.5000       117.8483          0.625         1.0275       -42.7451     -0.7697906              1
      5067.0000       118.9306         0.6101         0.9804       -42.3529      -0.377594              1
      5067.5000       121.3571         0.6107         0.9451       -41.9608     0.01450729              1
      5068.0000       122.4314         0.6113         0.9098       -41.1765      0.7988091              1
      5068.5000       124.2657         0.6292         0.9098       -40.7843       1.191006              1
      5069.0000       126.7906         0.6621         0.9294       -40.3922       1.583107              1
      5069.5000       131.9704         0.7147         0.9529            -40       1.975307              1
      5070.0000        133.932         0.7644              1       -39.6078       2.367508              1
      5070.5000       128.2102          0.814         1.0706       -38.8235       3.151806              1
      5071.0000        122.329         0.8717         1.2196       -38.4314       3.543907              1
      5071.5000       120.0096         0.9569         1.2941       -37.6471       4.328209              1
      5072.0000        121.662         1.0505          1.444       -37.2549       4.720406              1
      5072.5000       126.4814         1.2061          1.472       -36.8627       5.112606              1
      5073.0000        129.289         1.3307          1.596       -36.0784       5.896908              1
      5073.5000       128.3206         1.4554         1.7098       -36.0784       5.896908              1
      5074.0000       125.3149         1.6114         1.8235       -36.8627       5.112606              1
      5074.5000       119.1563         1.8353         1.9608       -38.8235       3.151806              1
      5075.0000       107.6593         1.9792         2.0385       -41.9608     0.01450729              1
      5075.5000        95.5473         2.0933         2.1923       -43.9216      -1.946293      0.9887346
      5076.0000        84.1407         2.1818         2.3462       -45.8824      -3.907093      0.9653918
      5076.5000        80.4849         2.2188         2.5385       -47.8431      -5.867794      0.9420501
      5077.0000         85.275         2.2041         2.5385       -50.1961      -8.220791      0.9140382
