#------------------------------------------------------------------------------
# Created by    : vladimir.rabinovich
# Created on    : 09/19/2023 17:22:50
#------------------------------------------------------------------------------
~Version Information Section
VERS.           2.0     :   CWLS log ASCII Standard - VERSION 2.0
WRAP.           NO      :   One line per depth step
~Well Information Section
#MNEM       .UNIT                                         VALUE :DESCRIPTION
#------------------------------------------------------------------------------
STRT        .FT                                          1999.5 :START DEPTH
STOP        .FT                                            9645 :STOP DEPTH
STEP        .FT                                             0.5 :STEP      
NULL        .                                           -999.25 :NULL      
COMP        .                          STANDARD OIL CO OF TEXAS :COMPANY   
WELL        .                                  STATE TRACT 1-4D :WELL      
FLD         .                                           WILDCAT :FIELD     
LOC         .                                                   :LOCATION  
CNTY        .                                          CHAMBERS :LOCATION  
STAT        .                                             TEXAS :STATE     
CTRY        .                                     UNITED STATES :COUNTRY   
SRVC        .                                                   :SERVICE COMPANY
DATE        .                             9/13/2023 11:19:11 AM :LOG DATE  
API         .                                    42071032270000 :API NUMBER
UWI         .                                    42071032270000 :UNIQUE WELL ID
XCOORD      .                                  1086986.65859336 :SURFACE X 
YCOORD      .                                  10762945.0682871 :SURFACE Y 
LAT         .                                        29.6451099 :LATITUDE  
LON         .                                       -94.7426468 :LONGITUDE 
ELEV        .FT                                              20 :ELEVATION VALUE
ELEV_TYPE   .                                                DF :ELEVATION REFERENCE TYPE
~Curve Information Section
#MNEM       .UNIT                                      API CODE :CURVE DESCRIPTION
#------------------------------------------------------------------------------
DEPT        .FT                                                 :DEPTH     
DT          .US/F                                               :          
IND         .OHMM                                               :          
SN          .OHMM                                               :          
SP          .MV                                                 :          
SP_NORM     .MV                                                 :SP Normalized
VSH_SP      .V/V                                                :Volume of Shale from SP
~A        DEPTH             DT            IND             SN             SP        SP_NORM         VSH_SP
# ...
      5533.5000        98.3204         0.4954         0.7654        -87.451      -45.47569      0.5002732
      5534.0000        95.5803         0.5523           0.75       -77.2549      -35.27959       0.614836
      5534.5000       102.2428         0.5758         0.7269       -72.1569      -30.18159      0.6721169
      5535.0000       108.5487         0.5922         0.7154       -61.9608      -19.98549      0.7866799
      5535.5000       114.8546         0.6241         0.7154        -54.902      -12.92669      0.8659922
      5536.0000        120.667          0.656         0.7192       -53.3333      -11.35799      0.8836181
      5536.5000       121.6993         0.6879         0.7769       -51.3725      -9.397194      0.9056495
      5537.0000       119.9195         0.7052          0.816       -49.8039      -7.828594      0.9232742
      5537.5000       117.6437         0.7607          0.896       -47.8431      -5.867794      0.9453057
      5538.0000       115.1791         0.8909          0.992       -46.2745      -4.299194      0.9629304
      5538.5000       113.1886         0.9804         1.0196       -43.9216      -1.946293      0.9893675
      5539.0000         111.13         1.0026         1.0784       -41.5686      0.4067078              1
      5539.5000       108.1536          0.965          1.098       -42.3529      -0.377594              1
      5540.0000        98.8783         0.9248         1.1059       -48.6275      -6.652191      0.9364922
      5540.5000        97.0215         0.8815         1.1175       -52.1569      -10.18159       0.896836
      5541.0000        95.8606         0.8512         1.1212       -51.3725      -9.397194      0.9056495
      5541.5000        95.8597         0.8057         1.1171       -49.0196      -7.044292      0.9320866
      5542.0000        97.0363         0.7756         0.9992        -45.098      -3.122692      0.9761495
      5542.5000        99.6213           0.73         0.9752       -42.7451     -0.7697906              1
      5543.0000       104.0553         0.6999         0.9511       -43.1373      -1.161991      0.9981799
      5543.5000       106.7573         0.6697         0.9232       -45.8824      -3.907093      0.9673361
      5544.0000       109.1375         0.6515         0.8913       -48.6275      -6.652191      0.9364922
      5544.5000       112.4055         0.6046         0.8515       -51.3725      -9.397194      0.9056495
      5545.0000       117.0911         0.5794         0.8436       -53.3333      -11.35799      0.8836181
      5545.5000       122.2908         0.5495         0.8435       -49.4118      -7.436493      0.9276798
      5546.0000       124.2361         0.5504         0.8514       -49.4118      -7.436493      0.9276798
      5546.5000       121.9744         0.5515         0.8829       -52.9412      -10.96589      0.8880237
      5547.0000       118.8408         0.5834         0.8986       -59.2157      -17.24039      0.8175237
      5547.5000       117.3504         0.5843         0.9261       -65.5694      -23.59409      0.7461338
      5548.0000       116.5414         0.6007         0.9535       -71.9462      -29.97089      0.6744844
      5548.5000       114.7699         0.6171         0.9692       -71.9581      -29.98279      0.6743507
      5549.0000       112.0889         0.6515         1.0358        -65.586      -23.61069      0.7459473
      5549.5000       106.1154         0.7145         1.1414       -59.2157      -17.24039      0.8175237
      5550.0000         99.249         0.7827          1.149       -52.9412      -10.96589      0.8880237
      5550.5000       101.8349          0.843         1.1451        -46.683      -4.707691      0.9583405
      5551.0000       104.5592         0.8543         1.1333       -40.0392       1.936108              1
      5551.5000       107.2899         0.8552         1.1176       -40.8427       1.132607              1
      5552.0000       107.2891         0.8563          1.098       -42.4302     -0.4548912              1
      5552.5000       107.5187         0.8415         1.0784       -44.4096      -2.434292      0.9838843
      5553.0000       108.2929         0.8426         1.0588        -46.389      -4.413692      0.9616439
      5553.5000       108.9428          0.859          1.051       -47.9765      -6.001194      0.9438068
      5554.0000       108.5233         0.8909         1.0549         -48.78      -6.804691      0.9347787
      5554.5000       108.8318         0.9385         1.1804       -45.2719      -3.296593      0.9741956
      5555.0000       109.0167         0.9702         1.1804       -43.3317      -1.356392      0.9959956
      5555.5000        108.305         0.9711         1.1451       -43.3513      -1.375992      0.9957754
      5556.0000       104.8078          0.968         1.0824       -45.3307      -3.355392      0.9735349
      5556.5000       103.2499         0.9367         1.1216       -47.3101      -5.334793      0.9512945
      5557.0000       103.8783         0.8986         1.1922       -48.8976      -6.922291      0.9334574
      5557.5000       103.4133         0.8504         1.1922       -47.3493      -5.373993       0.950854
      5558.0000       103.2578         0.8054         1.1843       -45.4091      -3.433792       0.972654
      5558.5000       104.0556         0.7907         1.1451       -43.8609      -1.885593      0.9900495
      5559.0000       108.3606         0.7917          1.102       -41.9206     0.05470657              1
      5559.5000       109.9314         0.7926         1.0627       -39.9804       1.994907              1
      5560.0000       114.2501         0.7935         1.0392       -39.9902       1.985107              1
      5560.5000       125.1016         0.7947          1.051       -43.5294      -1.554092      0.9937742
      5561.0000       131.4111         0.8108         1.0902       -45.8824      -3.907093      0.9673361
      5561.5000       124.7427         0.8117         1.1294       -48.6275      -6.652191      0.9364922
      5562.0000       116.5266         0.8127         1.1176       -49.0196      -7.044292      0.9320866
      5562.5000       108.3106         0.8136         1.0745        -47.451      -5.475693      0.9497113
      5563.0000       103.0067         0.8145         1.0314       -45.8824      -3.907093      0.9673361
      5563.5000       100.4645         0.8154          0.972       -44.3137      -2.338394      0.9849619
      5564.0000       101.1268         0.8165         1.0784       -42.7451     -0.7697906              1
      5564.5000        106.094         0.8174         1.0784       -42.7451     -0.7697906              1
      5565.0000       114.8473         0.8338         1.0667       -43.5294      -1.554092      0.9937742
      5565.5000        118.889         0.8502         1.0588       -45.8824      -3.907093      0.9673361
      5566.0000       121.7843         0.8976         1.0588       -48.2353      -6.259991       0.940899
      5566.5000       125.5177         0.9464         1.0824       -48.2353      -6.259991       0.940899
      5567.0000       126.7651         1.0097          1.098       -45.8824      -3.907093      0.9673361
      5567.5000       125.3741          1.077         1.1176       -43.5294      -1.554092      0.9937742
      5568.0000       121.4937         1.1227         1.1451       -41.1765      0.7988091              1
      5568.5000       118.3531         1.1503         1.1686            -40       1.975307              1
      5569.0000       111.5615         1.1667         1.1961       -38.8235       3.151806              1
      5569.5000       104.0899         1.1676         1.2078       -41.9608     0.01450729              1
      5570.0000       102.6817         1.1531         1.2235        -45.098      -3.122692      0.9761495
      5570.5000        102.619         1.1076         1.2275       -48.6275      -6.652191      0.9364922
      5571.0000       104.7062          1.062         1.2275       -49.0196      -7.044292      0.9320866
