#------------------------------------------------------------------------------
# Created by    : vladimir.rabinovich
# Created on    : 09/19/2023 17:19:41
#------------------------------------------------------------------------------
~Version Information Section
VERS.           2.0     :   CWLS log ASCII Standard - VERSION 2.0
WRAP.           NO      :   One line per depth step
~Well Information Section
#MNEM       .UNIT                                         VALUE :DESCRIPTION
#------------------------------------------------------------------------------
STRT        .FT                                            1000 :START DEPTH
STOP        .FT                                         10019.5 :STOP DEPTH
STEP        .FT                                             0.5 :STEP      
NULL        .                                           -999.25 :NULL      
COMP        .                                UNION PRODUCING CO :COMPANY   
WELL        .                                            BARROW :WELL      
FLD         .                                           WILDCAT :FIELD     
LOC         .                                                   :LOCATION  
CNTY        .                                          CHAMBERS :LOCATION  
STAT        .                                             TEXAS :STATE     
CTRY        .                                     UNITED STATES :COUNTRY   
SRVC        .                                                   :SERVICE COMPANY
DATE        .                             9/13/2023 11:19:11 AM :LOG DATE  
API         .                                    42071025090000 :API NUMBER
UWI         .                                    42071025090000 :UNIQUE WELL ID
XCOORD      .                                  1126276.26743497 :SURFACE X 
YCOORD      .                                  10763240.3077352 :SURFACE Y 
LAT         .                                        29.6474899 :LATITUDE  
LON         .                                       -94.6189869 :LONGITUDE 
ELEV        .FT                                              18 :ELEVATION VALUE
ELEV_TYPE   .                                                DF :ELEVATION REFERENCE TYPE
~Curve Information Section
#MNEM       .UNIT                                      API CODE :CURVE DESCRIPTION
#------------------------------------------------------------------------------
DEPT        .FT                                                 :DEPTH     
AM64        .OHMM                                               :          
AO18        .OHMM                                               :          
SN16        .OHMM                                               :          
SP          .MV                                                 :          
SP_NORM     .MV                                                 :SP Normalized
VSH_SP      .V/V                                                :Volume of Shale from SP
~A        DEPTH           AM64           AO18           SN16             SP        SP_NORM         VSH_SP
# ...
      2786.0000         0.4636          1.008         0.8698       -99.6628      -20.65046      0.7479668
      2786.5000         0.5178          1.073         0.8585       -97.7154      -18.70306      0.7742831
      2787.0000         0.5169         1.1186         0.8695       -95.3185      -16.30615      0.8066736
      2787.5000         0.5713         1.1183         0.8708       -92.8081      -13.79575      0.8405979
      2788.0000         0.5971          1.118         0.9026        -90.028      -11.01566      0.8781668
      2788.5000         0.6247         1.1177         0.9153       -84.0711      -5.058754      0.9586655
      2789.0000         0.6792         1.1174          0.958       -81.8858      -2.873459      0.9881965
      2789.5000         0.7333         1.1172         0.9915       -77.5225       1.489845              1
      2790.0000         0.7547         1.1169         1.0189       -75.7209       3.291443              1
      2790.5000         0.7867         1.1166         1.0577       -74.2566       4.755745              1
      2791.0000         0.8058         1.0608         1.1331       -72.4716       6.540741              1
      2791.5000         0.8402         1.0605         1.2241       -70.9906       8.021744              1
      2792.0000         0.8945         1.0602         1.2618       -68.8089       10.20345              1
      2792.5000         0.8935         1.0599         1.2683       -67.7247       11.28764              1
      2793.0000          0.948         1.0791         1.2793       -67.1843       11.82804              1
      2793.5000          0.947         1.1149         1.2792       -67.1943       11.81805              1
      2794.0000         0.9462         1.1147         1.2791       -67.2017       11.81065              1
      2794.5000         1.0004         1.1699         1.2679       -67.7582       11.25414              1
      2795.0000         0.9997         1.1697         1.2678       -68.3989       10.61344              1
      2795.5000         0.9988         1.2249         1.2677       -69.4163       9.596046              1
      2796.0000          0.998         1.2247         1.2542        -70.588       8.424347              1
      2796.5000         1.0522         1.2799         1.2008       -72.1686       6.843742              1
      2797.0000         1.0515         1.2797          1.164       -73.9245       5.087845              1
      2797.5000         1.0505         1.2793         1.1228       -77.1094       1.902946              1
      2798.0000         1.0498         1.2791         1.0893       -78.2483      0.7640457              1
      2798.5000         1.0488         1.2788          1.067       -79.3146     -0.3022537              1
      2799.0000         0.9907         1.2758         1.0663        -78.227       0.785347              1
      2799.5000          0.937         1.2227         1.0556       -77.6884       1.323944              1
      2800.0000         0.9363         1.1669         1.0778       -77.6988       1.313545              1
      2800.5000         0.9355         1.0881         1.0998       -77.4689       1.543442              1
      2801.0000         0.8795          0.998         1.0884       -75.5325       3.479843              1
      2801.5000         0.8787         0.9963         1.0994       -74.9943       4.018044              1
      2802.0000         0.8778         0.9945         1.1102       -74.4596       4.552742              1
      2802.5000         0.8771         1.0068           1.11       -73.9222       5.090141              1
      2803.0000         0.8762         1.0469         1.1209       -73.9355       5.076843              1
      2803.5000         0.9306         1.1009         1.1327       -75.0393       3.973045              1
      2804.0000         0.9296         1.1153         1.1537        -75.599       3.413345              1
      2804.5000         0.9289         1.1546         1.1647       -76.7464       2.265945              1
      2805.0000         0.9281         1.2072         1.1689       -78.3567      0.6556473              1
      2805.5000         0.9272         1.2608         1.1864       -78.3656      0.6467438              1
      2806.0000         0.9264         1.2793         1.2005       -78.3764      0.6359406              1
      2806.5000         0.9807         1.3685         1.2193       -78.3877      0.6246414              1
      2807.0000         0.9799         1.4781         1.2191       -78.3981      0.6142426              1
      2807.5000         0.9789         1.5319           1.23        -78.957     0.05534363              1
      2808.0000         1.0334         1.5897         1.2409       -79.6604      -0.648056              1
      2808.5000         1.0324         1.6949         1.2407       -81.1676      -2.155258      0.9980095
      2809.0000         1.0517         1.6935         1.2404       -84.6541      -5.641754      0.9533108
      2809.5000         1.0859         1.7739         1.2402       -86.6608      -7.648453      0.9275839
      2810.0000         1.1402         1.8568           1.24       -87.2168      -8.204453      0.9204558
      2810.5000         1.1394          1.911         1.2371       -84.4945      -5.482155       0.955357
      2811.0000         1.1385         1.9089         1.1729       -82.8621      -3.849754      0.9762852
      2811.5000         1.1747         1.9074          1.038       -78.8472      0.1651459              1
      2812.0000          1.192         1.9055         1.0057       -77.9598       1.052544              1
      2812.5000         1.1912          1.904         0.9945       -78.5178       0.494545              1
      2813.0000         1.1902         1.9021         0.9831       -79.6237     -0.6113586              1
      2813.5000         1.1895          1.843         0.9718       -80.1809      -1.168556              1
      2814.0000         1.1724         1.7324         0.9605       -80.7401      -1.727753              1
      2814.5000         1.1328         1.6751         0.9602       -80.2018      -1.189453              1
      2815.0000         1.1319         1.6179         0.9489       -80.2151      -1.202759              1
      2815.5000         1.1311         1.5606         0.9264       -80.7715      -1.759155              1
      2816.0000         1.1303         1.5035          0.904       -80.7844      -1.772057              1
      2816.5000         1.1294         1.5016         0.8926       -80.7932      -1.780853              1
      2817.0000         1.1286         1.5001         0.8813       -80.8041      -1.791756              1
      2817.5000         1.1277         1.4426         0.8544       -80.8154      -1.803055              1
      2818.0000          1.127         1.4412         0.8364       -81.0279      -2.015556      0.9998006
      2818.5000         1.1261         1.4396         0.8394       -82.4789      -3.466553       0.981198
      2819.0000         1.1253         1.4638         0.8471       -83.1889      -4.176559      0.9720954
      2819.5000         1.1244          1.492         0.8469       -84.1423      -5.129959      0.9598723
      2820.0000         1.1237         1.4901         0.8466       -84.1521      -5.139755      0.9597467
      2820.5000         1.1229         1.5033         0.8576       -84.1645      -5.152153      0.9595878
      2821.0000          1.122         1.5423         0.8685       -83.0791      -4.066757      0.9735031
      2821.5000         1.1212         1.5406         0.8794       -82.5434      -3.531059      0.9803711
      2822.0000         1.1204          1.539         0.8903        -80.907      -1.894653              1
      2822.5000         1.1196         1.5373           0.89       -79.8275      -0.815155              1
      2823.0000         1.1188         1.5356         0.8898       -79.2937     -0.2813568              1
      2823.5000         1.1179          1.534         0.8895       -79.3042     -0.2918549              1
