#------------------------------------------------------------------------------
# Created by    : vladimir.rabinovich
# Created on    : 09/19/2023 17:19:41
#------------------------------------------------------------------------------
~Version Information Section
VERS.           2.0     :   CWLS log ASCII Standard - VERSION 2.0
WRAP.           NO      :   One line per depth step
~Well Information Section
#MNEM       .UNIT                                         VALUE :DESCRIPTION
#------------------------------------------------------------------------------
STRT        .FT                                            1000 :START DEPTH
STOP        .FT                                         10019.5 :STOP DEPTH
STEP        .FT                                             0.5 :STEP      
NULL        .                                           -999.25 :NULL      
COMP        .                                UNION PRODUCING CO :COMPANY   
WELL        .                                            BARROW :WELL      
FLD         .                                           WILDCAT :FIELD     
LOC         .                                                   :LOCATION  
CNTY        .                                          CHAMBERS :LOCATION  
STAT        .                                             TEXAS :STATE     
CTRY        .                                     UNITED STATES :COUNTRY   
SRVC        .                                                   :SERVICE COMPANY
DATE        .                             9/13/2023 11:19:11 AM :LOG DATE  
API         .                                    42071025090000 :API NUMBER
UWI         .                                    42071025090000 :UNIQUE WELL ID
XCOORD      .                                  1126276.26743497 :SURFACE X 
YCOORD      .                                  10763240.3077352 :SURFACE Y 
LAT         .                                        29.6474899 :LATITUDE  
LON         .                                       -94.6189869 :LONGITUDE 
ELEV        .FT                                              18 :ELEVATION VALUE
ELEV_TYPE   .                                                DF :ELEVATION REFERENCE TYPE
~Curve Information Section
#MNEM       .UNIT                                      API CODE :CURVE DESCRIPTION
#------------------------------------------------------------------------------
DEPT        .FT                                                 :DEPTH     
AM64        .OHMM                                               :          
AO18        .OHMM                                               :          
SN16        .OHMM                                               :          
SP          .MV                                                 :          
SP_NORM     .MV                                                 :SP Normalized
VSH_SP      .V/V                                                :Volume of Shale from SP
~A        DEPTH           AM64           AO18           SN16             SP        SP_NORM         VSH_SP
# ...
      8182.0000         0.6711         0.8889         0.7687       -65.0111       -3.82933      0.9771334
      8182.5000          0.646         0.8889         0.7798       -65.0136      -3.857334      0.9767833
      8183.0000         0.6154         0.8889         0.7908       -64.4696      -3.338829      0.9832646
      8183.5000         0.6151         0.8889         0.8148       -63.8334      -2.728138      0.9908983
      8184.0000         0.6149         0.8889         0.8351       -62.8338       -1.75404              1
      8184.5000         0.6146         0.8889         0.8422       -62.2201       -1.16584              1
      8185.0000         0.5592         0.8889         0.8573       -61.1975     -0.1687393              1
      8185.5000         0.5589         0.8889         0.8683       -60.0584      0.9448547              1
      8186.0000         0.5587         0.8889          0.876       -59.0151       1.962654              1
      8186.5000         0.5584         0.8889         0.8924       -59.0173       1.934952              1
      8187.0000         0.5559         0.8889         0.9126       -59.0206       1.906151              1
      8187.5000         0.5028         0.8889         0.9125       -59.0268       1.874447              1
      8188.0000         0.5025         0.8889         0.9125       -59.8389       1.036842              1
      8188.5000         0.5573         0.8889         0.9116       -61.2168     -0.3665581              1
      8189.0000          0.557         0.8889         0.9012       -62.0117      -1.186958              1
      8189.5000         0.6119         0.8889         0.8898       -62.8637      -2.064461      0.9991943
      8190.0000         0.6667         0.8889         0.8678       -63.4134      -2.639664      0.9920042
      8190.5000         0.6664         0.8889         0.8344       -63.4163      -2.668068      0.9916492
      8191.0000         0.7212         0.9444         0.8182       -63.2176      -2.494869      0.9938141
      8191.5000         0.7761         0.9444          0.801       -61.7805      -1.083267              1
      8192.0000         0.8309              1         0.7964       -61.0571     -0.3853722              1
      8192.5000         0.8306              1         0.7898       -60.1447      0.5015259              1
      8193.0000         0.8303              1         0.7786       -59.5998       1.020924              1
      8193.5000           0.83         1.0556         0.7785       -59.0558       1.539421              1
      8194.0000         0.8298         1.0556         0.7785       -58.3766       2.193119              1
      8194.5000         0.8295         1.1111         0.7784       -57.4202       3.124016              1
      8195.0000         0.8292         1.1111         0.7784       -57.4227       3.096016              1
      8195.5000          0.884         1.1667         0.7783       -57.4258       3.067413              1
      8196.0000         0.8838         1.1667         0.7783       -57.9753       2.492409              1
      8196.5000         0.8835         1.1667         0.7893       -58.5255       1.916706              1
      8197.0000         0.8832         1.1667         0.7893       -59.1441       1.272606              1
      8197.5000         0.8829         1.1667         0.8003       -60.1724      0.2188034              1
      8198.0000         0.8826         1.2222         0.8114       -60.2225      0.1431999              1
      8198.5000         0.8823         1.1978         0.8224       -60.7251      -0.384903              1
      8199.0000         0.8821         1.2222         0.8335        -59.633      0.6816978              1
      8199.5000         0.8818         1.2778         0.8445       -59.5392      0.7499962              1
      8200.0000         0.8815         1.2778         0.8334       -59.0881       1.175591              1
      8200.5000         0.7446         1.0547         0.7946       -59.0881       1.150089              1
      8201.0000         0.7163         0.9983         0.7886       -59.0881       1.124588              1
      8201.5000         0.6612         0.9419         0.7773       -59.0881       1.099087              1
      8202.0000         0.6612         0.8855         0.7882       -59.0881       1.073582              1
      8202.5000         0.6061         0.8847         0.7924       -59.0881        1.04808              1
      8203.0000         0.6061         0.8838         0.7988       -59.0881       1.022579              1
      8203.5000         0.6061         0.8275         0.8098        -59.815      0.2701797              1
      8204.0000         0.6061         0.8266         0.8206       -60.7295     -0.6698227              1
      8204.5000         0.6061         0.7703         0.8204       -61.2766      -1.242428              1
      8205.0000         0.6061         0.7694         0.8313       -61.2766      -1.267929              1
      8205.5000         0.6014         0.7686         0.8279       -61.2766       -1.29343              1
      8206.0000         0.5672         0.7676         0.8197       -61.2766      -1.318932              1
      8206.5000          0.551         0.7977         0.8195       -60.7295     -0.7973366              1
      8207.0000          0.551         0.8216         0.8193       -60.5511     -0.6444397              1
      8207.5000          0.551         0.8208          0.819        -59.565      0.3161621              1
      8208.0000          0.551         0.8198         0.8188       -59.0881      0.7675591              1
      8208.5000          0.551         0.8191         0.8168        -58.541       1.289154              1
      8209.0000          0.551         0.8183         0.8072       -57.9939       1.810753              1
      8209.5000          0.551         0.8175          0.807       -57.4468       2.332352              1
      8210.0000          0.551         0.8166         0.8068       -57.4468        2.30685              1
      8210.5000          0.551         0.8713         0.7955       -57.4468       2.281345              1
      8211.0000          0.551         0.8705         0.7952       -58.2424       1.460243              1
      8211.5000          0.551         0.8697          0.795        -58.541       1.136143              1
      8212.0000          0.551         0.8688         0.7947       -59.0881      0.5635414              1
      8212.5000          0.551         0.8679         0.7946       -59.6353   -0.009162903              1
      8213.0000          0.551         0.9083         0.8055       -59.6353    -0.03466415              1
      8213.5000          0.551         0.9219         0.8052       -59.6353    -0.06016541              1
      8214.0000          0.551         0.9211         0.8161       -59.6353    -0.08566666              1
      8214.5000         0.5803         0.9758          0.827       -59.0881      0.4360275              1
      8215.0000         0.6061         0.9693         0.8379       -59.0881      0.4105263              1
      8215.5000         0.6345         0.9186         0.8488        -58.541      0.9321251              1
      8216.0000         0.6612         0.9177         0.8525       -57.9939       1.453724              1
      8216.5000         0.6612         0.9167         0.8705       -57.4468       1.975323              1
      8217.0000         0.7021         0.9161         0.8815       -57.4468       1.949818              1
      8217.5000         0.7163         0.9152         0.8923       -57.4468       1.924316              1
      8218.0000         0.7163         0.9144         0.8921       -58.0494       1.296215              1
      8218.5000         0.7713         0.9135         0.8918       -59.0881      0.2320137              1
      8219.0000         0.7713         0.9127         0.8916       -59.6353     -0.3406906              1
      8219.5000         0.7713         0.9119         0.8803       -60.1824     -0.9132919              1
