#------------------------------------------------------------------------------
# Created by    : vladimir.rabinovich
# Created on    : 09/19/2023 17:19:41
#------------------------------------------------------------------------------
~Version Information Section
VERS.           2.0     :   CWLS log ASCII Standard - VERSION 2.0
WRAP.           NO      :   One line per depth step
~Well Information Section
#MNEM       .UNIT                                         VALUE :DESCRIPTION
#------------------------------------------------------------------------------
STRT        .FT                                            1000 :START DEPTH
STOP        .FT                                         10019.5 :STOP DEPTH
STEP        .FT                                             0.5 :STEP      
NULL        .                                           -999.25 :NULL      
COMP        .                                UNION PRODUCING CO :COMPANY   
WELL        .                                            BARROW :WELL      
FLD         .                                           WILDCAT :FIELD     
LOC         .                                                   :LOCATION  
CNTY        .                                          CHAMBERS :LOCATION  
STAT        .                                             TEXAS :STATE     
CTRY        .                                     UNITED STATES :COUNTRY   
SRVC        .                                                   :SERVICE COMPANY
DATE        .                             9/13/2023 11:19:11 AM :LOG DATE  
API         .                                    42071025090000 :API NUMBER
UWI         .                                    42071025090000 :UNIQUE WELL ID
XCOORD      .                                  1126276.26743497 :SURFACE X 
YCOORD      .                                  10763240.3077352 :SURFACE Y 
LAT         .                                        29.6474899 :LATITUDE  
LON         .                                       -94.6189869 :LONGITUDE 
ELEV        .FT                                              18 :ELEVATION VALUE
ELEV_TYPE   .                                                DF :ELEVATION REFERENCE TYPE
~Curve Information Section
#MNEM       .UNIT                                      API CODE :CURVE DESCRIPTION
#------------------------------------------------------------------------------
DEPT        .FT                                                 :DEPTH     
AM64        .OHMM                                               :          
AO18        .OHMM                                               :          
SN16        .OHMM                                               :          
SP          .MV                                                 :          
SP_NORM     .MV                                                 :SP Normalized
VSH_SP      .V/V                                                :Volume of Shale from SP
~A        DEPTH           AM64           AO18           SN16             SP        SP_NORM         VSH_SP
# ...
      6396.0000         0.6083         0.7245         0.6791       -56.7676       2.491657              1
      6396.5000         0.6079         0.7242         0.6901       -55.2187       4.040558              1
      6397.0000         0.6077          0.724         0.7023       -54.1288       5.130459              1
      6397.5000         0.6074         0.7237          0.723       -54.1355       5.123756              1
      6398.0000         0.6623         0.7234         0.7238       -55.9086       3.350658              1
      6398.5000         0.6619         0.7231         0.7449       -61.8061      -2.546841        0.99442
      6399.0000         0.6066         0.7784          0.767       -63.4718      -4.212543       0.977423
      6399.5000         0.6614         0.8337         0.7779       -65.0998      -5.840542      0.9608108
      6400.0000         0.6612         0.9446         0.7778         -64.01      -4.750744      0.9719312
      6400.5000         0.6055         0.7222         0.7593       -61.7039      -2.444641      0.9954628
      6401.0000         0.6601         0.7222         0.7554        -59.644     -0.3847427              1
      6401.5000         0.6595         0.7778         0.7443        -58.007       1.252258              1
      6402.0000         0.6589         0.7778         0.7331       -57.4664       1.792858              1
      6402.5000         0.6584         0.7778         0.7283       -56.9238       2.335457              1
      6403.0000         0.6578         0.7778         0.6774       -56.3831        2.87616              1
      6403.5000         0.7125         0.7778         0.6552       -55.8405       3.418758              1
      6404.0000         0.7669         0.7778         0.6773        -55.847       3.412258              1
      6404.5000         0.7664         0.7778         0.7339       -56.0733       3.185959              1
      6405.0000         0.7658         0.7222         0.7772       -56.4051       2.854156              1
      6405.5000         0.7559         0.6667         0.7883       -55.8624       3.396858              1
      6406.0000         0.7096         0.5851         0.7993       -59.6987     -0.4394417              1
      6406.5000         0.7031         0.5556         0.8104       -66.7114      -7.452145      0.9443659
      6407.0000         0.6534         0.5556         0.7992       -72.2933      -13.03404      0.8874078
      6407.5000         0.5978         0.5556          0.785       -74.6732      -15.41394       0.863123
      6408.0000          0.487         0.5716         0.7213       -75.0398      -15.78054      0.8593822
      6408.5000         0.4314         0.6111         0.6879       -73.7749      -14.51564      0.8722894
      6409.0000         0.3505         0.7222         0.6768       -70.6738      -11.41454      0.9039333
      6409.5000         0.2945         0.7778         0.6656       -67.6131       -8.35384      0.9351649
      6410.0000         0.2645         0.8333         0.6655       -66.3078      -7.048542      0.9484842
      6410.5000         0.2639         0.8889         0.6544       -65.7651       -6.50584       0.954022
      6411.0000         0.2634           0.89         0.6543       -66.3188      -7.059544       0.948372
      6411.5000         0.2628         0.9444         0.6432       -66.3237      -7.064442       0.948322
      6412.0000         0.2777         0.9444         0.6431       -65.7826      -6.523342      0.9538435
      6412.5000         0.3375         0.9231         0.6431       -59.2216     0.03765869              1
      6413.0000         0.4265         0.8333         0.6763       -58.6811      0.5781593              1
      6413.5000         0.4259         0.7778         0.7117       -59.3542    -0.09494019              1
      6414.0000         0.4805         0.7222         0.7429       -60.8805      -1.621243              1
      6414.5000          0.535         0.7222         0.7539       -61.9795      -2.720242      0.9926506
      6415.0000         0.5896         0.7222         0.7539       -64.1741      -4.914845      0.9702567
      6415.5000         0.5889         0.7222         0.7538       -67.7611      -8.501842      0.9336547
      6416.0000         0.5885         0.7222         0.7538       -70.2033      -10.94404      0.9087343
      6416.5000         0.5878         0.7222         0.7426       -72.5744      -13.31514      0.8845394
      6417.0000         0.5874         0.7778          0.726       -75.6853      -16.42604      0.8527955
      6417.5000         0.5868         0.7778         0.6869       -76.7843      -17.52504      0.8415812
      6418.0000         0.5862         0.8333         0.6484       -76.7905      -17.53124       0.841518
      6418.5000         0.5857         0.8889         0.6313       -76.2478      -16.98854      0.8470557
      6419.0000         0.6403         0.9444         0.6312        -74.613      -15.35374      0.8637373
      6419.5000         0.6397              1         0.6312       -70.0251      -10.76584      0.9105526
      6420.0000         0.6392         1.0409         0.6311       -59.3039     -0.0446434              1
      6420.5000         0.6386         1.1111         0.6422       -59.8565     -0.5972404              1
      6421.0000         0.6381         1.1667         0.6462         -60.41      -1.150742              1
      6421.5000         0.6375         1.1667         0.6643       -60.4145      -1.155243              1
      6422.0000         0.6369         1.1667         0.6791       -59.8728     -0.6135406              1
      6422.5000         0.6364         1.1667         0.6975       -59.3099    -0.05064011              1
      6423.0000         0.6358         1.1111         0.7086       -58.7895      0.4697571              1
      6423.5000         0.6353         1.0556         0.7085       -58.7949      0.4643593              1
      6424.0000         0.5796         1.0556         0.7084       -59.3486    -0.08934021              1
      6424.5000         0.5791         1.0556         0.7084       -59.9001     -0.6408424              1
      6425.0000          0.551         1.0556         0.7083       -60.7202      -1.460941              1
      6425.5000         0.5051         1.1111         0.6972       -62.0995       -2.84024      0.9914261
      6426.0000          0.443         1.1111         0.6835       -63.9698      -4.710541      0.9723414
      6426.5000         0.4116         1.1111         0.6082       -68.6758      -9.416538      0.9243211
      6427.0000         0.3901         1.1111         0.5726       -68.6811      -9.421841      0.9242669
      6427.5000         0.3554         1.0556         0.5525       -69.7809      -10.52164      0.9130445
      6428.0000         0.3549         1.0283         0.5395       -75.9722      -16.71294      0.8498679
      6428.5000         0.3543              1          0.519       -79.1365      -19.87724      0.8175792
      6429.0000         0.3538         0.8666         0.5175       -75.6892      -16.42994      0.8527557
      6429.5000         0.3532         0.7778         0.4967       -71.4441      -12.18484       0.896073
      6430.0000         0.3527          0.632         0.4744       -91.4835      -32.22424      0.6915894
      6430.5000         0.3521         0.4444         0.4633      -127.8077      -68.54845      0.3209342
      6431.0000         0.3516         0.3889         0.4521      -160.2943       -101.035              0
      6431.5000          0.406         0.3889          0.452      -159.5511      -100.2918              0
      6432.0000         0.4056         0.3889          0.452      -155.7025      -96.44324      0.0362935
      6432.5000         0.5151         0.4444         0.5853      -151.3554      -92.09613     0.08065173
      6433.0000         0.5708            0.5         0.7422      -140.8336      -81.57434      0.1880169
      6433.5000         0.6244         0.5831         1.0181      -108.1444      -48.88514      0.5215802
