#------------------------------------------------------------------------------
# Created by    : vladimir.rabinovich
# Created on    : 09/19/2023 17:22:53
#------------------------------------------------------------------------------
~Version Information Section
VERS.           2.0     :   CWLS log ASCII Standard - VERSION 2.0
WRAP.           NO      :   One line per depth step
~Well Information Section
#MNEM       .UNIT                                         VALUE :DESCRIPTION
#------------------------------------------------------------------------------
STRT        .FT                                            1498 :START DEPTH
STOP        .FT                                           11000 :STOP DEPTH
STEP        .FT                                             0.5 :STEP      
NULL        .                                           -999.25 :NULL      
COMP        .                                     CANNAN MORRIS :COMPANY   
WELL        .                                             GARTH :WELL      
FLD         .                                           WILDCAT :FIELD     
LOC         .                                                   :LOCATION  
CNTY        .                                          CHAMBERS :LOCATION  
STAT        .                                             TEXAS :STATE     
CTRY        .                                     UNITED STATES :COUNTRY   
SRVC        .                                                   :SERVICE COMPANY
DATE        .                             9/13/2023 11:19:11 AM :LOG DATE  
API         .                                    42071310360000 :API NUMBER
UWI         .                                    42071310360000 :UNIQUE WELL ID
XCOORD      .                                  1175356.83007784 :SURFACE X 
YCOORD      .                                  10818692.0839896 :SURFACE Y 
LAT         .                                        29.8017803 :LATITUDE  
LON         .                                       -94.4666967 :LONGITUDE 
ELEV        .FT                                              25 :ELEVATION VALUE
ELEV_TYPE   .                                                GL :ELEVATION REFERENCE TYPE
~Curve Information Section
#MNEM       .UNIT                                      API CODE :CURVE DESCRIPTION
#------------------------------------------------------------------------------
DEPT        .FT                                                 :DEPTH     
ILD         .OHMM                                               :          
SFL         .OHMM                                               :          
SP          .MV                                                 :          
SP_NORM     .MV                                                 :SP Normalized
VSH_SP      .V/V                                                :Volume of Shale from SP
~A        DEPTH            ILD            SFL             SP        SP_NORM         VSH_SP
# ...
      5282.0000         0.8132         0.8238         -0.601       5.061148              1
      5282.5000          0.811         0.8198        -0.6595       5.010189              1
      5283.0000         0.8064         0.8156        -0.7231       4.954131              1
      5283.5000         0.8011         0.8114        -0.7868       4.897973              1
      5284.0000         0.7959         0.8073        -0.8504       4.841914              1
      5284.5000         0.7906         0.8031          -0.94       4.759856              1
      5285.0000         0.7886         0.7989        -1.0385       4.668898              1
      5285.5000         0.7899         0.7961        -1.1371       4.577839              1
      5286.0000         0.7912         0.7963        -1.2357       4.486781              1
      5286.5000         0.7925         0.7965        -1.2575       4.472523              1
      5287.0000         0.8002         0.8041        -1.1796       4.557964              1
      5287.5000         0.8082         0.8178        -1.1019       4.643206              1
      5288.0000         0.8162         0.8315        -1.0241       4.728548              1
      5288.5000         0.8249         0.8454        -0.9591       4.801089              1
      5289.0000         0.8345         0.8664        -0.9017       4.866031              1
      5289.5000          0.844         0.8875        -0.8444       4.930873              1
      5290.0000         0.8536         0.9085         -0.787       4.995814              1
      5290.5000         0.8631         0.9295        -0.6901       5.100256              1
      5291.0000         0.8727         0.9506        -0.5853       5.212598              1
      5291.5000         0.8772         0.9716        -0.4804       5.325039              1
      5292.0000         0.8815         0.9937        -1.0578       4.755181              1
      5292.5000         0.8857         1.0193        -1.7879       4.032623              1
      5293.0000         0.8776         1.0449        -2.8591       2.968965              1
      5293.5000         0.8694         1.0374        -4.0709       1.764707              1
      5294.0000         0.8612          1.026        -5.0231      0.8200483              1
      5294.5000         0.8548         1.0147        -5.9759     -0.1252103              1
      5295.0000          0.854         1.0033        -7.0053      -1.147069      0.9985145
      5295.5000         0.8532         0.9919        -7.0308      -1.165027       0.998333
      5296.0000         0.8524         0.9806        -7.0563      -1.182985      0.9981517
      5296.5000         0.8555         0.9905        -7.5687      -1.687843      0.9930521
      5297.0000         0.8676         1.0072        -8.7099      -2.821502       0.981601
      5297.5000         0.8797         1.0238        -9.9345       -4.03856      0.9693075
      5298.0000         0.8917          1.041       -12.0525      -6.149018      0.9479897
      5298.5000          0.912          1.055       -14.4134      -8.502377      0.9242184
      5299.0000         0.9325         1.0597       -16.8719      -10.95333      0.8994613
      5299.5000          0.953         1.0679       -17.6652      -11.73909      0.8915243
      5300.0000          0.978         1.0795       -18.4591      -12.52545      0.8835813
      5300.5000         1.0054         1.0911       -20.0027      -14.06151      0.8680655
      5301.0000         1.0326         1.1027       -21.3403      -15.39157      0.8546306
      5301.5000         1.0599         1.1143       -22.3575      -16.40123      0.8444321
      5302.0000         1.0872         1.1257        -23.376      -17.41218      0.8342203
      5302.5000          1.112          1.132       -24.1043      -18.13294        0.82694
      5303.0000         1.1369         1.1233       -24.8178       -18.8389      0.8198091
      5303.5000         1.1484          1.108       -25.4351      -19.44866      0.8136499
      5304.0000         1.1288         1.0856       -25.7155      -19.72152      0.8108938
      5304.5000         1.1092         1.0632       -25.1921      -19.19058      0.8162568
      5305.0000          1.083         1.0316       -24.4374      -18.42834      0.8239562
      5305.5000         1.0563         0.9959       -23.3122      -17.29559       0.835398
      5306.0000         1.0295         0.9602        -22.187      -16.16285      0.8468399
      5306.5000         1.0027         0.9262       -21.0617      -15.03001      0.8582827
      5307.0000         0.9713         0.8964       -19.8076      -13.76837      0.8710266
      5307.5000         0.9357         0.8667       -18.4873      -12.44053      0.8844391
      5308.0000         0.9002         0.8369       -17.1694      -11.11508      0.8978274
      5308.5000         0.8646         0.8071       -15.9534      -9.891542      0.9101865
      5309.0000         0.8286         0.7774       -14.7386      -8.669201      0.9225333
      5309.5000         0.7895         0.7745       -13.5471       -7.47016      0.9346449
      5310.0000         0.7504         0.7747       -12.3758      -6.291318      0.9465523
      5310.5000         0.7074         0.7749       -11.5309      -5.438876      0.9551629
      5311.0000         0.6694         0.7751        -10.499      -4.399434      0.9656623
      5311.5000          0.672         0.7769         -9.478      -3.370892      0.9760516
      5312.0000         0.6878         0.7791        -8.6362      -2.521551      0.9846308
      5312.5000          0.703         0.7841        -7.7945      -1.672309       0.993209
      5313.0000         0.7158         0.7898        -7.1153     -0.9855676              1
      5313.5000         0.7287         0.7974        -6.4557     -0.3184257              1
      5314.0000         0.7415         0.8061        -5.6471       0.497716              1
      5314.5000         0.7543         0.8148         -3.931       2.221358              1
      5315.0000         0.7671         0.8234        -3.4879       2.671999              1
      5315.5000         0.7799         0.8312        -3.2812       2.886241              1
      5316.0000         0.7896         0.8388        -3.0748       3.100183              1
      5316.5000         0.7989         0.8465        -2.8682       3.314325              1
      5317.0000         0.8083         0.8541        -2.6496       3.540466              1
      5317.5000         0.8176         0.8618         -2.416       3.781608              1
      5318.0000          0.827         0.8647        -2.1822        4.02295              1
      5318.5000         0.8364         0.8649        -1.8139       4.398791              1
      5319.0000           0.84         0.8651        -1.3679       4.852333              1
      5319.5000         0.8368         0.8654        -0.9838       5.243975              1
      5320.0000         0.8337         0.8636        -1.5541       4.681216              1
      5320.5000         0.8306         0.8609        -2.5388       3.704058              1
      5321.0000         0.8274         0.8583        -3.5831         2.6673              1
      5321.5000         0.8273         0.8556         -4.247       2.010941              1
      5322.0000         0.8283         0.8529        -4.9114       1.354083              1
      5322.5000         0.8293         0.8521        -5.5961      0.6769247              1
      5323.0000         0.8303          0.859        -6.4201     -0.1395335              1
      5323.5000         0.8312         0.8724        -7.1963     -0.9081917              1
      5324.0000         0.8362         0.8945        -7.6803       -1.38465      0.9961147
      5324.5000         0.8436         0.9164        -8.1644      -1.861208      0.9913009
      5325.0000          0.851         0.9349         -8.654      -2.343267      0.9864317
      5325.5000         0.8301         0.9534        -9.1516      -2.833325      0.9814816
