#------------------------------------------------------------------------------
# Created by    : vladimir.rabinovich
# Created on    : 09/19/2023 17:22:50
#------------------------------------------------------------------------------
~Version Information Section
VERS.           2.0     :   CWLS log ASCII Standard - VERSION 2.0
WRAP.           NO      :   One line per depth step
~Well Information Section
#MNEM       .UNIT                                         VALUE :DESCRIPTION
#------------------------------------------------------------------------------
STRT        .FT                                          1999.5 :START DEPTH
STOP        .FT                                            9645 :STOP DEPTH
STEP        .FT                                             0.5 :STEP      
NULL        .                                           -999.25 :NULL      
COMP        .                          STANDARD OIL CO OF TEXAS :COMPANY   
WELL        .                                  STATE TRACT 1-4D :WELL      
FLD         .                                           WILDCAT :FIELD     
LOC         .                                                   :LOCATION  
CNTY        .                                          CHAMBERS :LOCATION  
STAT        .                                             TEXAS :STATE     
CTRY        .                                     UNITED STATES :COUNTRY   
SRVC        .                                                   :SERVICE COMPANY
DATE        .                             9/13/2023 11:19:11 AM :LOG DATE  
API         .                                    42071032270000 :API NUMBER
UWI         .                                    42071032270000 :UNIQUE WELL ID
XCOORD      .                                  1086986.65859336 :SURFACE X 
YCOORD      .                                  10762945.0682871 :SURFACE Y 
LAT         .                                        29.6451099 :LATITUDE  
LON         .                                       -94.7426468 :LONGITUDE 
ELEV        .FT                                              20 :ELEVATION VALUE
ELEV_TYPE   .                                                DF :ELEVATION REFERENCE TYPE
~Curve Information Section
#MNEM       .UNIT                                      API CODE :CURVE DESCRIPTION
#------------------------------------------------------------------------------
DEPT        .FT                                                 :DEPTH     
DT          .US/F                                               :          
IND         .OHMM                                               :          
SN          .OHMM                                               :          
SP          .MV                                                 :          
SP_NORM     .MV                                                 :SP Normalized
VSH_SP      .V/V                                                :Volume of Shale from SP
~A        DEPTH             DT            IND             SN             SP        SP_NORM         VSH_SP
# ...
      8079.5000       110.3232         0.6474         0.7645       -44.7059      -2.730591      0.9848194
      8080.0000       107.2693         0.6696         0.7843       -50.1961      -8.220791      0.9366598
      8080.5000       101.0784         0.7024         0.8731        -52.549      -10.57369      0.9160202
      8081.0000        96.0914         0.7264         1.0588        -54.902      -12.92669      0.8953799
      8081.5000        92.3188         0.7579         1.1529       -57.2549      -15.27959      0.8747404
      8082.0000        89.2848         0.7894          1.372       -59.6078      -17.63249      0.8541009
      8082.5000        91.4498         0.7898          1.616       -60.7843      -18.80899      0.8437808
      8083.0000        93.5273         0.8058          1.616       -63.5294      -21.55409       0.819701
      8083.5000        94.2332         0.7907          1.608       -63.9216      -21.94629      0.8162606
      8084.0000         94.078         0.7756          1.498       -64.3137      -22.33839      0.8128211
      8084.5000        94.2738         0.7585         1.4275       -64.7059      -22.73059      0.8093808
      8085.0000        95.1073           0.73          1.324       -64.7059      -22.73059      0.8093808
      8085.5000        97.1703          0.715         1.1961       -63.1373      -21.16199      0.8231404
      8086.0000        99.0025         0.7155         1.0706       -58.0392      -16.06389      0.8678606
      8086.5000       100.1084         0.7231         0.9885       -54.5098      -12.53449      0.8988202
      8087.0000        99.1798         0.7404         0.9654       -51.3725      -9.397194      0.9263404
      8087.5000        98.0149          0.779         0.9577       -49.4118      -7.436493      0.9435396
      8088.0000        97.3229         0.8104         0.9462       -49.4118      -7.436493      0.9435396
      8088.5000        98.8691         0.8141         0.9308       -49.4118      -7.436493      0.9435396
      8089.0000        97.8264         0.7803         0.9269       -50.1961      -8.220791      0.9366598
      8089.5000        96.4708         0.7188         0.9077       -56.0784      -14.10309      0.8850606
      8090.0000        96.7152         0.6246         0.8846       -61.1765      -19.20119      0.8403404
      8090.5000        94.6555         0.5419         0.8616       -71.3683      -29.39299      0.7509387
      8091.0000        94.3814         0.4319         0.8424       -81.5976       -39.6223      0.6612079
      8091.5000        96.5464         0.3399         0.7922       -95.9601      -53.98479      0.5352212
      8092.0000        98.7889         0.2814         0.7412      -107.6466       -65.6713      0.4327079
      8092.5000       102.1331         0.2496         0.7529      -115.3636      -73.38829       0.365015
      8093.0000       106.6765         0.2333         0.8735      -123.1373      -81.16199      0.2968247
      8093.5000       106.6287         0.2263         0.9936      -130.9804      -89.00508      0.2280256
      8094.0000       106.3558         0.2269         1.0564      -138.8235      -96.84819      0.1592264
      8094.5000       105.8245         0.2118          1.186      -150.7052      -108.7299     0.05500098
      8095.0000       105.3021         0.2123         1.1862       -158.222      -116.2467              0
      8095.5000       104.4404         0.2127         1.1825      -162.5346      -120.5593              0
      8096.0000       103.8897         0.1821         1.1003      -163.6914      -121.7161              0
      8096.5000       103.1786         0.1812         1.0417      -163.6714      -121.6961              0
      8097.0000       102.6811         0.1648         0.9364      -162.8668      -120.8915              0
      8097.5000       102.2643         0.1525         0.8195      -159.3127      -117.3374              0
      8098.0000       101.8306          0.153          0.702      -154.1742      -112.1989      0.0245712
      8098.5000        101.493         0.1535         0.5267      -146.6865      -104.7112     0.09025279
      8099.0000       101.1029         0.1617         0.4112      -141.5717      -99.59639      0.1351194
      8099.5000        100.768         0.1855         0.3449      -138.8235      -96.84819      0.1592264
      8100.0000       100.5349         0.1859         0.3372       -132.549      -90.57368      0.2142659
      8100.5000       100.4055         0.2174         0.3333      -126.6502       -84.6749      0.2660097
      8101.0000        100.869         0.2488         0.3333      -120.3531      -78.37779      0.3212474
      8101.5000       101.7816         0.3268         0.3373      -112.9093      -70.93399      0.3865439
      8102.0000       103.4469         0.4203         0.3529       -97.2452      -55.26989      0.5239483
      8102.5000       107.9056         0.5006            0.4       -81.8788      -39.90349      0.6587413
      8103.0000       108.8393         0.5297         0.4812       -65.9663      -23.99099      0.7983246
      8103.5000       108.1029         0.5228         0.5432       -58.0392      -16.06389      0.8678606
      8104.0000       102.5679         0.4587         0.6094       -58.0392      -16.06389      0.8678606
      8104.5000       100.6369         0.3884         0.7272       -70.7067       -28.7314      0.7567421
      8105.0000       100.5563         0.3305         0.8486       -83.3706      -41.39529      0.6456553
      8105.5000       104.5774         0.2907         0.9069       -96.0366      -54.06129      0.5345501
      8106.0000       107.7171          0.238         1.2794      -108.9177       -66.9424      0.4215579
      8106.5000       108.2116          0.223         1.2874      -127.5895       -85.6142      0.2577702
      8107.0000       107.2057         0.2234         1.2994      -140.5201      -98.54478       0.144344
      8107.5000       105.4336         0.2239         1.3114       -146.471      -104.4957     0.09214314
      8108.0000       103.5285         0.1933         1.3554      -151.6363       -109.661     0.04683337
      8108.5000       102.6413         0.1938         1.3954      -156.0136      -114.0383    0.008436102
      8109.0000       102.3457         0.1787         1.4152      -156.4087      -114.4334    0.004970216
      8109.5000       102.4813         0.1636         1.4194       -157.204      -115.2287              0
      8110.0000       104.1095         0.1595         1.4195      -158.0009      -116.0256              0
      8110.5000        104.451          0.149         1.1687         -158.8      -116.8247              0
      8111.0000       104.1915         0.1496         1.0746         -158.8      -116.8247              0
      8111.5000       102.4067         0.1585         0.9346         -158.8      -116.8247              0
      8112.0000       100.6998         0.1661         0.8385         -158.8      -116.8247              0
      8112.5000        98.9061         0.1726         0.7412         -157.6      -115.6247              0
      8113.0000        96.0636         0.1912         0.6314         -153.6      -111.6247     0.02960794
      8113.5000         93.329         0.2097         0.5294         -146.8      -104.8247     0.08925709
      8114.0000        92.4187         0.2298         0.4824         -140.4      -98.42468      0.1453975
      8114.5000        92.4273         0.2772         0.4235      -136.8627      -94.88739      0.1764264
      8115.0000        93.5355         0.3092         0.4196      -119.2308      -77.25549      0.3310922
      8115.5000        96.4158         0.3748         0.4275      -101.9231       -59.9478      0.4829141
      8116.0000        97.7625         0.4921          0.502          -93.2      -51.22469      0.5594326
      8116.5000        96.8977         0.6494         0.6314       -75.2357       -33.2604      0.7170141
      8117.0000        95.1889         0.8508         0.6941       -56.5899      -14.61459      0.8805737
