#------------------------------------------------------------------------------
# Created by    : vladimir.rabinovich
# Created on    : 09/19/2023 17:22:53
#------------------------------------------------------------------------------
~Version Information Section
VERS.           2.0     :   CWLS log ASCII Standard - VERSION 2.0
WRAP.           NO      :   One line per depth step
~Well Information Section
#MNEM       .UNIT                                         VALUE :DESCRIPTION
#------------------------------------------------------------------------------
STRT        .FT                                            1498 :START DEPTH
STOP        .FT                                           11000 :STOP DEPTH
STEP        .FT                                             0.5 :STEP      
NULL        .                                           -999.25 :NULL      
COMP        .                                     CANNAN MORRIS :COMPANY   
WELL        .                                             GARTH :WELL      
FLD         .                                           WILDCAT :FIELD     
LOC         .                                                   :LOCATION  
CNTY        .                                          CHAMBERS :LOCATION  
STAT        .                                             TEXAS :STATE     
CTRY        .                                     UNITED STATES :COUNTRY   
SRVC        .                                                   :SERVICE COMPANY
DATE        .                             9/13/2023 11:19:11 AM :LOG DATE  
API         .                                    42071310360000 :API NUMBER
UWI         .                                    42071310360000 :UNIQUE WELL ID
XCOORD      .                                  1175356.83007784 :SURFACE X 
YCOORD      .                                  10818692.0839896 :SURFACE Y 
LAT         .                                        29.8017803 :LATITUDE  
LON         .                                       -94.4666967 :LONGITUDE 
ELEV        .FT                                              25 :ELEVATION VALUE
ELEV_TYPE   .                                                GL :ELEVATION REFERENCE TYPE
~Curve Information Section
#MNEM       .UNIT                                      API CODE :CURVE DESCRIPTION
#------------------------------------------------------------------------------
DEPT        .FT                                                 :DEPTH     
ILD         .OHMM                                               :          
SFL         .OHMM                                               :          
SP          .MV                                                 :          
SP_NORM     .MV                                                 :SP Normalized
VSH_SP      .V/V                                                :Volume of Shale from SP
~A        DEPTH            ILD            SFL             SP        SP_NORM         VSH_SP
# ...
      4006.0000         0.2767         0.9957       -85.8613      -74.49844      0.2181017
      4006.5000         0.2839         0.9888       -69.3839      -58.02252      0.3933775
      4007.0000         0.2914         0.9819       -52.7571      -41.39718      0.5702428
      4007.5000         0.2988         0.9683       -48.8998      -37.54136      0.6112622
      4008.0000          0.325         0.9531       -43.6465      -32.28952      0.6671327
      4008.5000         0.3513         0.9367       -41.5991      -30.24359       0.688898
      4009.0000         0.3787          0.917       -39.5676      -28.21357       0.710494
      4009.5000         0.4144         0.8972       -42.6791      -31.32654      0.6773773
      4010.0000         0.4501         0.8913       -54.2486      -42.89751      0.5542818
      4010.5000         0.4665         0.8996       -61.7379      -50.38828      0.4745928
      4011.0000         0.4596          0.908        -65.098      -53.74985      0.4388314
      4011.5000         0.4528          0.909       -67.2605      -55.91381      0.4158105
      4012.0000          0.446         0.9049       -65.3784      -54.03319      0.4358172
      4012.5000         0.4367         0.9008       -63.6237      -52.27996      0.4544685
      4013.0000         0.4255         0.8867       -64.3499      -53.00763      0.4467274
      4013.5000         0.4142         0.8709       -65.9735       -54.6327      0.4294393
      4014.0000          0.406         0.8551       -67.6927      -56.35337      0.4111344
      4014.5000         0.3985         0.8785       -68.4585      -57.12064      0.4029719
      4015.0000          0.391         0.9062       -69.5297      -58.19331      0.3915605
      4015.5000         0.3836         0.9357       -71.8182      -60.48328      0.3671992
      4016.0000         0.3763         0.9663       -74.4106      -63.07715      0.3396048
      4016.5000          0.369         0.9969        -76.027      -64.69502      0.3223934
      4017.0000         0.3618         1.0275       -77.7108      -66.38029       0.304465
      4017.5000         0.3545         1.0398       -78.8514      -67.52236      0.2923153
      4018.0000         0.3473         1.0288       -80.3975      -69.06993      0.2758518
      4018.5000          0.341         1.0037       -75.9181        -64.592      0.3234894
      4019.0000         0.3362         0.9787       -66.4364      -55.11177      0.4243429
      4019.5000         0.3473         0.9484       -64.7502      -53.42704      0.4422655
      4020.0000         0.3615         0.9153       -63.1633      -51.84161      0.4591318
      4020.5000         0.3756         0.8822       -62.4506      -51.13038      0.4666981
      4021.0000         0.3898         0.8491        -67.653      -56.33425      0.4113378
      4021.5000         0.3928         0.8142       -68.5518      -57.23453      0.4017603
      4022.0000         0.3882          0.775       -69.4507      -58.13489       0.392182
      4022.5000         0.3837         0.7886       -71.4375      -60.12316      0.3710302
      4023.0000         0.3782         0.8093       -73.7825      -62.46964      0.3460677
      4023.5000         0.3702         0.8309        -77.576       -66.2646      0.3056957
      4024.0000         0.3622         0.8541        -79.075      -67.76507      0.2897333
      4024.5000         0.3542         0.8773        -76.545      -65.23654      0.3166325
      4025.0000         0.3461         0.8942       -66.6189      -55.31191      0.4222137
      4025.5000         0.3383          0.859       -65.0099      -53.70439       0.439315
      4026.0000         0.3305          0.812       -63.2514      -51.94735      0.4580069
      4026.5000         0.3229         0.7699       -60.6725      -49.36993      0.4854263
      4027.0000         0.3223         0.7381       -58.4745      -47.17339      0.5087937
      4027.5000         0.3217         0.7063       -62.4958      -51.19617      0.4659982
      4028.0000         0.3212         0.6817       -64.5751      -53.27694      0.4438623
      4028.5000         0.3206         0.6597       -65.7917      -54.49501      0.4309042
      4029.0000           0.32         0.6887       -67.0083      -55.71308       0.417946
      4029.5000         0.3305         0.7203       -67.3795      -56.08575      0.4139814
      4030.0000         0.3413         0.7606       -67.2661      -55.97382      0.4151722
      4030.5000         0.3521         0.8009       -66.9263      -55.63549      0.4187714
      4031.0000         0.3629         0.8374       -67.1307      -55.84135      0.4165813
      4031.5000         0.3738         0.8581       -73.7727      -62.48483      0.3459061
      4032.0000          0.385         0.8788        -75.858       -64.5716      0.3237064
      4032.5000         0.3962         0.8995       -80.5518      -69.26687      0.2737567
      4033.0000         0.3916         0.9156       -85.3079      -74.02444      0.2231443
      4033.5000         0.3772          0.923        -88.292      -77.01001      0.1913829
      4034.0000          0.357         0.9305       -90.7644      -79.48387      0.1650652
      4034.5000         0.3299         0.9381       -93.1731      -81.89405       0.139425
      4035.0000         0.3027         0.9457       -92.0244      -80.74682      0.1516296
      4035.5000         0.2785         0.9371       -90.6493      -79.37319      0.1662426
      4036.0000         0.2616         0.9128       -88.8884      -77.61375      0.1849601
      4036.5000         0.2446         0.8885       -85.9813      -74.70813       0.215871
      4037.0000          0.238         0.8582       -82.1338       -70.8621      0.2567862
      4037.5000         0.2406         0.8276       -75.7894      -64.51917      0.3242642
      4038.0000         0.2431         0.7969       -73.5829      -62.31414      0.3477219
      4038.5000         0.2457         0.7678       -71.3774      -60.11012       0.371169
      4039.0000         0.2482         0.7415       -70.1382      -58.87238      0.3843364
      4039.5000         0.2517         0.7152       -79.7998      -68.53545      0.2815378
      4040.0000         0.2561         0.7096       -81.4469      -70.18402      0.2639998
      4040.5000         0.2606         0.7363        -82.413       -71.1516      0.2537064
      4041.0000          0.265          0.763       -81.5962      -70.33626      0.2623802
      4041.5000         0.2695         0.7896       -79.5917      -68.33323      0.2836891
      4042.0000         0.2752         0.8141       -75.8715       -64.6145        0.32325
      4042.5000         0.2812         0.8348       -68.9969      -57.74137      0.3963684
      4043.0000         0.2881         0.8476       -65.1935      -53.93944      0.4368145
      4043.5000         0.3026          0.837       -56.9867      -45.73411      0.5241052
      4044.0000         0.3211         0.8265       -50.0754      -38.82428       0.597614
      4044.5000         0.3596         0.8159       -43.1298      -31.88015      0.6714877
      4045.0000         0.4109         0.8054       -26.8091      -15.56092      0.8450965
      4045.5000          0.469         0.7948       -10.9194      0.3273058              1
      4046.0000         0.5531         0.8059        -9.8743       1.370935              1
      4046.5000         0.7231         0.8829        -9.3242       1.919565              1
      4047.0000         0.8391         1.0606        -9.2069       2.035396              1
      4047.5000         1.0022         1.2851       -10.1413       1.099524              1
      4048.0000         1.2185         1.3773       -11.1264      0.1129541              1
      4048.5000         1.3472         1.4198       -13.2155      -1.977615      0.9895998
      4049.0000         1.4094         1.4599       -16.0992      -4.862785      0.9589065
      4049.5000         1.4441         1.4838       -21.6954      -10.46046      0.8993568
