#------------------------------------------------------------------------------
# Created by    : vladimir.rabinovich
# Created on    : 09/19/2023 17:22:55
#------------------------------------------------------------------------------
~Version Information Section
VERS.           2.0     :   CWLS log ASCII Standard - VERSION 2.0
WRAP.           NO      :   One line per depth step
~Well Information Section
#MNEM       .UNIT                                         VALUE :DESCRIPTION
#------------------------------------------------------------------------------
STRT        .FT                                            1527 :START DEPTH
STOP        .FT                                            8498 :STOP DEPTH
STEP        .FT                                             0.5 :STEP      
NULL        .                                           -999.25 :NULL      
COMP        .                           SAN JUAN EXPLORATION CO :COMPANY   
WELL        .                                MIDDLETON ETAL R M :WELL      
FLD         .                                           WILDCAT :FIELD     
LOC         .                                                   :LOCATION  
CNTY        .                                          CHAMBERS :LOCATION  
STAT        .                                             TEXAS :STATE     
CTRY        .                                     UNITED STATES :COUNTRY   
SRVC        .                                                   :SERVICE COMPANY
DATE        .                             9/13/2023 11:19:11 AM :LOG DATE  
API         .                                    42071022810000 :API NUMBER
UWI         .                                    42071022810000 :UNIQUE WELL ID
XCOORD      .                                  1136491.54221464 :SURFACE X 
YCOORD      .                                  10781024.2027564 :SURFACE Y 
LAT         .                                        29.6967824 :LATITUDE  
LON         .                                       -94.5875983 :LONGITUDE 
ELEV        .FT                                              24 :ELEVATION VALUE
ELEV_TYPE   .                                                DF :ELEVATION REFERENCE TYPE
~Curve Information Section
#MNEM       .UNIT                                      API CODE :CURVE DESCRIPTION
#------------------------------------------------------------------------------
DEPT        .FT                                                 :DEPTH     
LAT         .OHMM                                               :          
LN          .OHMM                                               :          
SN          .OHMM                                               :          
SP          .MV                                                 :          
SP_NORM     .MV                                                 :SP Normalized
VSH_SP      .V/V                                                :Volume of Shale from SP
~A        DEPTH            LAT             LN             SN             SP        SP_NORM         VSH_SP
# ...
      5213.0000         0.0616         0.5572         0.5959      -144.0015      -76.60627      0.1408378
      5213.5000         0.0673         0.5538         0.5816      -139.2754      -71.88358      0.1945047
      5214.0000         0.0729         0.5504         0.5813      -134.3206      -66.93218      0.2507707
      5214.5000         0.0786          0.547         0.5923      -131.3044      -63.91938       0.285007
      5215.0000         0.1061         0.5436         0.6033      -129.3728      -61.99119      0.3069183
      5215.5000         0.1373         0.5401         0.6143      -127.4547      -60.07648      0.3286763
      5216.0000         0.1686         0.5707         0.6253      -125.5616      -58.18679      0.3501501
      5216.5000         0.1999         0.6104         0.6447      -123.5055      -56.13409      0.3734762
      5217.0000         0.2311         0.6429         0.6693      -120.9761      -53.60809      0.4021808
      5217.5000         0.2699         0.6656         0.6939      -106.7935       -39.4289      0.5633079
      5218.0000         0.3211         0.6883         0.7185      -100.3984       -33.0372      0.6359409
      5218.5000         0.3723          0.711         0.7431        -96.422       -29.0642      0.6810886
      5219.0000         0.4235         0.7297         0.7678       -91.0144         -23.66      0.7424999
      5219.5000         0.4746         0.7382         0.7939        -85.172      -17.82101      0.8088522
      5220.0000         0.5252         0.7468         0.8237       -73.7317      -6.384109       0.938817
      5220.5000         0.5715         0.7553         0.8535       -64.2095       3.134682              1
      5221.0000         0.6176         0.7638         0.8833       -63.1107       4.230083              1
      5221.5000         0.6638         0.7724          0.913       -62.7755       4.561878              1
      5222.0000         0.7093         0.7733         0.9229       -63.5347       3.799278              1
      5222.5000         0.7314         0.7716         0.9174       -64.7654        2.56517              1
      5223.0000         0.7535         0.7699         0.9118        -67.536     -0.2088318              1
      5223.5000         0.7756         0.7682         0.9063       -71.0052      -3.681435      0.9695292
      5224.0000         0.7652         0.7665         0.9008        -75.344      -8.023636       0.920186
      5224.5000         0.7508         0.7648         0.8953       -78.7046      -11.38763      0.8819587
      5225.0000         0.7363         0.7631         0.8897       -80.5083      -13.19474      0.8614234
      5225.5000         0.7219         0.7614         0.8842       -80.2592      -12.94904      0.8642154
      5226.0000          0.711         0.7671         0.8834       -79.2288      -11.92204      0.8758859
      5226.5000         0.7209         0.7773         0.8834       -78.1973      -10.89395      0.8875687
      5227.0000         0.7307         0.7875         0.8835       -76.3857      -9.085747      0.9081165
      5227.5000         0.7405         0.7977         0.8836       -73.7068      -6.410255      0.9385198
      5228.0000         0.7458         0.8079         0.8837       -71.1615      -3.868355      0.9674051
      5228.5000         0.7446         0.8181         0.8864       -69.1575       -1.86776      0.9901391
      5229.0000         0.7434         0.8283         0.9143       -70.2343       -2.94796      0.9778641
      5229.5000         0.7422         0.8363         0.9424       -71.8047      -4.521767        0.95998
      5230.0000          0.741         0.8422         0.9704       -73.1633      -5.883766      0.9445027
      5230.5000         0.7398         0.8481           0.96       -70.4822       -3.20607       0.974931
      5231.0000         0.7162          0.854         0.9361       -67.8032     -0.5304794              1
      5231.5000           0.69         0.8599         0.9122       -67.0367      0.2326202              1
      5232.0000         0.6638         0.8538         0.8882        -66.337      0.9289169              1
      5232.5000         0.6375         0.8381         0.8643       -65.6367       1.625809              1
      5233.0000         0.6113         0.8223         0.8404       -65.6073        1.65181              1
      5233.5000         0.5629         0.8066         0.8198        -65.694       1.561707              1
      5234.0000         0.5411         0.7908         0.8017       -65.7805       1.471802              1
      5234.5000         0.5742         0.7751         0.7837       -65.8672       1.381699              1
      5235.0000         0.6073         0.7625         0.7656       -65.9539       1.291595              1
      5235.5000         0.6405         0.7546         0.7475       -66.6263       0.615799              1
      5236.0000         0.6493         0.7467         0.7294        -67.339     -0.1003036              1
      5236.5000         0.6529         0.7388         0.7368       -68.0513     -0.8160095              1
      5237.0000         0.6564         0.7308         0.7594       -68.7639      -1.532013      0.9939544
      5237.5000         0.6919         0.7229         0.7821       -69.4376      -2.209114      0.9862601
      5238.0000         0.7429          0.715         0.8048       -70.0457      -2.820618      0.9793112
      5238.5000         0.7939         0.7071         0.8132       -70.6537      -3.432022      0.9723634
      5239.0000          0.823         0.7003          0.806        -70.933      -3.714722      0.9691509
      5239.5000         0.8447         0.6964         0.7988       -70.7196      -3.504723      0.9715372
      5240.0000         0.8664         0.6926         0.7916       -70.5065      -3.295029      0.9739201
      5240.5000         0.8881         0.6887         0.7844       -70.2933      -3.085228      0.9763042
      5241.0000         0.9098         0.6849         0.7772       -69.9969      -2.792236      0.9796337
      5241.5000         0.9315          0.681          0.776       -69.4932      -2.291939      0.9853189
      5242.0000         0.9532         0.6771           0.78       -68.9888      -1.790939       0.991012
      5242.5000          0.966         0.6733          0.784       -68.4843      -1.289841      0.9967064
      5243.0000         0.9748         0.6761         0.7881       -70.1334      -2.942345      0.9779279
      5243.5000         0.9836         0.6793         0.7921       -72.3187       -5.13105      0.9530563
      5244.0000         0.9795         0.6825         0.7809        -76.979      -9.794746      0.9000597
      5244.5000         0.9515         0.6857         0.7694        -82.921      -15.74015      0.8324983
      5245.0000         0.9234         0.6888         0.7579       -88.3287      -21.15125      0.7710085
      5245.5000         0.8724          0.692         0.7464       -93.4465      -26.27246       0.712813
      5246.0000         0.8145         0.6953         0.7349      -101.5035      -34.33286      0.6212175
      5246.5000         0.7566         0.7001         0.7234      -113.6232      -46.45596       0.483455
      5247.0000         0.6987         0.7049         0.7119      -121.8784      -54.71457      0.3896072
      5247.5000         0.6409         0.7097         0.7004       -122.174      -55.01357      0.3862094
      5248.0000         0.5876         0.7146         0.6889      -116.1549      -48.99787      0.4545696
      5248.5000         0.5376         0.7135         0.6774      -109.5697      -42.41608      0.5293627
      5249.0000         0.4877         0.7056         0.6672      -101.3314      -34.18118      0.6229412
      5249.5000         0.4824         0.6977         0.6726       -86.7662      -19.61938      0.7884161
      5250.0000         0.5479         0.6972          0.678       -83.0751      -15.93169      0.8303217
      5250.5000         0.5938         0.7143         0.6835       -80.7925      -13.65249      0.8562217
