#------------------------------------------------------------------------------
# Created by    : vladimir.rabinovich
# Created on    : 09/19/2023 17:22:53
#------------------------------------------------------------------------------
~Version Information Section
VERS.           2.0     :   CWLS log ASCII Standard - VERSION 2.0
WRAP.           NO      :   One line per depth step
~Well Information Section
#MNEM       .UNIT                                         VALUE :DESCRIPTION
#------------------------------------------------------------------------------
STRT        .FT                                            1498 :START DEPTH
STOP        .FT                                           11000 :STOP DEPTH
STEP        .FT                                             0.5 :STEP      
NULL        .                                           -999.25 :NULL      
COMP        .                                     CANNAN MORRIS :COMPANY   
WELL        .                                             GARTH :WELL      
FLD         .                                           WILDCAT :FIELD     
LOC         .                                                   :LOCATION  
CNTY        .                                          CHAMBERS :LOCATION  
STAT        .                                             TEXAS :STATE     
CTRY        .                                     UNITED STATES :COUNTRY   
SRVC        .                                                   :SERVICE COMPANY
DATE        .                             9/13/2023 11:19:11 AM :LOG DATE  
API         .                                    42071310360000 :API NUMBER
UWI         .                                    42071310360000 :UNIQUE WELL ID
XCOORD      .                                  1175356.83007784 :SURFACE X 
YCOORD      .                                  10818692.0839896 :SURFACE Y 
LAT         .                                        29.8017803 :LATITUDE  
LON         .                                       -94.4666967 :LONGITUDE 
ELEV        .FT                                              25 :ELEVATION VALUE
ELEV_TYPE   .                                                GL :ELEVATION REFERENCE TYPE
~Curve Information Section
#MNEM       .UNIT                                      API CODE :CURVE DESCRIPTION
#------------------------------------------------------------------------------
DEPT        .FT                                                 :DEPTH     
ILD         .OHMM                                               :          
SFL         .OHMM                                               :          
SP          .MV                                                 :          
SP_NORM     .MV                                                 :SP Normalized
VSH_SP      .V/V                                                :Volume of Shale from SP
~A        DEPTH            ILD            SFL             SP        SP_NORM         VSH_SP
# ...
      2114.0000         1.3246         1.2387       -20.1463    -0.04556847              1
      2114.5000         1.3421         1.2538       -20.8816     -0.7718811              1
      2115.0000         1.3607          1.269       -21.6723      -1.553595       0.992519
      2115.5000         1.3795         1.2842        -22.491      -2.363306      0.9815769
      2116.0000         1.3982         1.2978       -23.3096      -3.172918      0.9706362
      2116.5000         1.4105         1.3037       -24.1748      -4.029131      0.9590658
      2117.0000         1.4083         1.3096       -25.0869      -4.932243      0.9468616
      2117.5000         1.4024         1.3155        -26.061      -5.897356      0.9338195
      2118.0000         1.3901         1.3219       -27.6805      -7.507868      0.9120559
      2118.5000         1.3778         1.3293       -29.4851       -9.30348      0.8877908
      2119.0000         1.3647         1.3534       -31.7391      -11.54849      0.8574528
      2119.5000         1.3438         1.3842       -33.9556      -13.75601      0.8276215
      2120.0000         1.3229          1.433        -36.109      -15.90042       0.798643
      2120.5000         1.3021         1.4937       -40.5194      -20.30183      0.7391645
      2121.0000         1.2556         1.5643       -46.4102      -26.18364      0.6596805
      2121.5000         1.1963         1.6266       -50.3468      -30.11126      0.6066046
      2122.0000         1.1017         1.6849       -54.8228      -34.57827      0.5462397
      2122.5000          1.007         1.7119       -68.4298      -48.17628      0.3624827
      2123.0000          0.855         1.6441       -80.4664      -60.20389      0.1999474
      2123.5000         0.7721         1.5879       -82.7994       -62.5279      0.1685418
      2124.0000         0.7135         1.5261       -84.2332      -63.95272      0.1492876
      2124.5000         0.6576          1.449       -84.9467      -64.65723      0.1397672
      2125.0000         0.6082         1.3919       -84.3068      -64.00834       0.148536
      2125.5000         0.5668         1.3494       -83.0721      -62.76465      0.1653426
      2126.0000         0.5429          1.309       -82.1637      -61.84726      0.1777397
      2126.5000          0.522         1.2741       -81.6476      -61.32217      0.1848355
      2127.0000         0.5012         1.2426       -81.4714      -61.13699       0.187338
      2127.5000         0.5034         1.2112       -81.1511       -60.8077      0.1917878
      2128.0000         0.5288         1.1939       -80.7881      -60.43571      0.1968147
      2128.5000         0.5542         1.1782       -80.4252      -60.06383      0.2018402
      2129.0000         0.5795         1.1848       -80.0621      -59.69174      0.2068684
      2129.5000         0.5927         1.1914       -79.6992      -59.31985      0.2118939
      2130.0000         0.5953         1.2535       -81.4901      -61.10176       0.187814
      2130.5000         0.5801          1.362       -83.9126      -63.51527       0.155199
      2131.0000         0.5601         1.5016       -86.7041      -66.29779      0.1175974
      2131.5000         0.5401         1.6425       -91.5026       -71.0873     0.05287428
      2132.0000         0.5202         1.7625       -93.2085      -72.78422       0.029943
      2132.5000         0.5002         1.8167       -94.0918      -73.65852     0.01812806
      2133.0000         0.4858           1.83       -94.8964      -74.45414    0.007376491
      2133.5000         0.4747         1.8446       -95.2864      -74.83515     0.00222768
      2134.0000         0.4636         1.8635       -95.5959      -75.13567              0
      2134.5000         0.4524         1.8824       -95.7567      -75.28748              0
      2135.0000         0.4413         1.9013       -95.7922      -75.31399              0
      2135.5000         0.4302         1.9129       -95.8081       -75.3209              0
      2136.0000         0.4273         1.9072       -95.7523      -75.25611              0
      2136.5000         0.4257         1.9001       -95.6965      -75.19133              0
      2137.0000         0.4242         1.8866       -95.6407      -75.12654              0
      2137.5000         0.4226         1.8731       -95.6174      -75.09425              0
      2138.0000          0.421         1.8596       -95.8232      -75.29106              0
      2138.5000         0.4202          1.864       -96.2085      -75.66737              0
      2139.0000         0.4216         1.8701       -96.7205      -76.17038              0
      2139.5000         0.4231         1.8763       -97.2063       -76.6472              0
      2140.0000         0.4245         1.8839       -97.5088       -76.9407              0
      2140.5000         0.4259         1.8918       -97.8113      -77.23422              0
      2141.0000         0.4274         1.8486       -98.0256      -77.43953              0
      2141.5000         0.4288         1.7955       -97.9825      -77.38745              0
      2142.0000         0.4302         1.7328       -97.9396      -77.33556              0
      2142.5000         0.4293         1.6638       -97.8965      -77.28347              0
      2143.0000          0.428          1.595       -97.6082      -76.98618              0
      2143.5000         0.4267         1.5418       -97.2384       -76.6074              0
      2144.0000         0.4255         1.4861       -96.8687      -76.22871              0
      2144.5000         0.4243         1.4154        -96.285      -75.63602              0
      2145.0000         0.4231          1.374       -95.5482      -74.89024    0.001483299
      2145.5000         0.4219         1.3414       -94.4701      -73.80315      0.0161737
      2146.0000         0.4312         1.3167        -93.119      -72.44306     0.03455322
      2146.5000         0.4549         1.3011       -91.6853      -71.00037       0.054049
      2147.0000         0.4865         1.3119       -88.8263      -68.13239      0.0928056
      2147.5000         0.5182         1.3226       -87.3508       -66.6479      0.1128663
      2148.0000         0.5486         1.3434       -86.0336      -65.32171      0.1307877
      2148.5000         0.5768         1.3682       -85.2823      -64.56142      0.1410618
      2149.0000          0.605         1.4021       -84.6409      -63.91103      0.1498509
      2149.5000         0.6331         1.4533        -83.999      -63.26015      0.1586467
      2150.0000          0.643         1.5028       -84.2449      -63.49706      0.1554451
      2150.5000         0.6391         1.5517       -85.9226      -65.16577       0.132895
      2151.0000         0.6183         1.5992       -88.0515      -67.28568      0.1042475
      2151.5000         0.5791         1.6438       -89.6587       -68.8839     0.08265006
      2152.0000         0.5431          1.687       -91.2335      -70.44971     0.06149045
      2152.5000         0.5071         1.7179       -92.8174      -72.02462     0.04020784
      2153.0000         0.4848         1.7488       -95.0579      -74.25613     0.01005224
      2153.5000         0.4647         1.7798        -97.228      -76.41724              0
      2154.0000         0.4447         1.7662       -97.7227      -76.90296              0
      2154.5000         0.4246         1.7491       -98.2175      -77.38877              0
      2155.0000         0.4046          1.732       -98.7124      -77.87469              0
      2155.5000          0.398         1.7148        -98.911       -78.0643              0
      2156.0000         0.3931         1.6977       -98.5818       -77.7261              0
      2156.5000         0.3925         1.6827       -98.2526      -77.38792              0
      2157.0000         0.3987         1.6693       -97.9235      -77.04984              0
      2157.5000          0.405         1.6559       -97.3373      -76.45465              0
