#------------------------------------------------------------------------------
# Created by    : vladimir.rabinovich
# Created on    : 09/19/2023 17:22:28
#------------------------------------------------------------------------------
~Version Information Section
VERS.           2.0     :   CWLS log ASCII Standard - VERSION 2.0
WRAP.           NO      :   One line per depth step
~Well Information Section
#MNEM       .UNIT                                         VALUE :DESCRIPTION
#------------------------------------------------------------------------------
STRT        .FT                                            1650 :START DEPTH
STOP        .FT                                         10241.5 :STOP DEPTH
STEP        .FT                                             0.5 :STEP      
NULL        .                                           -999.25 :NULL      
COMP        .                                 HARRISON DAN J JR :COMPANY   
WELL        .                                    G R CANADA EST :WELL      
FLD         .                                           WILDCAT :FIELD     
LOC         .                                                   :LOCATION  
CNTY        .                                          CHAMBERS :LOCATION  
STAT        .                                             TEXAS :STATE     
CTRY        .                                     UNITED STATES :COUNTRY   
SRVC        .                                                   :SERVICE COMPANY
DATE        .                             9/13/2023 11:19:11 AM :LOG DATE  
API         .                                    42071032580000 :API NUMBER
UWI         .                                    42071032580000 :UNIQUE WELL ID
XCOORD      .                                   1124905.0652959 :SURFACE X 
YCOORD      .                                  10748564.4390152 :SURFACE Y 
LAT         .                                        29.6070806 :LATITUDE  
LON         .                                       -94.6226563 :LONGITUDE 
ELEV        .FT                                            14.3 :ELEVATION VALUE
ELEV_TYPE   .                                                KB :ELEVATION REFERENCE TYPE
~Curve Information Section
#MNEM       .UNIT                                      API CODE :CURVE DESCRIPTION
#------------------------------------------------------------------------------
DEPT        .FT                                                 :DEPTH     
CILD        .MMHO                                               :          
IND         .OHMM                                               :          
SN16        .OHMM                                               :          
SP          .MV                                                 :          
SP_NORM     .MV                                                 :SP Normalized
VSH_SP      .V/V                                                :Volume of Shale from SP
~A        DEPTH           CILD            IND           SN16             SP        SP_NORM         VSH_SP
# ...
      5640.0000        -999.25         0.3484          0.443      -132.1321      -78.51949     0.07714889
      5640.5000        -999.25         0.3621         0.4728      -132.8224      -79.21241     0.06889988
      5641.0000        -999.25         0.3782         0.4851      -134.5345      -80.92712     0.04848671
      5641.5000        -999.25          0.378         0.5145       -135.422      -81.81722     0.03789021
      5642.0000        -999.25         0.3778         0.5334      -136.9369      -83.33474     0.01982453
      5642.5000        -999.25         0.3777         0.5562      -137.5375      -83.93795     0.01264345
      5643.0000        -999.25         0.3475          0.568      -137.5375      -83.94056     0.01261239
      5643.5000        -999.25         0.3474          0.568      -137.5375      -83.94317     0.01258133
      5644.0000        -999.25         0.3172         0.5635      -137.5375      -83.94578     0.01255026
      5644.5000        -999.25         0.3062         0.5022      -136.9369      -83.34779     0.01966921
      5645.0000        -999.25         0.2869           0.44      -131.4376       -77.8511     0.08510599
      5645.5000        -999.25         0.2567         0.3946      -125.5255       -71.9416      0.1554572
      5646.0000        -999.25         0.2565         0.3945       -115.594      -62.01271      0.2736582
      5646.5000        -999.25         0.2564         0.4079       -82.2823      -28.70362       0.670195
      5647.0000        -999.25         0.2562         0.4661        -65.833      -12.25693       0.865989
      5647.5000        -999.25         0.2861         0.5164       -58.2583      -4.684837      0.9561329
      5648.0000        -999.25         0.3235         0.5376        -56.071      -2.500145      0.9821411
      5648.5000        -999.25          0.364         0.5435       -53.4535      0.1147461              1
      5649.0000        -999.25         0.3866         0.5434       -51.4058       2.159836              1
      5649.5000        -999.25         0.4357         0.5264       -51.6517       1.911327              1
      5650.0000        -999.25         0.4956         0.5075       -53.4535      0.1069183              1
      5650.5000        -999.25         0.4958         0.4776       -54.0809     -0.5230904              1
      5651.0000        -999.25          0.534         0.4656       -54.6547      -1.099503      0.9988154
      5651.5000        -999.25         0.5552         0.4715       -54.5729      -1.020306      0.9997582
      5652.0000        -999.25         0.5851         0.4844       -53.4535     0.09648514              1
      5652.5000        -999.25         0.5849         0.5191        -53.319      0.2283745              1
      5653.0000        -999.25         0.5968         0.5674       -52.2523       1.292465              1
      5653.5000        -999.25         0.6147         0.6086       -51.4634       2.078754              1
      5654.0000        -999.25         0.6145         0.6369       -51.0511       2.488445              1
      5654.5000        -999.25         0.6144         0.6562        -50.809        2.72794              1
      5655.0000        -999.25         0.5842         0.6621       -50.4505       3.083828              1
      5655.5000        -999.25          0.554         0.6621       -50.4505       3.081219              1
      5656.0000        -999.25         0.5325          0.662       -50.4505       3.078609              1
      5656.5000        -999.25         0.4936         0.6679       -50.4505          3.076              1
      5657.0000        -999.25         0.4935         0.6798       -51.1272        2.39669              1
      5657.5000        -999.25         0.4633         0.6917       -53.4535     0.06778336              1
      5658.0000        -999.25         0.4631         0.6976       -56.3804      -2.861729      0.9778365
      5658.5000        -999.25          0.463         0.6956       -68.4685      -14.95243      0.8338996
      5659.0000        -999.25         0.4767         0.6855       -85.5901      -32.07665      0.6300399
      5659.5000        -999.25         0.4927         0.6659      -100.9009      -47.39006      0.4477374
      5660.0000        -999.25         0.4926         0.6197      -112.7471      -59.23886      0.3066802
      5660.5000        -999.25         0.5225         0.5062      -127.3273      -73.82167      0.1330754
      5661.0000        -999.25         0.5223         0.5062      -127.6187      -74.11568      0.1295753
      5661.5000        -999.25         0.5522         0.5121      -128.5465      -75.04608       0.118499
      5662.0000        -999.25          0.552         0.5191      -129.1291       -75.6313      0.1115321
      5662.5000        -999.25         0.5519         0.5299      -129.2009       -75.7057      0.1106464
      5663.0000        -999.25         0.5517         0.5358      -129.7297      -76.23712        0.10432
      5663.5000        -999.25         0.5516         0.5298      -131.0576      -77.56763     0.08848063
      5664.0000        -999.25         0.5214         0.5027      -132.1321      -78.64473     0.07565798
      5664.5000        -999.25         0.4912         0.4341      -129.1888      -75.70404      0.1106662
      5665.0000        -999.25          0.461         0.3837      -123.7237      -70.24155      0.1756958
      5665.5000        -999.25         0.4609         0.3562      -120.8552      -67.37566      0.2098135
      5666.0000        -999.25         0.4237         0.3563      -117.7177      -64.24077      0.2471337
      5666.5000        -999.25         0.3705         0.3698      -115.3422      -61.86788      0.2753824
      5667.0000        -999.25         0.3403          0.392       -112.898      -59.42629      0.3044489
      5667.5000        -999.25         0.3101         0.4158      -111.1111        -57.642      0.3256905
      5668.0000        -999.25           0.28         0.4217      -110.5105      -57.04401      0.3328094
      5668.5000        -999.25         0.2498         0.4237      -112.9129      -59.44902      0.3041783
      5669.0000        -999.25         0.2496         0.4216      -117.8432      -64.38193      0.2454532
      5669.5000        -999.25         0.2495          0.413      -135.1351      -81.67644     0.03956622
      5670.0000        -999.25         0.2493         0.3678      -141.1411      -87.68504              0
      5670.5000        -999.25         0.2492         0.3498      -135.7357      -82.28226     0.03235408
      5671.0000        -999.25          0.249         0.3746      -132.7327      -79.28186     0.06807309
      5671.5000        -999.25         0.2489         0.4154      -131.5315      -78.08327     0.08234206
      5672.0000        -999.25         0.2487         0.4343       -130.048      -76.60239     0.09997159
      5672.5000        -999.25         0.2486         0.4391      -127.9175      -74.47449      0.1253036
      5673.0000        -999.25         0.2785         0.4391      -126.7267       -73.2863      0.1394488
      5673.5000        -999.25         0.2783          0.433      -125.5255      -72.08771      0.1537178
      5674.0000        -999.25         0.3082         0.4128      -125.5255      -72.09032      0.1536867
      5674.5000        -999.25          0.338         0.3971      -124.9249      -71.49232      0.1608057
      5675.0000        -999.25         0.3379         0.3822      -124.9249      -71.49493      0.1607746
      5675.5000        -999.25         0.3377         0.3671      -124.9249      -71.49754      0.1607435
      5676.0000        -999.25         0.3376         0.3611      -124.9249      -71.50015      0.1607125
      5676.5000        -999.25         0.3375          0.361      -124.9249      -71.50276      0.1606814
      5677.0000        -999.25         0.3373         0.3669      -126.7267      -73.30717      0.1392003
      5677.5000        -999.25         0.3372         0.3905      -129.6865      -76.26958      0.1039336
