#------------------------------------------------------------------------------
# Created by    : vladimir.rabinovich
# Created on    : 09/19/2023 17:22:28
#------------------------------------------------------------------------------
~Version Information Section
VERS.           2.0     :   CWLS log ASCII Standard - VERSION 2.0
WRAP.           NO      :   One line per depth step
~Well Information Section
#MNEM       .UNIT                                         VALUE :DESCRIPTION
#------------------------------------------------------------------------------
STRT        .FT                                            1650 :START DEPTH
STOP        .FT                                         10241.5 :STOP DEPTH
STEP        .FT                                             0.5 :STEP      
NULL        .                                           -999.25 :NULL      
COMP        .                                 HARRISON DAN J JR :COMPANY   
WELL        .                                    G R CANADA EST :WELL      
FLD         .                                           WILDCAT :FIELD     
LOC         .                                                   :LOCATION  
CNTY        .                                          CHAMBERS :LOCATION  
STAT        .                                             TEXAS :STATE     
CTRY        .                                     UNITED STATES :COUNTRY   
SRVC        .                                                   :SERVICE COMPANY
DATE        .                             9/13/2023 11:19:11 AM :LOG DATE  
API         .                                    42071032580000 :API NUMBER
UWI         .                                    42071032580000 :UNIQUE WELL ID
XCOORD      .                                   1124905.0652959 :SURFACE X 
YCOORD      .                                  10748564.4390152 :SURFACE Y 
LAT         .                                        29.6070806 :LATITUDE  
LON         .                                       -94.6226563 :LONGITUDE 
ELEV        .FT                                            14.3 :ELEVATION VALUE
ELEV_TYPE   .                                                KB :ELEVATION REFERENCE TYPE
~Curve Information Section
#MNEM       .UNIT                                      API CODE :CURVE DESCRIPTION
#------------------------------------------------------------------------------
DEPT        .FT                                                 :DEPTH     
CILD        .MMHO                                               :          
IND         .OHMM                                               :          
SN16        .OHMM                                               :          
SP          .MV                                                 :          
SP_NORM     .MV                                                 :SP Normalized
VSH_SP      .V/V                                                :Volume of Shale from SP
~A        DEPTH           CILD            IND           SN16             SP        SP_NORM         VSH_SP
# ...
      2220.0000        -999.25         0.3814         1.1069      -134.1727      -63.16224     0.05814789
      2220.5000        -999.25         0.3542         1.2129      -134.9665      -63.96957     0.04591554
      2221.0000        -999.25         0.3541         1.3874      -135.9865       -65.0031      0.0302561
      2221.5000        -999.25         0.3239         1.4171      -136.5927      -65.62283     0.02086628
      2222.0000        -999.25         0.3237          1.417      -137.1996      -66.24326     0.01146582
      2222.5000        -999.25         0.3236         1.3944      -137.4413      -66.49849    0.007598646
      2223.0000        -999.25         0.2934         1.3691      -137.8122      -66.88291    0.001774065
      2223.5000        -999.25         0.2932         1.3571      -138.4186      -67.50285              0
      2224.0000        -999.25         0.2931          1.357      -138.4247      -67.52248              0
      2224.5000        -999.25         0.2929         1.3656      -138.4306      -67.54191              0
      2225.0000        -999.25         0.2928         1.3687      -138.4366      -67.56144              0
      2225.5000        -999.25         0.3227         1.3686      -138.4438      -67.58217              0
      2226.0000        -999.25         0.3225         1.3684      -138.4487       -67.6006              0
      2226.5000        -999.25         0.3524         1.3267      -138.4557      -67.62113              0
      2227.0000        -999.25         0.3563         1.3019      -138.4607      -67.63965              0
      2227.5000        -999.25         0.3821         1.2608      -137.8671      -67.05959              0
      2228.0000        -999.25         0.3904         1.2211      -137.8721      -67.07812              0
      2228.5000        -999.25         0.4119         1.1412      -137.2776      -66.49715    0.007618991
      2229.0000        -999.25         0.4418         1.1164      -136.5906      -65.82368     0.01782296
      2229.5000        -999.25         0.4716         1.1152      -135.4886      -64.73521     0.03431505
      2230.0000        -999.25         0.4715         1.1384      -133.5754      -62.83553     0.06309798
      2230.5000        -999.25         0.5014         1.1886      -131.2963      -60.56996     0.09742483
      2231.0000        -999.25         0.5012          1.118      -129.0788      -58.36599      0.1308183
      2231.5000        -999.25          0.501         0.9974      -121.6986      -50.99933      0.2424344
      2232.0000        -999.25         0.5009         0.9328       -118.372      -47.68626      0.2926325
      2232.5000        -999.25         0.4707         0.8719      -116.3052      -45.63299      0.3237426
      2233.0000        -999.25         0.4105         0.8341      -114.1321      -43.47342      0.3564633
      2233.5000        -999.25         0.3803         0.8289      -111.5123      -40.86714      0.3959524
      2234.0000        -999.25         0.3802         0.9136      -109.7153      -39.08368      0.4229746
      2234.5000        -999.25           0.35          0.973      -109.1216       -38.5035      0.4317651
      2235.0000        -999.25         0.3363         1.0203      -112.2392      -41.63464      0.3843237
      2235.5000        -999.25         0.3197          1.134      -117.5422      -46.95116      0.3037702
      2236.0000        -999.25         0.3195         1.3735      -121.0726      -50.49509      0.2500743
      2236.5000        -999.25         0.3194         1.4264      -124.1607      -53.59673      0.2030799
      2237.0000        -999.25         0.3303         1.3972      -127.1386      -56.58816      0.1577552
      2237.5000        -999.25         0.3491         1.3366      -129.5781      -59.04118      0.1205881
      2238.0000        -999.25         0.3489         1.2947      -130.7865      -60.26311       0.102074
      2238.5000        -999.25         0.3788         1.2887      -131.3919      -60.88205     0.09269622
      2239.0000        -999.25         0.3787         1.3005      -130.7984      -60.30208      0.1014837
      2239.5000        -999.25         0.4086         1.3316      -130.1577       -59.6749      0.1109863
      2240.0000        -999.25         0.4805         1.3959      -129.0085      -58.53923      0.1281935
      2240.5000        -999.25         0.5284         1.4382      -128.9448      -58.48906      0.1289537
      2241.0000        -999.25         0.5706         1.4457       -128.419       -57.9768      0.1367152
      2241.5000        -999.25         0.6182          1.404       -127.824      -57.39532      0.1455254
      2242.0000        -999.25          0.618         1.3418      -127.2298      -56.81465      0.1543235
      2242.5000        -999.25         0.5578         1.3167      -127.2359      -56.83428       0.154026
      2243.0000        -999.25         0.4847         1.2938      -127.2426      -56.85452      0.1537195
      2243.5000        -999.25         0.3773         1.2878       -127.389      -57.01444      0.1512963
      2244.0000        -999.25         0.3471         1.2877      -129.0563      -58.69528      0.1258291
      2244.5000        -999.25          0.317         1.3731      -129.8273       -59.4798      0.1139423
      2245.0000        -999.25         0.3168         1.5084        -130.87      -60.53603       0.097939
      2245.5000        -999.25         0.3167         1.5341      -131.4762      -61.15576     0.08854906
      2246.0000        -999.25         0.3165           1.55      -132.0832       -61.7763     0.07914699
      2246.5000        -999.25         0.3164          1.558      -132.3018      -62.00843     0.07562984
      2247.0000        -999.25         0.3303         1.5678      -133.2963      -63.01645     0.06035683
      2247.5000        -999.25         0.3461         1.5677      -133.5395      -63.27319     0.05646688
      2248.0000        -999.25         0.3459         1.5556      -133.9089      -63.65612     0.05066484
      2248.5000        -999.25         0.3458         1.5325      -134.5153      -64.27605     0.04127202
      2249.0000        -999.25         0.3456         1.5196       -135.122      -64.89626      0.0318748
      2249.5000        -999.25         0.3455         1.5136      -135.7285       -65.5163     0.02248024
      2250.0000        -999.25         0.3753         1.5254      -136.3351      -66.13643     0.01308441
      2250.5000        -999.25         0.3752         1.5552      -136.3423      -66.15717     0.01277022
      2251.0000        -999.25          0.375         1.5855      -136.9478      -66.77619    0.003391035
      2251.5000        -999.25         0.3749         1.6386      -136.9548      -66.79672    0.003079963
      2252.0000        -999.25         0.3747         1.6875      -137.5604      -67.41585              0
      2252.5000        -999.25         0.3743         1.7101      -137.5674      -67.43638              0
      2253.0000        -999.25         0.3444         1.6403      -136.9716      -66.85412    0.002210328
      2253.5000        -999.25         0.3143         1.5606      -136.9787      -66.87474     0.00189787
      2254.0000        -999.25         0.2841         1.5357      -136.9839      -66.89347    0.001614079
      2254.5000        -999.25         0.2839         1.5246      -136.3901      -66.31321     0.01040592
      2255.0000        -999.25         0.2838         1.5126      -136.2778      -66.21443     0.01190255
      2255.5000        -999.25         0.2836         1.5065      -133.9996      -63.94977     0.04621563
      2256.0000        -999.25         0.2835         1.4991      -132.6619      -62.62559     0.06627898
      2256.5000        -999.25         0.3153         1.4645      -131.6091      -61.58632     0.08202547
      2257.0000        -999.25         0.3732         1.2582      -130.0814      -60.07216      0.1049673
      2257.5000        -999.25         0.4054         1.2435      -128.0175      -58.02178      0.1360336
