#------------------------------------------------------------------------------
# Created by    : vladimir.rabinovich
# Created on    : 09/19/2023 17:22:55
#------------------------------------------------------------------------------
~Version Information Section
VERS.           2.0     :   CWLS log ASCII Standard - VERSION 2.0
WRAP.           NO      :   One line per depth step
~Well Information Section
#MNEM       .UNIT                                         VALUE :DESCRIPTION
#------------------------------------------------------------------------------
STRT        .FT                                            1527 :START DEPTH
STOP        .FT                                            8498 :STOP DEPTH
STEP        .FT                                             0.5 :STEP      
NULL        .                                           -999.25 :NULL      
COMP        .                           SAN JUAN EXPLORATION CO :COMPANY   
WELL        .                                MIDDLETON ETAL R M :WELL      
FLD         .                                           WILDCAT :FIELD     
LOC         .                                                   :LOCATION  
CNTY        .                                          CHAMBERS :LOCATION  
STAT        .                                             TEXAS :STATE     
CTRY        .                                     UNITED STATES :COUNTRY   
SRVC        .                                                   :SERVICE COMPANY
DATE        .                             9/13/2023 11:19:11 AM :LOG DATE  
API         .                                    42071022810000 :API NUMBER
UWI         .                                    42071022810000 :UNIQUE WELL ID
XCOORD      .                                  1136491.54221464 :SURFACE X 
YCOORD      .                                  10781024.2027564 :SURFACE Y 
LAT         .                                        29.6967824 :LATITUDE  
LON         .                                       -94.5875983 :LONGITUDE 
ELEV        .FT                                              24 :ELEVATION VALUE
ELEV_TYPE   .                                                DF :ELEVATION REFERENCE TYPE
~Curve Information Section
#MNEM       .UNIT                                      API CODE :CURVE DESCRIPTION
#------------------------------------------------------------------------------
DEPT        .FT                                                 :DEPTH     
LAT         .OHMM                                               :          
LN          .OHMM                                               :          
SN          .OHMM                                               :          
SP          .MV                                                 :          
SP_NORM     .MV                                                 :SP Normalized
VSH_SP      .V/V                                                :Volume of Shale from SP
~A        DEPTH            LAT             LN             SN             SP        SP_NORM         VSH_SP
# ...
      2439.0000          0.948         0.8764         1.1182       -91.7922      -5.866112      0.9251367
      2439.5000         0.9518         0.8671         1.1312       -92.2581       -6.33416       0.917936
      2440.0000         0.9556         0.8577         1.1505        -92.724      -6.802193      0.9107355
      2440.5000         0.9595         0.8484         1.1699       -93.1897      -7.270035      0.9035379
      2441.0000         0.9633          0.839         1.1893       -93.2852      -7.367676      0.9020358
      2441.5000         0.9671         0.8297         1.2087       -93.0961       -7.18071      0.9049122
      2442.0000         0.9709         0.8203         1.2048       -92.9069      -6.993652      0.9077899
      2442.5000         0.9841          0.811          1.194       -92.7177      -6.806587      0.9106679
      2443.0000         0.9989         0.8016         1.1832        -92.347      -6.438034       0.916338
      2443.5000         1.0137         0.7923         1.1689       -91.6649      -5.758072      0.9267989
      2444.0000         1.0285         0.7829         1.1492       -90.9827      -5.078011      0.9372614
      2444.5000         1.0434         0.7775         1.1295       -90.3005      -4.397949      0.9477239
      2445.0000         1.0582          0.774         1.1452       -89.4021      -3.501694      0.9615124
      2445.5000          1.073         0.7705         1.1686       -90.1166       -4.21833      0.9504872
      2446.0000         1.0878          0.767         1.1871       -91.4583      -5.562164      0.9298128
      2446.5000         1.1002         0.7635         1.1879       -92.7999      -6.905907      0.9091399
      2447.0000         1.1071           0.76         1.1887       -94.1364      -8.244545      0.8885455
      2447.5000          1.114         0.7565         1.1895       -95.0402       -9.15049      0.8746079
      2448.0000          1.121          0.753         1.1903       -95.9436      -10.05603      0.8606765
      2448.5000         1.1252         0.7495         1.1911       -96.8475      -10.96207      0.8467373
      2449.0000         1.1137         0.7468         1.1919        -97.751      -11.86771      0.8328045
      2449.5000         1.1021          0.749         1.1927       -98.5874      -12.70625      0.8199038
      2450.0000         1.0906         0.7512         1.1863       -99.2476      -13.36858      0.8097141
      2450.5000         1.0791         0.7534         1.1591       -99.9073      -14.03043      0.7995318
      2451.0000         1.0785         0.7556          1.132       -99.5227      -13.64796      0.8054159
      2451.5000         1.0941         0.7578         1.1049       -97.6754       -11.8028      0.8338031
      2452.0000         1.1097         0.7601         1.0777       -95.8276      -9.957146      0.8621978
      2452.5000         1.1253         0.7623         1.0506       -94.0472      -8.178886      0.8895556
      2453.0000         1.1426          0.766         1.0256       -93.7247      -7.858528      0.8944842
      2453.5000         1.1657         0.7724         1.0161       -93.4023      -7.538261      0.8994114
      2454.0000         1.1888         0.7787         1.0066       -93.0797      -7.217804      0.9043415
      2454.5000         1.2119         0.7851         0.9971       -92.7573      -6.897545      0.9092686
      2455.0000          1.235         0.7914         0.9877       -92.4348      -6.577187      0.9141971
      2455.5000         1.2551         0.7978         0.9782       -91.9839      -6.128426      0.9211012
      2456.0000         1.2282         0.7894         0.9633       -91.3683      -5.514969       0.930539
      2456.5000         1.2013         0.7772         0.9389       -90.7528      -4.901604      0.9399753
      2457.0000         1.1744          0.765         0.9145       -90.1372      -4.288139      0.9494132
      2457.5000         1.1475         0.7528         0.8901       -89.5219       -3.67498      0.9588464
      2458.0000         1.1369         0.7405         0.8643       -88.4045      -2.559723      0.9760042
      2458.5000         1.1593         0.7292         0.8325       -86.9762       -1.13356      0.9979452
      2459.0000         1.1817         0.7189         0.8007       -87.6295      -1.789001      0.9878615
      2459.5000         1.2162         0.7087         0.7689       -88.9684      -3.130043      0.9672301
      2460.0000         1.2548         0.6984         0.7428       -90.3073      -4.471077      0.9465988
      2460.5000         1.2934         0.6882         0.7236       -91.6462      -5.812126      0.9259673
      2461.0000          1.285         0.6779         0.7044       -91.5811      -5.749161       0.926936
      2461.5000         1.2387         0.6677         0.6852       -91.2974      -5.467598      0.9312677
      2462.0000         1.1912         0.6679         0.6838       -91.0443      -5.216637      0.9351287
      2462.5000         1.1437         0.6729         0.7018       -91.2393       -5.41378      0.9320957
      2463.0000         1.0962          0.678         0.7197       -91.4342      -5.610817      0.9290643
      2463.5000         1.0487          0.683         0.7377       -91.7034      -5.882156      0.9248899
      2464.0000         1.0157         0.6881         0.7888       -92.8278      -7.008698      0.9075585
      2464.5000         0.9991         0.6912         0.8444       -93.9514      -8.134438      0.8902394
      2465.0000         0.9824         0.6777         0.8999       -95.0758      -9.260979       0.872908
      2465.5000         0.9658         0.6642         0.9537       -96.1921      -10.37942      0.8557013
      2466.0000         0.9491         0.6506         0.9818       -97.2661      -11.45556      0.8391452
      2466.5000         0.9324         0.6371         1.0099       -98.3406       -12.5322      0.8225816
      2467.0000         0.9211         0.6146          1.038       -98.3392      -12.53294      0.8225702
      2467.5000         0.9194         0.5844         1.0661       -97.5876      -11.78348      0.8341004
      2468.0000         0.9178         0.5543          1.085       -96.5121      -10.71011      0.8506137
      2468.5000         0.9161         0.5241         1.0932       -95.4523      -9.652458      0.8668852
      2469.0000         0.9145         0.5003         1.1014       -94.4214      -8.623695      0.8827124
      2469.5000         0.8893         0.4812         1.1096       -92.9636      -7.168037      0.9051071
      2470.0000         0.8583          0.462         1.1177       -95.8593      -10.06587      0.8605251
      2470.5000         0.8273         0.4428         1.1536       -99.0851      -13.29382      0.8108644
      2471.0000         0.7963         0.4289         1.2029      -103.6934      -17.90425      0.7399346
      2471.5000         0.7652         0.4221         1.2521       -108.682      -22.89499       0.663154
      2472.0000         0.7402         0.4153         1.3115      -114.1554      -28.37054      0.5789148
      2472.5000          0.716         0.4085         1.3084      -117.7728      -31.99007      0.5232297
      2473.0000         0.6919         0.3977         1.2657      -120.9624      -35.18182      0.4741259
      2473.5000         0.6677         0.3846         1.2229      -124.7216      -38.94315      0.4162592
      2474.0000         0.6435         0.3715         1.1802      -128.7273      -42.95099      0.3546002
      2474.5000         0.6205         0.3584         1.1361      -132.7356      -46.96143      0.2929011
      2475.0000         0.6033         0.3453         1.0907      -135.1743      -49.40228      0.2553496
      2475.5000         0.5862         0.3315         1.0453      -137.1956      -51.42571      0.2242198
      2476.0000         0.5691         0.3094         0.9999      -139.3706      -53.60286      0.1907252
      2476.5000          0.552         0.2873         0.9545       -141.489      -55.72339      0.1581017
