#------------------------------------------------------------------------------
# Created by    : vladimir.rabinovich
# Created on    : 09/19/2023 17:22:28
#------------------------------------------------------------------------------
~Version Information Section
VERS.           2.0     :   CWLS log ASCII Standard - VERSION 2.0
WRAP.           NO      :   One line per depth step
~Well Information Section
#MNEM       .UNIT                                         VALUE :DESCRIPTION
#------------------------------------------------------------------------------
STRT        .FT                                            1650 :START DEPTH
STOP        .FT                                         10241.5 :STOP DEPTH
STEP        .FT                                             0.5 :STEP      
NULL        .                                           -999.25 :NULL      
COMP        .                                 HARRISON DAN J JR :COMPANY   
WELL        .                                    G R CANADA EST :WELL      
FLD         .                                           WILDCAT :FIELD     
LOC         .                                                   :LOCATION  
CNTY        .                                          CHAMBERS :LOCATION  
STAT        .                                             TEXAS :STATE     
CTRY        .                                     UNITED STATES :COUNTRY   
SRVC        .                                                   :SERVICE COMPANY
DATE        .                             9/13/2023 11:19:11 AM :LOG DATE  
API         .                                    42071032580000 :API NUMBER
UWI         .                                    42071032580000 :UNIQUE WELL ID
XCOORD      .                                   1124905.0652959 :SURFACE X 
YCOORD      .                                  10748564.4390152 :SURFACE Y 
LAT         .                                        29.6070806 :LATITUDE  
LON         .                                       -94.6226563 :LONGITUDE 
ELEV        .FT                                            14.3 :ELEVATION VALUE
ELEV_TYPE   .                                                KB :ELEVATION REFERENCE TYPE
~Curve Information Section
#MNEM       .UNIT                                      API CODE :CURVE DESCRIPTION
#------------------------------------------------------------------------------
DEPT        .FT                                                 :DEPTH     
CILD        .MMHO                                               :          
IND         .OHMM                                               :          
SN16        .OHMM                                               :          
SP          .MV                                                 :          
SP_NORM     .MV                                                 :SP Normalized
VSH_SP      .V/V                                                :Volume of Shale from SP
~A        DEPTH           CILD            IND           SN16             SP        SP_NORM         VSH_SP
# ...
      6780.0000        -999.25          0.261         0.5815      -143.9133      -84.65404              0
      6780.5000        -999.25         0.2762         0.5755       -144.977      -85.71774              0
      6781.0000        -999.25         0.3061         0.5097      -144.9715      -85.71223              0
      6781.5000        -999.25         0.3059         0.4977      -144.3647      -85.10544              0
      6782.0000        -999.25         0.3058         0.5096      -144.3577      -85.09843              0
      6782.5000        -999.25         0.3356         0.5499      -144.3528      -85.09354              0
      6783.0000        -999.25         0.3355          0.617      -143.7453      -84.48604              0
      6783.5000        -999.25         0.3353          0.619      -143.7401      -84.48083              0
      6784.0000        -999.25         0.3352         0.6228      -143.6028      -84.34354              0
      6784.5000        -999.25          0.335         0.6404       -145.139      -85.87975              0
      6785.0000        -999.25         0.3048         0.7015      -146.7248      -87.46553              0
      6785.5000        -999.25         0.3047         0.7719      -148.5196      -89.26035              0
      6786.0000        -999.25         0.2745         0.8047      -149.1155      -89.85623              0
      6786.5000        -999.25         0.2443         0.7718      -149.1085      -89.84924              0
      6787.0000        -999.25         0.2142         0.6911      -149.1033      -89.84404              0
      6787.5000        -999.25          0.214         0.5567      -149.0967      -89.83743              0
      6788.0000        -999.25         0.1838         0.5217      -149.0912      -89.83194              0
      6788.5000        -999.25         0.1837         0.5088      -148.4844      -89.22514              0
      6789.0000        -999.25         0.1835         0.5088      -148.1881      -88.92883              0
      6789.5000        -999.25         0.1834         0.5162      -147.2714      -88.01213              0
      6790.0000        -999.25         0.2133         0.5325      -143.6609      -84.40164              0
      6790.5000        -999.25         0.2131         0.5519      -141.0185      -81.75923              0
      6791.0000        -999.25         0.2129         0.5444      -136.4419      -77.18263     0.03566288
      6791.5000        -999.25         0.2128         0.4694      -130.6296      -71.37033      0.1092363
      6792.0000        -999.25         0.2127         0.4129      -127.4212      -68.16194      0.1498488
      6792.5000        -999.25         0.2426         0.3651      -124.7579      -65.49864      0.1835615
      6793.0000        -999.25         0.2724          0.359      -122.5774      -63.31814      0.2111628
      6793.5000        -999.25         0.2722         0.5082      -121.3964      -62.13714      0.2261121
      6794.0000        -999.25         0.3022         0.7586      -121.3913      -62.13204      0.2261767
      6794.5000        -999.25          0.302         0.8962      -121.3847      -62.12544      0.2262603
      6795.0000        -999.25         0.2718         1.0001      -125.5713      -66.31204      0.1732653
      6795.5000        -999.25         0.2416         1.1707      -129.1808      -69.92154      0.1275755
      6796.0000        -999.25         0.2115         1.1886      -130.9377      -71.67844      0.1053362
      6796.5000        -999.25         0.2113         1.1522      -132.1946      -72.93533     0.08942616
      6797.0000        -999.25         0.1811         1.1048      -132.7665      -73.50723     0.08218693
      6797.5000        -999.25          0.181         1.0438      -133.4679      -74.20863     0.07330844
      6798.0000        -999.25         0.1808         0.9555      -134.5556      -75.29634     0.05953999
      6798.5000        -999.25         0.1807         0.9118      -135.3425      -76.08324     0.04957928
      6799.0000        -999.25         0.1805         0.8777      -135.7454      -76.48615     0.04447918
      6799.5000        -999.25         0.1923         0.9034      -135.7393      -76.48004     0.04455644
      6800.0000        -999.25         0.2103          1.009      -133.9351      -74.67584      0.0673944
      6800.5000        -999.25         0.1799         1.0626      -134.5393      -75.28004     0.05974627
      6801.0000        -999.25         0.1797         1.0562      -134.5417      -75.28244     0.05971595
      6801.5000        -999.25         0.1793         1.0267      -135.1458      -75.88654     0.05206917
      6802.0000        -999.25         0.2091         0.9421      -135.7489      -76.48964     0.04443495
      6802.5000        -999.25         0.2088         0.7698      -136.3529      -77.09364     0.03678933
      6803.0000        -999.25         0.2085         0.7579      -136.9561      -77.69684     0.02915394
      6803.5000        -999.25         0.2082         0.7518        -137.56      -78.30074     0.02150968
      6804.0000        -999.25         0.2079         0.7501      -138.2893      -79.03004     0.01227792
      6804.5000        -999.25         0.2076         0.7398      -138.7672      -79.50793    0.006228677
      6805.0000        -999.25         0.2374         0.7197      -138.7699      -79.51064    0.006194489
      6805.5000        -999.25          0.237         0.7038      -139.0086      -79.74934    0.003172862
      6806.0000        -999.25         0.2403         0.7188      -139.3764      -80.11714              0
      6806.5000        -999.25         0.2665         0.8171      -139.3796      -80.12033              0
      6807.0000        -999.25         0.2662         0.8914      -138.7814      -79.52214    0.006048854
      6807.5000        -999.25         0.2659         0.9428      -138.7849      -79.52563    0.006004623
      6808.0000        -999.25         0.2956         0.9662      -137.9052      -78.64594     0.01714006
      6808.5000        -999.25         0.2953         0.9846      -137.5896      -78.33034     0.02113497
      6809.0000        -999.25          0.295         1.0079      -136.9914      -77.73213     0.02870719
      6809.5000        -999.25         0.2947         0.9889      -136.3944      -77.13513     0.03626416
      6810.0000        -999.25         0.2944         0.9779      -135.1967      -75.93744     0.05142482
      6810.5000        -999.25         0.2941         0.9838      -135.1991      -75.93983      0.0513945
      6811.0000        -999.25         0.2938         0.9897      -134.6015      -75.34224       0.058959
      6811.5000        -999.25         0.2935         1.0034      -134.0038      -74.74454     0.06652484
      6812.0000        -999.25         0.2932         1.0135      -134.0074      -74.74814     0.06647926
      6812.5000        -999.25         0.2929         1.0134      -134.0099      -74.75064     0.06644759
      6813.0000        -999.25         0.2926         1.0134      -134.6139      -75.35464     0.05880196
      6813.5000        -999.25         0.2923         1.0073      -135.2171      -75.95784     0.05116658
      6814.0000        -999.25          0.262         0.9834      -136.4216      -77.16234     0.03591977
      6814.5000        -999.25         0.2617           0.84      -137.0249      -77.76564     0.02828304
      6815.0000        -999.25         0.2614         0.8155      -138.2294      -78.97014     0.01303622
      6815.5000        -999.25         0.2611         0.7743      -138.8327      -79.57344    0.005399487
      6816.0000        -999.25         0.2307         0.7623      -139.4365      -80.17723              0
      6816.5000        -999.25         0.2304         0.7503      -139.4392      -80.17993              0
      6817.0000        -999.25         0.2301         0.7431       -140.043      -80.78374              0
      6817.5000        -999.25         0.2298         0.7322      -140.2757      -81.01643              0
