#------------------------------------------------------------------------------
# Created by    : vladimir.rabinovich
# Created on    : 09/19/2023 17:22:28
#------------------------------------------------------------------------------
~Version Information Section
VERS.           2.0     :   CWLS log ASCII Standard - VERSION 2.0
WRAP.           NO      :   One line per depth step
~Well Information Section
#MNEM       .UNIT                                         VALUE :DESCRIPTION
#------------------------------------------------------------------------------
STRT        .FT                                            1650 :START DEPTH
STOP        .FT                                         10241.5 :STOP DEPTH
STEP        .FT                                             0.5 :STEP      
NULL        .                                           -999.25 :NULL      
COMP        .                                 HARRISON DAN J JR :COMPANY   
WELL        .                                    G R CANADA EST :WELL      
FLD         .                                           WILDCAT :FIELD     
LOC         .                                                   :LOCATION  
CNTY        .                                          CHAMBERS :LOCATION  
STAT        .                                             TEXAS :STATE     
CTRY        .                                     UNITED STATES :COUNTRY   
SRVC        .                                                   :SERVICE COMPANY
DATE        .                             9/13/2023 11:19:11 AM :LOG DATE  
API         .                                    42071032580000 :API NUMBER
UWI         .                                    42071032580000 :UNIQUE WELL ID
XCOORD      .                                   1124905.0652959 :SURFACE X 
YCOORD      .                                  10748564.4390152 :SURFACE Y 
LAT         .                                        29.6070806 :LATITUDE  
LON         .                                       -94.6226563 :LONGITUDE 
ELEV        .FT                                            14.3 :ELEVATION VALUE
ELEV_TYPE   .                                                KB :ELEVATION REFERENCE TYPE
~Curve Information Section
#MNEM       .UNIT                                      API CODE :CURVE DESCRIPTION
#------------------------------------------------------------------------------
DEPT        .FT                                                 :DEPTH     
CILD        .MMHO                                               :          
IND         .OHMM                                               :          
SN16        .OHMM                                               :          
SP          .MV                                                 :          
SP_NORM     .MV                                                 :SP Normalized
VSH_SP      .V/V                                                :Volume of Shale from SP
~A        DEPTH           CILD            IND           SN16             SP        SP_NORM         VSH_SP
# ...
      3360.0000        -999.25         0.2644         1.2883      -130.6888      -59.08386      0.2647612
      3360.5000        -999.25         0.2641         1.5044      -130.6913      -59.08636      0.2647296
      3361.0000        -999.25         0.2638         1.6168      -141.5055      -69.90056       0.127841
      3361.5000        -999.25         0.2635         1.6404      -147.0779      -75.47296     0.05730429
      3362.0000        -999.25         0.2632         1.6463      -148.1179      -76.51297     0.04413962
      3362.5000        -999.25         0.2629         1.6402      -149.5821      -77.97717     0.02560541
      3363.0000        -999.25         0.2626         1.6174      -149.9255      -78.32057     0.02125858
      3363.5000        -999.25         0.2623         1.5685       -149.929      -78.32407     0.02121435
      3364.0000        -999.25          0.262          1.455      -150.5321      -78.92717     0.01358013
      3364.5000        -999.25         0.2617          1.332      -150.5354      -78.93047     0.01353841
      3365.0000        -999.25         0.2614          1.222      -150.5381      -78.93317     0.01350422
      3365.5000        -999.25         0.2611           1.21      -151.1418      -79.53687    0.005862466
      3366.0000        -999.25         0.2608         1.3712      -151.1453      -79.54036    0.005818234
      3366.5000        -999.25         0.2605         1.4965      -151.1916      -79.58667    0.005232026
      3367.0000        -999.25         0.2602         1.6048      -151.7518      -80.14687              0
      3367.5000        -999.25         0.2598         1.7411      -151.7543      -80.14937              0
      3368.0000        -999.25         0.2596         1.8022      -151.7576      -80.15266              0
      3368.5000        -999.25         0.2593         1.8485      -151.7604      -80.15547              0
      3369.0000        -999.25          0.259         1.8544      -151.7634      -80.15846              0
      3369.5000        -999.25         0.2587         1.8543      -151.7669      -80.16197              0
      3370.0000        -999.25         0.2584         1.8602        -152.37      -80.76506              0
      3370.5000        -999.25         0.2581         1.8677      -152.3733      -80.76837              0
      3371.0000        -999.25         0.2577          1.884       -152.376      -80.77107              0
      3371.5000        -999.25         0.2574         1.9269      -152.3791      -80.77417              0
      3372.0000        -999.25         0.2571         1.9555      -152.9826      -81.37767              0
      3372.5000        -999.25         0.2568         1.9196      -152.9856      -81.38066              0
      3373.0000        -999.25         0.2565         1.9017      -152.3884      -80.78346              0
      3373.5000        -999.25         0.2562         1.9004       -152.391      -80.78607              0
      3374.0000        -999.25         0.2559         1.9205       -152.394      -80.78906              0
      3374.5000        -999.25         0.2556         1.9612       -152.397      -80.79207              0
      3375.0000        -999.25         0.2553         1.9791      -152.4001      -80.79517              0
      3375.5000        -999.25          0.255         1.9601      -151.8018      -80.19687              0
      3376.0000        -999.25         0.2847         1.9371      -151.1768      -79.57187    0.005419381
      3376.5000        -999.25         0.2844         1.8812      -150.6072      -79.00226     0.01262964
      3377.0000        -999.25         0.2841         1.6146      -149.8576      -78.25267      0.0221181
      3377.5000        -999.25         0.2838         1.3817      -148.8116      -77.20667     0.03535867
      3378.0000        -999.25         0.2835          1.326      -147.4892      -75.88426     0.05209795
      3378.5000        -999.25         0.2832         1.2801       -146.415      -74.81006     0.06569546
      3379.0000        -999.25         0.2829         1.2356      -145.2168      -73.61186     0.08086251
      3379.5000        -999.25         0.2826         1.1546      -143.3257      -71.72076      0.1048005
      3380.0000        -999.25         0.2823         1.0753      -140.4183      -68.81337      0.1416029
      3380.5000        -999.25          0.282          0.992      -138.4309      -66.82596        0.16676
      3381.0000        -999.25         0.2816         0.9037      -137.4211      -65.81616      0.1795423
      3381.5000        -999.25         0.2814         0.7698      -135.6217      -64.01677      0.2023194
      3382.0000        -999.25         0.2811         0.5633      -135.0246      -63.41966      0.2098777
      3382.5000        -999.25         0.2508         0.5777       -134.427      -62.82207      0.2174422
      3383.0000        -999.25         0.2505         0.5931        -134.43      -62.82506      0.2174043
      3383.5000        -999.25         0.2501         0.6168      -134.4333      -62.82837      0.2173624
      3384.0000        -999.25         0.2198          0.631       -134.436      -62.83107      0.2173282
      3384.5000        -999.25         0.2195         0.6645      -135.0397      -63.43477      0.2096865
      3385.0000        -999.25         0.2192         0.7024      -136.2444      -64.63947      0.1944371
      3385.5000        -999.25         0.2189         0.7241      -136.9148      -65.30986      0.1859511
      3386.0000        -999.25         0.2185         0.7419      -138.6526      -67.04767      0.1639536
      3386.5000        -999.25         0.2183         0.7478      -140.6212      -69.01627      0.1390346
      3387.0000        -999.25          0.218         0.7537      -142.8626      -71.25766      0.1106625
      3387.5000        -999.25         0.2099         0.7537      -144.9275      -73.32257     0.08452442
      3388.0000        -999.25         0.1873         0.7536      -146.4804      -74.87546     0.06486762
      3388.5000        -999.25          0.187         0.7476      -147.6767      -76.07176     0.04972453
      3389.0000        -999.25         0.1867         0.7286      -148.2799      -76.67497     0.04208896
      3389.5000        -999.25         0.1864         0.6878      -148.2832      -76.67827     0.04204724
      3390.0000        -999.25         0.1861         0.6531      -147.6849      -76.07997     0.04962062
      3390.5000        -999.25         0.1858           0.61      -146.4872      -74.88226     0.06478148
      3391.0000        -999.25         0.1855         0.5808      -145.2883      -73.68336      0.0799574
      3391.5000        -999.25         0.1852         0.5681      -144.6912      -73.08626     0.08751572
      3392.0000        -999.25         0.1849          0.586      -144.0937      -72.48877     0.09507886
      3392.5000        -999.25         0.1846         0.6256      -144.0967      -72.49176     0.09504101
      3393.0000        -999.25         0.1843         0.6933      -144.7005      -73.09557      0.0873979
      3393.5000        -999.25          0.184         0.7052      -145.5399      -73.93497     0.07677257
      3394.0000        -999.25         0.1837         0.7051      -147.1087      -75.50377     0.05691432
      3394.5000        -999.25         0.1833         0.6931      -147.1122      -75.50726     0.05687009
      3395.0000        -999.25         0.1831         0.6732      -147.1147      -75.50977     0.05683841
      3395.5000        -999.25         0.2128         0.6273      -146.5175      -74.91257     0.06439789
      3396.0000        -999.25         0.2217         0.6073      -144.1896      -72.58467     0.09386493
      3396.5000        -999.25         0.2723         0.5914      -139.9167      -68.31177      0.1479523
      3397.0000        -999.25          0.332         0.5973      -137.8454      -66.24046      0.1741714
      3397.5000        -999.25         0.3642         0.6092      -135.7183      -64.11337      0.2010965
