#------------------------------------------------------------------------------
# Created by    : vladimir.rabinovich
# Created on    : 09/19/2023 17:22:53
#------------------------------------------------------------------------------
~Version Information Section
VERS.           2.0     :   CWLS log ASCII Standard - VERSION 2.0
WRAP.           NO      :   One line per depth step
~Well Information Section
#MNEM       .UNIT                                         VALUE :DESCRIPTION
#------------------------------------------------------------------------------
STRT        .FT                                            1498 :START DEPTH
STOP        .FT                                           11000 :STOP DEPTH
STEP        .FT                                             0.5 :STEP      
NULL        .                                           -999.25 :NULL      
COMP        .                                     CANNAN MORRIS :COMPANY   
WELL        .                                             GARTH :WELL      
FLD         .                                           WILDCAT :FIELD     
LOC         .                                                   :LOCATION  
CNTY        .                                          CHAMBERS :LOCATION  
STAT        .                                             TEXAS :STATE     
CTRY        .                                     UNITED STATES :COUNTRY   
SRVC        .                                                   :SERVICE COMPANY
DATE        .                             9/13/2023 11:19:11 AM :LOG DATE  
API         .                                    42071310360000 :API NUMBER
UWI         .                                    42071310360000 :UNIQUE WELL ID
XCOORD      .                                  1175356.83007784 :SURFACE X 
YCOORD      .                                  10818692.0839896 :SURFACE Y 
LAT         .                                        29.8017803 :LATITUDE  
LON         .                                       -94.4666967 :LONGITUDE 
ELEV        .FT                                              25 :ELEVATION VALUE
ELEV_TYPE   .                                                GL :ELEVATION REFERENCE TYPE
~Curve Information Section
#MNEM       .UNIT                                      API CODE :CURVE DESCRIPTION
#------------------------------------------------------------------------------
DEPT        .FT                                                 :DEPTH     
ILD         .OHMM                                               :          
SFL         .OHMM                                               :          
SP          .MV                                                 :          
SP_NORM     .MV                                                 :SP Normalized
VSH_SP      .V/V                                                :Volume of Shale from SP
~A        DEPTH            ILD            SFL             SP        SP_NORM         VSH_SP
# ...
      2774.0000         0.3741         1.0854       -73.1646      -52.93722      0.2981457
      2774.5000         0.3836         1.0511       -69.4535      -49.23164      0.3482211
      2775.0000         0.3859         1.0344       -67.4473      -47.23096      0.3752573
      2775.5000         0.3882         1.0655       -68.7345      -48.52367      0.3577883
      2776.0000         0.3905         1.1027       -73.1768      -52.97149      0.2976826
      2776.5000         0.3928         1.1463       -80.8403       -60.6405      0.1940473
      2777.0000         0.3916         1.1899       -83.5951      -63.40082      0.1567457
      2777.5000         0.3882         1.2117       -85.6621      -65.47334      0.1287387
      2778.0000         0.3848         1.1878        -82.244      -62.06076      0.1748546
      2778.5000         0.3814          1.164       -78.8861      -58.70837      0.2201572
      2779.0000          0.378         1.1269       -75.6619      -55.48969      0.2636529
      2779.5000         0.3704         1.0869       -72.1616       -51.9949      0.3108797
      2780.0000         0.3616         1.0469       -67.0813      -46.92012      0.3794579
      2780.5000         0.3528          1.007       -58.4701      -38.31443      0.4957509
      2781.0000          0.344          0.967       -60.8043      -40.65415      0.4641331
      2781.5000         0.3353         0.9768        -63.629      -43.48437      0.4258869
      2782.0000          0.325          1.099       -78.6396      -58.50049      0.2229664
      2782.5000         0.3143          1.297       -85.7749       -65.6413      0.1264689
      2783.0000         0.3035          1.395       -88.3861      -68.25802     0.09110786
      2783.5000         0.2928         1.4545       -91.1678      -71.04523     0.05344278
      2784.0000         0.2821         1.5162       -89.1058      -68.98875     0.08123315
      2784.5000          0.275         1.4283       -87.2772      -67.16566      0.1058694
      2785.0000         0.2713         1.3564       -84.9706      -64.86458      0.1369652
      2785.5000         0.2676         1.2963       -81.9731       -61.8726      0.1773973
      2786.0000         0.2663         1.2435       -78.9695      -58.87451       0.217912
      2786.5000         0.2729         1.2073        -76.913      -56.82353      0.2456279
      2787.0000         0.2795         1.1746       -75.2002      -55.11625      0.2686993
      2787.5000         0.2861         1.1457       -74.0938      -54.01537      0.2835761
      2788.0000         0.2928         1.1167       -73.0297      -52.95678      0.2978814
      2788.5000          0.304         1.0908       -72.0875       -52.0201      0.3105392
      2789.0000         0.3188         1.0707       -71.2048      -51.14291      0.3223931
      2789.5000         0.3336         1.0552       -70.3987      -50.34232      0.3332118
      2790.0000         0.3484          1.043       -69.5804      -49.52954      0.3441954
      2790.5000         0.3641         1.0497       -67.7745      -47.72916      0.3685249
      2791.0000         0.3916         1.0563        -64.557      -44.51717      0.4119301
      2791.5000         0.4192         1.0629       -58.5044      -38.47009      0.4936474
      2792.0000         0.4467         1.0699       -56.5842      -36.55541      0.5195215
      2792.5000         0.4958         1.0819       -56.0001      -35.97683      0.5273402
      2793.0000         0.5541         1.0939       -55.1532      -35.13544      0.5387102
      2793.5000         0.6579         1.1016       -53.6594      -33.64716      0.5588222
      2794.0000         0.7589         1.0817       -50.5601      -30.55338        0.60063
      2794.5000         0.8541         1.0618       -38.2391      -18.23789      0.7670555
      2795.0000         0.8965         1.0419       -24.2803      -4.284609      0.9556134
      2795.5000         0.9339          1.022       -20.3841     -0.3939247              1
      2796.0000         0.9716         1.0021       -18.6708        1.31386              1
      2796.5000         1.0093         1.0382       -17.4896       2.489544              1
      2797.0000          1.047         1.0837       -17.0987       2.874928              1
      2797.5000         1.1308         1.1592       -16.8155       3.152611              1
      2798.0000          1.195         1.2347       -16.7197       3.242893              1
      2798.5000         1.2528         1.2323       -16.9818       2.975277              1
      2799.0000         1.2936         1.2048       -17.3373       2.614262              1
      2799.5000         1.3016         1.1719       -17.6928       2.253244              1
      2800.0000         1.2891         1.1326       -18.0485       1.892029              1
      2800.5000         1.2754         1.0933        -18.404       1.531013              1
      2801.0000         1.2609         1.0541       -18.7596       1.169897              1
      2801.5000         1.2464         1.0245       -18.4911       1.432878              1
      2802.0000         1.2318         1.0669       -18.2169       1.701563              1
      2802.5000         1.2173         1.1127       -18.0614       1.851547              1
      2803.0000         1.2028         1.1585       -18.0609       1.846531              1
      2803.5000         1.2145         1.2024       -18.0605       1.841415              1
      2804.0000         1.2445          1.245       -17.7411       2.155298              1
      2804.5000         1.2746         1.2876       -17.3774       2.513481              1
      2805.0000         1.3047         1.2963       -16.9741       2.911264              1
      2805.5000         1.3347         1.2852       -16.5315       3.348349              1
      2806.0000         1.3427         1.2731        -16.089       3.785332              1
      2806.5000         1.3474         1.2527       -15.6654       4.203417              1
      2807.0000         1.3521         1.2322       -15.3673          4.496              1
      2807.5000         1.3542         1.2145       -15.0693       4.788485              1
      2808.0000         1.3541         1.2076       -14.7712       5.081066              1
      2808.5000          1.354         1.2008       -14.5793        5.26745              1
      2809.0000         1.3539         1.1974       -14.8801       4.961134              1
      2809.5000         1.3538         1.2027       -15.1808       4.654918              1
      2810.0000         1.3538         1.2081        -15.499       4.331203              1
      2810.5000         1.3537         1.2133       -16.1499       3.674786              1
      2811.0000         1.3536         1.2182       -16.8009        3.01827              1
      2811.5000         1.3535         1.2232       -17.4516       2.362053              1
      2812.0000         1.3517         1.2282       -18.1103       1.697836              1
      2812.5000         1.3468          1.227       -18.7741       1.028521              1
      2813.0000         1.2661         1.2184        -19.438      0.3591042              1
      2813.5000         1.2151         1.2078       -20.1267     -0.3351116              1
      2814.0000         1.1641         1.1829       -20.9763      -1.190228      0.9974294
      2814.5000          1.113         1.1581       -21.9013      -2.120747      0.9848548
      2815.0000          1.065         1.1236        -22.635      -2.859962      0.9748654
      2815.5000         1.0209         1.0761       -23.3687      -3.599178       0.964876
      2816.0000         0.9767         1.0285       -23.9445      -4.180494      0.9570203
      2816.5000         0.9209         0.9699        -23.984       -4.22551       0.956412
      2817.0000         0.8618         0.9149       -23.9761      -4.223104      0.9564446
      2817.5000         0.8266         0.8668       -23.8351      -4.086435      0.9582914
