#------------------------------------------------------------------------------
# Created by    : vladimir.rabinovich
# Created on    : 09/19/2023 17:22:50
#------------------------------------------------------------------------------
~Version Information Section
VERS.           2.0     :   CWLS log ASCII Standard - VERSION 2.0
WRAP.           NO      :   One line per depth step
~Well Information Section
#MNEM       .UNIT                                         VALUE :DESCRIPTION
#------------------------------------------------------------------------------
STRT        .FT                                          1999.5 :START DEPTH
STOP        .FT                                            9645 :STOP DEPTH
STEP        .FT                                             0.5 :STEP      
NULL        .                                           -999.25 :NULL      
COMP        .                          STANDARD OIL CO OF TEXAS :COMPANY   
WELL        .                                  STATE TRACT 1-4D :WELL      
FLD         .                                           WILDCAT :FIELD     
LOC         .                                                   :LOCATION  
CNTY        .                                          CHAMBERS :LOCATION  
STAT        .                                             TEXAS :STATE     
CTRY        .                                     UNITED STATES :COUNTRY   
SRVC        .                                                   :SERVICE COMPANY
DATE        .                             9/13/2023 11:19:11 AM :LOG DATE  
API         .                                    42071032270000 :API NUMBER
UWI         .                                    42071032270000 :UNIQUE WELL ID
XCOORD      .                                  1086986.65859336 :SURFACE X 
YCOORD      .                                  10762945.0682871 :SURFACE Y 
LAT         .                                        29.6451099 :LATITUDE  
LON         .                                       -94.7426468 :LONGITUDE 
ELEV        .FT                                              20 :ELEVATION VALUE
ELEV_TYPE   .                                                DF :ELEVATION REFERENCE TYPE
~Curve Information Section
#MNEM       .UNIT                                      API CODE :CURVE DESCRIPTION
#------------------------------------------------------------------------------
DEPT        .FT                                                 :DEPTH     
DT          .US/F                                               :          
IND         .OHMM                                               :          
SN          .OHMM                                               :          
SP          .MV                                                 :          
SP_NORM     .MV                                                 :SP Normalized
VSH_SP      .V/V                                                :Volume of Shale from SP
~A        DEPTH             DT            IND             SN             SP        SP_NORM         VSH_SP
# ...
      9105.5000       103.6855         0.7199         1.1176        -37.854       4.121307              1
      9106.0000       106.4635         0.6895         1.0902       -41.3947      0.5806084              1
      9106.5000       107.3458         0.6901         1.0667       -43.7352      -1.759892      0.9909537
      9107.0000       108.1631         0.6907         1.0471       -46.0715      -4.096191      0.9631406
      9107.5000       108.0071         0.6914         1.0196       -46.0849      -4.109592       0.962981
      9108.0000       107.4736         0.7075         1.0157       -46.0983      -4.122993      0.9628215
      9108.5000       106.2651          0.729         1.0196       -43.0267      -1.051392      0.9993882
      9109.0000       103.9049         0.7397         1.0275       -39.9608       2.014507              1
      9109.5000       101.9582         0.7482         1.0431       -38.4027       3.572609              1
      9110.0000        99.8659         0.7565         1.0667       -36.4625       5.512806              1
      9110.5000         99.184         0.7572         1.0941            -40       1.975307              1
      9111.0000        99.0284         0.7423         1.1529       -43.8462      -1.870892      0.9896322
      9111.5000        99.1393         0.7273         1.1647       -43.8462      -1.870892      0.9896322
      9112.0000        99.8769         0.6969         1.1373       -43.4615      -1.486191       0.994212
      9112.5000       102.1668         0.6821         1.1176       -42.6923     -0.7169914              1
      9113.0000       104.4054         0.6672         1.0941       -41.9231     0.05220795              1
      9113.5000       107.2982         0.6699         1.0706       -41.1538      0.8215065              1
      9114.0000       108.6196         0.6846         1.0471       -40.7692       1.206108              1
      9114.5000       107.5942         0.6913         1.0235       -41.1538      0.8215065              1
      9115.0000       106.2896         0.6981         1.0157       -41.9231     0.05220795              1
      9115.5000       105.2286         0.7048         1.0157       -41.9231     0.05220795              1
      9116.0000        104.201         0.7095         1.0314       -42.3077     -0.3323936              1
      9116.5000       102.6515         0.7258          1.051       -42.6923     -0.7169914              1
      9117.0000       101.8907         0.7732         1.0745       -43.0769      -1.101593      0.9987906
      9117.5000       101.1165         0.7895          1.098       -43.0769      -1.101593      0.9987906
      9118.0000       100.7148         0.8213         1.1216       -42.6923     -0.7169914              1
      9118.5000       101.6228         0.8425         1.1412       -41.1538      0.8215065              1
      9119.0000       102.0276         0.8733         1.1529       -39.6078       2.367508              1
      9119.5000       100.4796         0.9014         1.1647       -38.8235       3.151806              1
      9120.0000        99.6791         0.9023         1.1804       -36.8627       5.112606              1
      9120.5000        99.2298         0.9031         1.2039       -37.2549       4.720406              1
      9121.0000        99.0842          0.904         1.2275       -38.0392       3.936108              1
      9121.5000        99.1606         0.8895         1.2471       -39.6078       2.367508              1
      9122.0000         99.267         0.8748         1.2588       -42.7025     -0.7271919              1
      9122.5000        99.7771         0.8601         1.2588       -42.7051     -0.7297935              1
      9123.0000       100.2286         0.8299         1.2431       -41.5473       0.428009              1
      9123.5000       100.9266         0.8152         1.2235       -40.3872       1.588108              1
      9124.0000       102.2487          0.785         1.1804       -39.6078       2.367508              1
      9124.5000       103.8237         0.7859         1.1608       -38.0392       3.936108              1
      9125.0000       105.0501         0.7868         1.1412       -38.4314       3.543907              1
      9125.5000       105.1846         0.7876         1.1176       -39.2157       2.759609              1
      9126.0000       104.8172         0.7728         1.1059       -41.5564      0.4189072              1
      9126.5000        104.284         0.7738          1.098       -43.1156      -1.140293      0.9983298
      9127.0000       103.6345         0.7664          1.102       -43.8983      -1.922993       0.989012
      9127.5000       103.4437           0.76         1.1137       -42.7315     -0.7561913              1
      9128.0000       103.4005          0.761         1.1412       -41.5624      0.4129066              1
      9128.5000       103.9406         0.7308         1.1412        -40.782       1.193306              1
      9129.0000       104.9772         0.7316         1.1176            -40       1.975307              1
      9129.5000       106.9046         0.7324         1.0706       -38.8235       3.151806              1
      9130.0000        107.048         0.7333         1.0235       -38.8235       3.151806              1
      9130.5000       106.5121         0.7341          0.996       -41.1765      0.7988091              1
      9131.0000       105.7563         0.7505         1.0353       -42.7451     -0.7697906              1
      9131.5000       104.9396         0.7513         1.0667       -42.7451     -0.7697906              1
      9132.0000       103.4514         0.7522         1.1373       -40.7843       1.191006              1
      9132.5000       103.6229         0.7375         1.1412       -39.6078       2.367508              1
      9133.0000       102.3842         0.7306         1.1216       -37.6471       4.328209              1
      9133.5000       100.6231         0.6992         1.0941       -35.6863       6.289009              1
      9134.0000       100.2941         0.6627         1.0471       -36.4706       5.504707              1
      9134.5000       101.6076          0.648         1.0157       -39.2157       2.759609              1
      9135.0000       103.8254         0.6488           0.98       -43.1373      -1.161991      0.9980716
      9135.5000       107.8019         0.6496           0.98       -44.7059      -2.730591      0.9793977
      9136.0000       111.0398         0.6349          0.968       -42.7451     -0.7697906              1
      9136.5000       109.8634         0.6358          0.944       -38.4314       3.543907              1
      9137.0000       109.4911          0.639          0.924       -36.0784       5.896908              1
      9137.5000       110.4179          0.653          0.916       -36.0784       5.896908              1
      9138.0000       111.7219         0.6587           0.92       -39.2157       2.759609              1
      9138.5000       111.7073         0.6702          0.928       -44.3137      -2.338394      0.9840667
      9139.0000       111.1881         0.6866          0.944       -47.8431      -5.867794      0.9420501
      9139.5000       110.5995         0.6874          0.952       -47.8431      -5.867794      0.9420501
      9140.0000        109.723         0.7194          0.964       -45.8824      -3.907093      0.9653918
      9140.5000       107.3179         0.7202         0.9758       -41.5686      0.4067078              1
      9141.0000       106.4766         0.7211         0.9837       -39.2157       2.759609              1
      9141.5000       106.1047         0.7374         1.0033       -39.2157       2.759609              1
      9142.0000       104.9172         0.7382         1.0188            -40       1.975307              1
      9142.5000       103.5794          0.739         1.0382       -42.3529      -0.377594              1
      9143.0000       103.0591         0.7399         1.0576       -44.3137      -2.338394      0.9840667
