#------------------------------------------------------------------------------
# Created by    : vladimir.rabinovich
# Created on    : 09/19/2023 17:19:41
#------------------------------------------------------------------------------
~Version Information Section
VERS.           2.0     :   CWLS log ASCII Standard - VERSION 2.0
WRAP.           NO      :   One line per depth step
~Well Information Section
#MNEM       .UNIT                                         VALUE :DESCRIPTION
#------------------------------------------------------------------------------
STRT        .FT                                            1000 :START DEPTH
STOP        .FT                                         10019.5 :STOP DEPTH
STEP        .FT                                             0.5 :STEP      
NULL        .                                           -999.25 :NULL      
COMP        .                                UNION PRODUCING CO :COMPANY   
WELL        .                                            BARROW :WELL      
FLD         .                                           WILDCAT :FIELD     
LOC         .                                                   :LOCATION  
CNTY        .                                          CHAMBERS :LOCATION  
STAT        .                                             TEXAS :STATE     
CTRY        .                                     UNITED STATES :COUNTRY   
SRVC        .                                                   :SERVICE COMPANY
DATE        .                             9/13/2023 11:19:11 AM :LOG DATE  
API         .                                    42071025090000 :API NUMBER
UWI         .                                    42071025090000 :UNIQUE WELL ID
XCOORD      .                                  1126276.26743497 :SURFACE X 
YCOORD      .                                  10763240.3077352 :SURFACE Y 
LAT         .                                        29.6474899 :LATITUDE  
LON         .                                       -94.6189869 :LONGITUDE 
ELEV        .FT                                              18 :ELEVATION VALUE
ELEV_TYPE   .                                                DF :ELEVATION REFERENCE TYPE
~Curve Information Section
#MNEM       .UNIT                                      API CODE :CURVE DESCRIPTION
#------------------------------------------------------------------------------
DEPT        .FT                                                 :DEPTH     
AM64        .OHMM                                               :          
AO18        .OHMM                                               :          
SN16        .OHMM                                               :          
SP          .MV                                                 :          
SP_NORM     .MV                                                 :SP Normalized
VSH_SP      .V/V                                                :Volume of Shale from SP
~A        DEPTH           AM64           AO18           SN16             SP        SP_NORM         VSH_SP
# ...
      3394.0000         0.7198          0.889          1.402      -135.1368      -56.74336      0.2500909
      3394.5000         0.7195         0.7869         1.4129       -136.231      -57.84837      0.2349539
      3395.0000         0.7192         0.7306         1.4239       -136.231      -57.85916       0.234806
      3395.5000          0.774         0.6741         1.4237      -135.6839      -57.32285      0.2421527
      3396.0000         0.7676         0.6734         1.4489      -133.8936      -55.54334      0.2665296
      3396.5000         0.7184         0.6724         1.5011      -129.6656      -51.32614      0.3242994
      3397.0000         0.7181         0.7273         1.5612      -128.0243      -49.69564      0.3466351
      3397.5000         0.7178         0.7263          1.623      -126.9301      -48.61223      0.3614763
      3398.0000         0.7727         0.7845           1.68      -126.9301      -48.62302      0.3613285
      3398.5000         0.7723         0.8912         1.6894       -126.383      -48.08672      0.3686751
      3399.0000         0.8272         1.0033         1.6884      -125.8279      -47.54241      0.3761314
      3399.5000         0.8269         1.1118         1.6224      -122.2846       -44.0099      0.4245219
      3400.0000         0.8267         1.2778         1.4333      -117.6292       -39.3653      0.4881466
      3400.5000         0.8523         1.0556         1.4607      -104.5695      -26.31639      0.6668987
      3401.0000         0.8812         1.1111         1.3332       -94.6538      -16.41148      0.8025824
      3401.5000         0.9361         1.1111         1.1645       -85.5854      -7.353882      0.9266592
      3402.0000         0.9357         1.1667         1.1109       -77.1518       1.068932              1
      3402.5000         0.9906         1.2403          1.085       -74.9656       3.244339              1
      3403.0000         0.9903         1.2778         1.0663       -75.5161       2.683044              1
      3403.5000         1.0451         1.3889         1.0831        -75.444       2.744347              1
      3404.0000         1.0999         1.4444         1.1107       -74.4275       3.750061              1
      3404.5000         1.1548            1.5          1.146       -73.8827       4.284065              1
      3405.0000         1.2096         1.5556         1.1661       -75.7847       2.371269              1
      3405.5000         1.2644         1.5619         1.1896       -79.9065       -1.76133              1
      3406.0000         1.3193         1.6111         1.2215       -82.6447      -4.510323       0.965612
      3406.5000         1.3189         1.6111         1.2215       -82.1006      -3.977013      0.9729176
      3407.0000         1.3187         1.6111         1.2103        -80.324      -2.211205      0.9971068
      3407.5000         1.3184         1.6111         1.1992       -78.2764     -0.1744003              1
      3408.0000         1.3181         1.5867         1.1671       -77.1069      0.9842987              1
      3408.5000         1.3178         1.5556         1.1324       -76.0931       1.987312              1
      3409.0000         1.3176         1.4795         1.1171       -75.5487        2.52092              1
      3409.5000         1.3173         1.3889         1.1101       -74.7442       3.314621              1
      3410.0000          1.317         1.3333         1.0989        -73.913       4.135025              1
      3410.5000         1.2616         1.3333         1.0988       -73.9156       4.121635              1
      3411.0000         1.2614         1.3333         1.1099       -73.3713       4.655144              1
      3411.5000         1.2611         1.2778         1.1098        -73.374       4.641647              1
      3412.0000         1.2608         1.2778         1.1098       -73.3771       4.627754              1
      3412.5000         1.2054         1.2778         1.1208       -73.3795       4.614563              1
      3413.0000         1.2051         1.2778         1.1329       -73.3827       4.600571              1
      3413.5000         1.2049          1.288         1.1429        -73.385       4.587471              1
      3414.0000         1.2046         1.3333          1.154       -73.3878       4.573875              1
      3414.5000         1.2043         1.3333         1.1428       -73.3906       4.560287              1
      3415.0000         1.2041         1.3333         1.1428       -73.5956       4.344498              1
      3415.5000         1.2038         1.3333         1.1427       -73.9433          3.986              1
      3416.0000         1.2035         1.3333         1.1316       -73.9459       3.972603              1
      3416.5000         1.2032         1.3333         1.1165        -74.496       3.411713              1
      3417.0000          1.203         1.3333         1.0759       -75.0456       2.851318              1
      3417.5000         1.2027         1.3889         1.0505        -76.143       1.743126              1
      3418.0000         1.2024         1.3889         1.0091       -77.2604      0.6149292              1
      3418.5000          1.147         1.4223         0.9734       -78.6009     -0.7363586              1
      3419.0000         1.1468         1.4444         0.9201       -79.9807      -2.126953      0.9982609
      3419.5000         1.1465            1.5         0.9089       -80.5304      -2.687454      0.9905828
      3420.0000         1.1462         1.5556         0.9089       -79.9863      -2.154144      0.9978884
      3420.5000         1.0908         1.5556         0.9318       -79.2974      -1.476044              1
      3421.0000         1.0355         1.6111         0.9421       -78.3505     -0.5399323              1
      3421.5000         1.0351         1.6111         0.9532       -79.0685      -1.268723              1
      3422.0000         0.9798         1.6667         0.9531        -82.186      -4.397018      0.9671642
      3422.5000         0.9795         1.6667         0.9531       -84.4224      -6.644218      0.9363806
      3423.0000         0.9793         1.6667          0.953       -86.5679      -8.800507      0.9068424
      3423.5000          0.979         1.5556         0.9641       -86.0236      -8.266998      0.9141507
      3424.0000         0.9787         1.4823         0.9787       -84.1786      -6.432793      0.9392768
      3424.5000         1.0336         1.3333         1.0195       -82.7466      -5.011589      0.9587454
      3425.0000         1.0332         1.3333         1.0195       -82.7491      -5.024879      0.9585633
      3425.5000         1.0881         1.3333         1.0194       -84.3935      -6.680077      0.9358894
      3426.0000         1.0878         1.3988         1.0193       -85.6625      -7.959869       0.918358
      3426.5000         1.0875            1.5         1.0193       -88.2289      -10.53706      0.8830539
      3427.0000         1.0872         1.6171         1.0538       -86.5389      -8.857857      0.9060568
      3427.5000          1.087         1.7778         1.1192       -84.1349      -6.464653      0.9388404
      3428.0000         1.0316          1.891         1.1413       -83.3128      -5.653343      0.9499542
      3428.5000         0.9762         1.9724         1.1246       -84.0712      -6.422539      0.9394173
      3429.0000         0.9209         2.0556         1.0635       -86.6011      -8.963226      0.9046133
      3429.5000         0.9206         2.0556         1.0363       -88.5413      -10.91422      0.8778874
      3430.0000         0.8652         2.0556         1.0078       -90.9836      -13.36732      0.8442833
      3430.5000         0.8649         1.8486         1.0077       -90.2626      -12.65712      0.8540121
      3431.0000         0.9198         1.5556         1.0077       -86.6123      -9.017601      0.9038685
      3431.5000         0.9194          1.412         1.0043       -83.7967      -6.212799      0.9422904
