#------------------------------------------------------------------------------
# Created by    : vladimir.rabinovich
# Created on    : 09/19/2023 17:22:55
#------------------------------------------------------------------------------
~Version Information Section
VERS.           2.0     :   CWLS log ASCII Standard - VERSION 2.0
WRAP.           NO      :   One line per depth step
~Well Information Section
#MNEM       .UNIT                                         VALUE :DESCRIPTION
#------------------------------------------------------------------------------
STRT        .FT                                            1527 :START DEPTH
STOP        .FT                                            8498 :STOP DEPTH
STEP        .FT                                             0.5 :STEP      
NULL        .                                           -999.25 :NULL      
COMP        .                           SAN JUAN EXPLORATION CO :COMPANY   
WELL        .                                MIDDLETON ETAL R M :WELL      
FLD         .                                           WILDCAT :FIELD     
LOC         .                                                   :LOCATION  
CNTY        .                                          CHAMBERS :LOCATION  
STAT        .                                             TEXAS :STATE     
CTRY        .                                     UNITED STATES :COUNTRY   
SRVC        .                                                   :SERVICE COMPANY
DATE        .                             9/13/2023 11:19:11 AM :LOG DATE  
API         .                                    42071022810000 :API NUMBER
UWI         .                                    42071022810000 :UNIQUE WELL ID
XCOORD      .                                  1136491.54221464 :SURFACE X 
YCOORD      .                                  10781024.2027564 :SURFACE Y 
LAT         .                                        29.6967824 :LATITUDE  
LON         .                                       -94.5875983 :LONGITUDE 
ELEV        .FT                                              24 :ELEVATION VALUE
ELEV_TYPE   .                                                DF :ELEVATION REFERENCE TYPE
~Curve Information Section
#MNEM       .UNIT                                      API CODE :CURVE DESCRIPTION
#------------------------------------------------------------------------------
DEPT        .FT                                                 :DEPTH     
LAT         .OHMM                                               :          
LN          .OHMM                                               :          
SN          .OHMM                                               :          
SP          .MV                                                 :          
SP_NORM     .MV                                                 :SP Normalized
VSH_SP      .V/V                                                :Volume of Shale from SP
~A        DEPTH            LAT             LN             SN             SP        SP_NORM         VSH_SP
# ...
      1983.0000         0.9648         0.8054          0.966      -131.0349      -44.61514      0.2730809
      1983.5000         1.0416          0.815          0.987      -127.1241      -40.70435      0.3382609
      1984.0000         1.1056         0.8246         1.0081      -121.1549      -34.73515      0.4377476
      1984.5000         1.1696         0.8342         1.0597      -109.6195      -23.19975      0.6300042
      1985.0000         1.2059         0.8438         1.1253        -97.329      -10.90925      0.8348458
      1985.5000         1.2365         0.8604         1.1909       -93.9548      -7.535049      0.8910825
      1986.0000         1.2671         0.8845         1.2536       -91.9609      -5.541145      0.9243143
      1986.5000         1.2978         0.9087         1.2728       -90.7042      -4.284447      0.9452592
      1987.0000         1.3284         0.9328          1.292       -89.6316      -3.211845      0.9631359
      1987.5000         1.3477         0.9569         1.3016       -88.8153      -2.395546      0.9767409
      1988.0000         1.3601         0.9315         1.2826       -88.3363       -1.91655      0.9847242
      1988.5000         1.3725         0.8966         1.2635       -87.8574      -1.437645      0.9927059
      1989.0000         1.3849         0.8601         1.2444       -88.3494      -1.929649      0.9845058
      1989.5000         1.3974         0.8235         1.2253       -89.0098       -2.59005      0.9734992
      1990.0000         1.4098          0.787         1.2063       -89.4352       -3.01545      0.9664091
      1990.5000         1.4198         0.7504         1.1872       -89.5657      -3.145943      0.9642343
      1991.0000         1.4211         0.7139         1.1905       -89.6935      -3.273743      0.9621043
      1991.5000         1.4225         0.6773         1.2241        -89.813       -3.39325      0.9601125
      1992.0000         1.4239         0.6452         1.2577       -89.9325      -3.512749      0.9581209
      1992.5000         1.4252          0.614         1.2849       -91.1876      -4.767845      0.9372026
      1993.0000         1.4261         0.5828          1.288       -92.6409      -6.221146      0.9129809
      1993.5000         1.3947         0.5678         1.2912       -94.0947       -7.67495      0.8887509
      1994.0000         1.3633         0.5561         1.2943       -95.6113      -9.191544      0.8634742
      1994.5000         1.3319         0.5443         1.2975        -97.167      -10.74725      0.8375459
      1995.0000         1.3005         0.5326         1.3006       -98.7234      -12.30364       0.811606
      1995.5000         1.2691         0.5259         1.3159      -100.5864      -14.16665      0.7805558
      1996.0000         1.2145         0.5204         1.3398      -103.9413      -17.52155      0.7246409
      1996.5000         1.1544         0.5149         1.3636      -110.6613      -24.24155      0.6126409
      1997.0000         1.0943         0.5093         1.3875       -119.024      -32.60425      0.4732625
      1997.5000          1.007         0.5038         1.4142      -125.5389      -39.11915      0.3646809
      1998.0000         0.9018         0.4982         1.4175      -132.9485      -46.52875      0.2411875
      1998.5000         0.7525         0.4927         1.3788      -136.9595      -50.53975      0.1743375
      1999.0000         0.6105         0.4876         1.3401       -138.655      -52.23524      0.1460793
      1999.5000         0.5221         0.4827         1.3014      -140.3506      -53.93085      0.1178192
      2000.0000         0.4689         0.4779         1.2626      -141.9819      -55.56215     0.09063085
      2000.5000         0.4245          0.473         1.2306      -143.3203      -56.90054     0.06832428
      2001.0000          0.383         0.4682         1.2126      -144.6592      -58.23944     0.04600932
      2001.5000         0.3688         0.4634         1.1946      -145.9976      -59.57785     0.02370249
      2002.0000         0.3546         0.4585         1.1766      -146.8198      -60.40004    0.009999339
      2002.5000         0.3404         0.4537         1.1585       -147.637      -61.21724              0
      2003.0000         0.3422         0.4467         1.1405      -148.4546      -62.03485              0
      2003.5000         0.3613          0.436         1.1225      -148.2117      -61.79195              0
      2004.0000         0.3804         0.4253         1.1045      -147.9492      -61.52945              0
      2004.5000         0.3994         0.4145         1.0864       -147.687      -61.26724              0
      2005.0000         0.4185         0.4038         1.0763      -147.6365      -61.21675              0
      2005.5000         0.4376         0.3931         1.0691      -147.9446      -61.52484              0
      2006.0000         0.4474         0.3824         1.0619      -148.2527      -61.83295              0
      2006.5000         0.4551         0.3717         1.0547      -148.6367      -62.21695              0
      2007.0000         0.4628         0.3825         1.0474      -149.0798      -62.66005              0
      2007.5000         0.4705          0.394         1.0402      -149.5229      -63.10315              0
      2008.0000         0.4783         0.4056          1.033      -148.8848      -62.46504              0
      2008.5000          0.486         0.4172         1.0534      -148.1953      -61.77554              0
      2009.0000         0.4937         0.4287         1.0843      -147.5061      -61.08635              0
      2009.5000         0.5014         0.4379         1.1153      -146.8164      -60.39665      0.0100558
      2010.0000         0.5091         0.4426         1.1405      -147.1245      -60.70474    0.004920959
      2010.5000         0.5158         0.4474         1.1204        -147.78      -61.36024              0
      2011.0000         0.5153         0.4521         1.1002      -148.2449      -61.82515              0
      2011.5000         0.5148         0.4568         1.0801      -148.5444      -62.12465              0
      2012.0000         0.5143         0.4616         1.0609       -148.844      -62.42424              0
      2012.5000         0.5137         0.4663         1.0422      -149.1436      -62.72385              0
      2013.0000         0.5132          0.471         1.0234      -148.2927      -61.87294              0
      2013.5000         0.5127         0.4738         1.0047      -147.3481      -60.92834    0.001194255
      2014.0000         0.5122         0.4758         0.9859      -146.4036      -59.98384     0.01693598
      2014.5000         0.5117         0.4779         0.9902      -145.1575      -58.73775     0.03770421
      2015.0000         0.5112           0.48         1.0037      -143.2512      -56.83145     0.06947581
      2015.5000         0.5179          0.482         1.0172      -141.3044      -54.88464      0.1019226
      2016.0000          0.545         0.4841         1.0307      -139.0149      -52.59514       0.140081
      2016.5000         0.5721         0.4861         1.0442      -136.9702      -50.55045      0.1741592
      2017.0000         0.5992         0.4926         1.0803       -135.491      -49.07124      0.1988126
      2017.5000         0.6263         0.5006         1.1188      -134.0605      -47.64075      0.2226542
      2018.0000         0.6584         0.5086         1.1573      -133.0959      -46.67615      0.2387309
      2018.5000          0.694         0.5166         1.1958      -133.4189      -46.99915      0.2333476
      2019.0000         0.7209         0.5246         1.2342      -134.0095      -47.58975      0.2235041
      2019.5000         0.7027         0.5326         1.2575      -134.6504      -48.23065      0.2128225
      2020.0000         0.6845         0.5406         1.2387      -134.0872      -47.66745      0.2222092
      2020.5000          0.662         0.5526         1.1802      -133.3633      -46.94354      0.2342743
