#------------------------------------------------------------------------------
# Created by    : vladimir.rabinovich
# Created on    : 09/19/2023 17:22:50
#------------------------------------------------------------------------------
~Version Information Section
VERS.           2.0     :   CWLS log ASCII Standard - VERSION 2.0
WRAP.           NO      :   One line per depth step
~Well Information Section
#MNEM       .UNIT                                         VALUE :DESCRIPTION
#------------------------------------------------------------------------------
STRT        .FT                                          1999.5 :START DEPTH
STOP        .FT                                            9645 :STOP DEPTH
STEP        .FT                                             0.5 :STEP      
NULL        .                                           -999.25 :NULL      
COMP        .                          STANDARD OIL CO OF TEXAS :COMPANY   
WELL        .                                  STATE TRACT 1-4D :WELL      
FLD         .                                           WILDCAT :FIELD     
LOC         .                                                   :LOCATION  
CNTY        .                                          CHAMBERS :LOCATION  
STAT        .                                             TEXAS :STATE     
CTRY        .                                     UNITED STATES :COUNTRY   
SRVC        .                                                   :SERVICE COMPANY
DATE        .                             9/13/2023 11:19:11 AM :LOG DATE  
API         .                                    42071032270000 :API NUMBER
UWI         .                                    42071032270000 :UNIQUE WELL ID
XCOORD      .                                  1086986.65859336 :SURFACE X 
YCOORD      .                                  10762945.0682871 :SURFACE Y 
LAT         .                                        29.6451099 :LATITUDE  
LON         .                                       -94.7426468 :LONGITUDE 
ELEV        .FT                                              20 :ELEVATION VALUE
ELEV_TYPE   .                                                DF :ELEVATION REFERENCE TYPE
~Curve Information Section
#MNEM       .UNIT                                      API CODE :CURVE DESCRIPTION
#------------------------------------------------------------------------------
DEPT        .FT                                                 :DEPTH     
DT          .US/F                                               :          
IND         .OHMM                                               :          
SN          .OHMM                                               :          
SP          .MV                                                 :          
SP_NORM     .MV                                                 :SP Normalized
VSH_SP      .V/V                                                :Volume of Shale from SP
~A        DEPTH             DT            IND             SN             SP        SP_NORM         VSH_SP
# ...
      7053.5000       123.7842          0.489         0.6641       -38.3039       3.671406              1
      7054.0000       124.4187         0.4903         0.6603       -39.8529       2.122406              1
      7054.5000        124.622         0.4915         0.6566       -42.5699      -0.594593              1
      7055.0000       124.6497          0.493         0.6568       -44.1197      -2.144394      0.9863763
      7055.5000       124.4944         0.4941         0.6531       -45.6694      -3.694092      0.9679275
      7056.0000        124.035         0.4953         0.6533       -46.8269      -4.851593      0.9541477
      7056.5000        123.594         0.4965         0.6574       -44.0608      -2.085491      0.9870775
      7057.0000        123.178         0.4977         0.6615       -40.9024       1.072906              1
      7057.5000       122.1583         0.4989         0.6695       -39.3235       2.651806              1
      7058.0000       120.3535         0.5002         0.6737       -36.1667       5.808609              1
      7058.5000       118.8453         0.5048         0.6856       -34.5784       7.396908              1
      7059.0000       117.4315         0.5182         0.6937       -36.9118       5.063507              1
      7059.5000       115.2611         0.5194         0.7056       -39.2451       2.730209              1
      7060.0000       115.6728         0.5206         0.7058       -42.7464     -0.7710915              1
      7060.5000       117.1416         0.5219         0.7059       -44.3137      -2.338394      0.9840667
      7061.0000       118.6942         0.5078          0.702       -44.3137      -2.338394      0.9840667
      7061.5000       120.3956          0.509         0.6941       -41.9608     0.01450729              1
      7062.0000       121.0319         0.5102         0.6863       -39.2157       2.759609              1
      7062.5000       120.2268         0.5114         0.6706       -37.6471       4.328209              1
      7063.0000       119.6138         0.5126         0.6706        -34.902       7.073307              1
      7063.5000       119.6131         0.5138         0.6745       -35.6863       6.289009              1
      7064.0000       119.7724         0.5169         0.6784       -37.6471       4.328209              1
      7064.5000       120.4026         0.5318         0.6824       -39.6078       2.367508              1
      7065.0000        122.009          0.533         0.6863       -42.3529      -0.377594              1
      7065.5000       123.1899         0.5342         0.6863       -44.3137      -2.338394      0.9840667
      7066.0000       124.1038         0.5286         0.6902       -43.9216      -1.946293      0.9887346
      7066.5000       124.5596         0.5212         0.6902       -42.3529      -0.377594              1
      7067.0000       124.9062         0.5227         0.6941       -39.6078       2.367508              1
      7067.5000       125.3351         0.5084         0.6941       -38.4314       3.543907              1
      7068.0000       125.4088         0.4941          0.698       -35.6863       6.289009              1
      7068.5000       124.2406         0.4797         0.6941       -36.0784       5.896908              1
      7069.0000       122.5234         0.4809         0.6902       -38.4314       3.543907              1
      7069.5000       122.0814         0.4821         0.6824       -43.1373      -1.161991      0.9980716
      7070.0000       122.7044         0.4678         0.6824       -43.1373      -1.161991      0.9980716
      7070.5000       125.0191         0.4719         0.6863       -42.3529      -0.377594              1
      7071.0000       126.6428         0.4858         0.6902       -40.3922       1.583107              1
      7071.5000        126.797         0.4871          0.698       -39.6078       2.367508              1
      7072.0000       126.6212         0.4949          0.698       -37.6471       4.328209              1
      7072.5000       125.9451         0.5206         0.7059       -37.6471       4.328209              1
      7073.0000       125.5411         0.5221         0.7098       -37.6471       4.328209              1
      7073.5000       125.0702         0.5232         0.7176       -37.6471       4.328209              1
      7074.0000       124.3967         0.5244         0.7255       -38.0392       3.936108              1
      7074.5000       123.6758         0.5256         0.7333       -38.4314       3.543907              1
      7075.0000       122.4623         0.5423         0.7451       -38.8235       3.151806              1
      7075.5000       120.9148          0.528          0.749       -39.2157       2.759609              1
      7076.0000       120.5723         0.5305         0.7608       -39.2157       2.759609              1
      7076.5000       120.5271          0.546         0.7608       -39.6078       2.367508              1
      7077.0000       120.7584         0.5434         0.7608            -40       1.975307              1
      7077.5000       121.1232         0.5328         0.7608       -40.3922       1.583107              1
      7078.0000       121.6394         0.5342         0.7608       -40.7843       1.191006              1
      7078.5000       122.0716         0.5354         0.7608       -41.1765      0.7988091              1
      7079.0000       122.1823         0.5367         0.7608       -41.5686      0.4067078              1
      7079.5000        122.311         0.5381         0.7686       -41.9608     0.01450729              1
      7080.0000       122.6887         0.5393         0.7804       -41.9608     0.01450729              1
      7080.5000       123.2049         0.5375         0.7843       -42.3529      -0.377594              1
      7081.0000       123.7885         0.5261         0.7882       -42.3529      -0.377594              1
      7081.5000       124.0791         0.5429         0.7922       -42.7451     -0.7697906              1
      7082.0000       123.9309         0.5441         0.7961       -42.7451     -0.7697906              1
      7082.5000       123.8461         0.5453         0.8038       -43.1373      -1.161991      0.9980716
      7083.0000       124.1548           0.55         0.8115       -43.5294      -1.554092      0.9934037
      7083.5000       124.0468          0.568         0.8231       -43.1373      -1.161991      0.9980716
      7084.0000       122.9277         0.5921         0.8423       -43.5294      -1.554092      0.9934037
      7084.5000       121.2143         0.6351         0.8692       -44.3137      -2.338394      0.9840667
      7085.0000       118.1542         0.6686         0.8962       -44.7059      -2.730591      0.9793977
      7085.5000       112.3881          0.708         0.9269       -45.4902      -3.514893      0.9700608
      7086.0000       108.4516         0.7712         0.9577       -45.8824      -3.907093      0.9653918
      7086.5000       104.6053         0.8344              1       -46.6667      -4.691391      0.9560549
      7087.0000        104.429         0.8976         1.0431       -47.8431      -5.867794      0.9420501
      7087.5000       105.5884         0.9453         1.0863       -49.0196      -7.044292      0.9280441
      7088.0000       105.4368         0.9931         1.1294       -50.1961      -8.220791      0.9140382
      7088.5000         104.59         0.9943         1.1725       -50.1961      -8.220791      0.9140382
      7089.0000       101.8745         0.9955          1.216       -49.0196      -7.044292      0.9280441
      7089.5000        97.0054         0.9924           1.24        -47.451      -5.475693      0.9467179
      7090.0000        94.4621         0.9668          1.268       -46.2745      -4.299194      0.9607239
      7090.5000        93.0561         0.9613         1.2681       -47.0588      -5.083492       0.951387
      7091.0000        96.0069          0.954         1.2442       -48.6275      -6.652191       0.932712
