#------------------------------------------------------------------------------
# Created by    : vladimir.rabinovich
# Created on    : 09/19/2023 17:22:28
#------------------------------------------------------------------------------
~Version Information Section
VERS.           2.0     :   CWLS log ASCII Standard - VERSION 2.0
WRAP.           NO      :   One line per depth step
~Well Information Section
#MNEM       .UNIT                                         VALUE :DESCRIPTION
#------------------------------------------------------------------------------
STRT        .FT                                            1650 :START DEPTH
STOP        .FT                                         10241.5 :STOP DEPTH
STEP        .FT                                             0.5 :STEP      
NULL        .                                           -999.25 :NULL      
COMP        .                                 HARRISON DAN J JR :COMPANY   
WELL        .                                    G R CANADA EST :WELL      
FLD         .                                           WILDCAT :FIELD     
LOC         .                                                   :LOCATION  
CNTY        .                                          CHAMBERS :LOCATION  
STAT        .                                             TEXAS :STATE     
CTRY        .                                     UNITED STATES :COUNTRY   
SRVC        .                                                   :SERVICE COMPANY
DATE        .                             9/13/2023 11:19:11 AM :LOG DATE  
API         .                                    42071032580000 :API NUMBER
UWI         .                                    42071032580000 :UNIQUE WELL ID
XCOORD      .                                   1124905.0652959 :SURFACE X 
YCOORD      .                                  10748564.4390152 :SURFACE Y 
LAT         .                                        29.6070806 :LATITUDE  
LON         .                                       -94.6226563 :LONGITUDE 
ELEV        .FT                                            14.3 :ELEVATION VALUE
ELEV_TYPE   .                                                KB :ELEVATION REFERENCE TYPE
~Curve Information Section
#MNEM       .UNIT                                      API CODE :CURVE DESCRIPTION
#------------------------------------------------------------------------------
DEPT        .FT                                                 :DEPTH     
CILD        .MMHO                                               :          
IND         .OHMM                                               :          
SN16        .OHMM                                               :          
SP          .MV                                                 :          
SP_NORM     .MV                                                 :SP Normalized
VSH_SP      .V/V                                                :Volume of Shale from SP
~A        DEPTH           CILD            IND           SN16             SP        SP_NORM         VSH_SP
# ...
      2790.0000        -999.25         0.3062         1.2358      -119.2666      -42.46019      0.3991277
      2790.5000        -999.25          0.306         1.2776      -133.2766      -56.46606      0.1961441
      2791.0000        -999.25         0.2756         1.2478      -135.7944      -58.97974      0.1597138
      2791.5000        -999.25         0.2754         1.0918      -137.4867      -60.66791      0.1352477
      2792.0000        -999.25          0.275         0.9851      -137.4894      -60.66649      0.1352683
      2792.5000        -999.25         0.2748         0.9099      -137.4926      -60.66557      0.1352815
      2793.0000        -999.25         0.2744         0.7582      -137.4954      -60.66425      0.1353007
      2793.5000        -999.25         0.3042         0.7284      -137.4985      -60.66323      0.1353155
      2794.0000        -999.25         0.3039         0.7284      -136.6251      -59.78571      0.1480332
      2794.5000        -999.25         0.3337         0.7377       -135.102      -58.25848      0.1701669
      2795.0000        -999.25         0.3633         0.7642       -134.505      -57.65736      0.1788789
      2795.5000        -999.25         0.3631         0.7919      -134.5074      -57.65563      0.1789039
      2796.0000        -999.25         0.3627         0.8358      -134.5109      -57.65501       0.178913
      2796.5000        -999.25         0.3527         0.8922      -133.9126      -57.05258      0.1876437
      2797.0000        -999.25         0.3321         0.9851      -134.5168      -57.65266      0.1789469
      2797.5000        -999.25         0.3018         1.0173       -135.285      -58.41674      0.1678733
      2798.0000        -999.25         0.2715         1.0328      -136.3245      -59.45211       0.152868
      2798.5000        -999.25         0.2712         1.0328      -137.5285      -60.65199      0.1354784
      2799.0000        -999.25         0.2408         1.0209      -139.3334      -62.45277      0.1093801
      2799.5000        -999.25         0.2706         0.9555      -142.0118      -65.12704     0.07062254
      2800.0000        -999.25         0.2703         0.9075      -144.1441      -67.25523     0.03977933
      2800.5000        -999.25         0.2395         0.8536      -147.7513       -70.8583              0
      2801.0000        -999.25          0.239         0.8535       -147.153      -70.25587              0
      2801.5000        -999.25         0.2383         0.8534      -147.1566      -70.25536              0
      2802.0000        -999.25         0.2378         0.8536      -146.4866      -69.58123    0.006069128
      2802.5000        -999.25         0.2371         0.8591      -145.3603      -68.45081     0.02245198
      2803.0000        -999.25         0.2366         0.8655      -144.7625      -67.84888      0.0311757
      2803.5000        -999.25          0.266         0.8768      -144.1654      -67.24767     0.03988891
      2804.0000        -999.25         0.2655         0.8833      -143.4242      -66.50233      0.0506908
      2804.5000        -999.25         0.2948         0.9123      -142.3695      -65.44352     0.06603595
      2805.0000        -999.25         0.2943         0.9361      -142.3723      -65.44219     0.06605519
      2805.5000        -999.25         0.3236         0.9121      -141.1742      -64.23996     0.08347885
      2806.0000        -999.25         0.3231           0.88      -139.9754      -63.03705      0.1009123
      2806.5000        -999.25         0.3526         0.8581      -137.5766      -60.63412      0.1357374
      2807.0000        -999.25         0.4121         0.8508      -131.0151       -54.0685      0.2308912
      2807.5000        -999.25         0.4714          0.846      -123.1681      -46.21738      0.3446757
      2808.0000        -999.25         0.5357         0.8399      -113.6414      -36.68655      0.4828036
      2808.5000        -999.25         0.6204         0.8397      -105.7432      -28.78423        0.59733
      2809.0000        -999.25         0.6853          0.838       -93.7481        -16.785      0.7712318
      2809.5000        -999.25         0.7693         0.8335       -90.0246      -13.05738      0.8252553
      2810.0000        -999.25         0.7989         0.8197       -86.5468      -9.575455      0.8757181
      2810.5000        -999.25         0.8582         0.7975       -85.8723      -8.896835      0.8855531
      2811.0000        -999.25         0.8643         0.7894       -85.3511      -8.371513      0.8931665
      2811.5000        -999.25         0.8871         0.7853       -84.7533      -7.769592        0.90189
      2812.0000        -999.25         0.9538         0.8253       -84.1562      -7.168365      0.9106034
      2812.5000        -999.25          1.006         0.8507       -83.4105      -6.418541      0.9214704
      2813.0000        -999.25         1.0132         0.8672       -82.3603       -5.36422      0.9367504
      2813.5000        -999.25         1.0648         0.8863       -81.3701      -4.369896      0.9511609
      2814.0000        -999.25         1.0727         0.9007       -80.5642      -3.559875      0.9629003
      2814.5000        -999.25         1.0937         0.9219       -79.7464      -2.737953      0.9748123
      2815.0000        -999.25         1.1232         0.9418       -78.7684      -1.755829       0.989046
      2815.5000        -999.25         1.1225         0.9635       -78.1703       -1.15361      0.9977738
      2816.0000        -999.25          1.122         0.9841       -78.1738      -1.152977      0.9977829
      2816.5000        -999.25         1.0913          1.005       -78.7774      -1.752457      0.9890949
      2817.0000        -999.25         1.0205         1.0287        -79.381      -2.351929      0.9804068
      2817.5000        -999.25         0.9399         1.0407       -79.9851      -2.951912      0.9717114
      2818.0000        -999.25         0.8793         1.0643       -80.5882      -3.550896      0.9630305
      2818.5000        -999.25         0.8787         1.0762       -81.1922      -4.150764      0.9543368
      2819.0000        -999.25         0.8481         1.0939       -81.7953      -4.749748      0.9456558
      2819.5000        -999.25         0.8475         1.0998       -82.3993      -5.349617      0.9369621
      2820.0000        -999.25          0.877         1.1057       -83.7197      -6.665901      0.9178855
      2820.5000        -999.25         0.8763         1.1055       -85.4082      -8.350273      0.8934743
      2821.0000        -999.25         0.9484         1.0994       -86.1644      -9.102348      0.8825747
      2821.5000        -999.25         0.9952         1.0925        -87.216      -10.14983      0.8673937
      2822.0000        -999.25         1.0248         1.0753       -88.6085       -11.5382      0.8472725
      2822.5000        -999.25         1.0541         1.0622       -88.4231      -11.34869       0.850019
      2823.0000        -999.25         1.0535         1.0512       -86.9997      -9.921158      0.8707079
      2823.5000        -999.25         1.0829         1.0511       -84.8254      -7.742737      0.9022792
      2824.0000        -999.25         1.0823         1.0569       -82.7662      -5.679405      0.9321826
      2824.5000        -999.25         1.0817         1.0716       -81.2277      -4.136787      0.9545393
      2825.0000        -999.25          1.081         1.1045       -80.6295       -3.53447      0.9632686
      2825.5000        -999.25         1.0805         1.1374       -80.6471      -3.547943      0.9630733
      2826.0000        -999.25         1.0198         1.1699       -81.8377      -4.734421       0.945878
      2826.5000        -999.25         1.0184         1.1715       -82.4408      -5.333397      0.9371971
      2827.0000        -999.25         0.9585         1.1756       -83.0449      -5.933372      0.9285018
      2827.5000        -999.25          0.928         1.1815        -84.334      -7.218346       0.909879
