#------------------------------------------------------------------------------
# Created by    : vladimir.rabinovich
# Created on    : 09/19/2023 17:19:41
#------------------------------------------------------------------------------
~Version Information Section
VERS.           2.0     :   CWLS log ASCII Standard - VERSION 2.0
WRAP.           NO      :   One line per depth step
~Well Information Section
#MNEM       .UNIT                                         VALUE :DESCRIPTION
#------------------------------------------------------------------------------
STRT        .FT                                            1000 :START DEPTH
STOP        .FT                                         10019.5 :STOP DEPTH
STEP        .FT                                             0.5 :STEP      
NULL        .                                           -999.25 :NULL      
COMP        .                                UNION PRODUCING CO :COMPANY   
WELL        .                                            BARROW :WELL      
FLD         .                                           WILDCAT :FIELD     
LOC         .                                                   :LOCATION  
CNTY        .                                          CHAMBERS :LOCATION  
STAT        .                                             TEXAS :STATE     
CTRY        .                                     UNITED STATES :COUNTRY   
SRVC        .                                                   :SERVICE COMPANY
DATE        .                             9/13/2023 11:19:11 AM :LOG DATE  
API         .                                    42071025090000 :API NUMBER
UWI         .                                    42071025090000 :UNIQUE WELL ID
XCOORD      .                                  1126276.26743497 :SURFACE X 
YCOORD      .                                  10763240.3077352 :SURFACE Y 
LAT         .                                        29.6474899 :LATITUDE  
LON         .                                       -94.6189869 :LONGITUDE 
ELEV        .FT                                              18 :ELEVATION VALUE
ELEV_TYPE   .                                                DF :ELEVATION REFERENCE TYPE
~Curve Information Section
#MNEM       .UNIT                                      API CODE :CURVE DESCRIPTION
#------------------------------------------------------------------------------
DEPT        .FT                                                 :DEPTH     
AM64        .OHMM                                               :          
AO18        .OHMM                                               :          
SN16        .OHMM                                               :          
SP          .MV                                                 :          
SP_NORM     .MV                                                 :SP Normalized
VSH_SP      .V/V                                                :Volume of Shale from SP
~A        DEPTH           AM64           AO18           SN16             SP        SP_NORM         VSH_SP
# ...
      4002.0000          0.934          1.499         0.9101       -66.2169       3.013153              1
      4002.5000         0.8783         1.6875         0.9099       -66.2196       3.013222              1
      4003.0000         0.8778         1.8318         0.9097       -66.2225       3.013077              1
      4003.5000         0.8772         1.8315         0.9206       -67.3192       1.919144              1
      4004.0000         0.8766         1.8868         0.9092       -67.8694       1.371712              1
      4004.5000          0.821         1.8865          0.906       -68.5111      0.7327728              1
      4005.0000         0.7653         1.8862         0.8866       -70.0633     -0.8166656              1
      4005.5000         0.7524          1.886         0.8592       -70.6127      -1.363304              1
      4006.0000         0.7091         1.8857         0.8195        -71.163      -1.910843              1
      4006.5000         0.6535          1.941         0.7859       -71.7123      -2.457382      0.9950819
      4007.0000         0.6529         1.9962         0.7412       -72.2621      -3.004417      0.9891998
      4007.5000         0.5974         2.0625         0.7063       -72.2649      -3.004456      0.9891994
      4008.0000         0.5416         2.1068         0.6741       -72.2675      -3.004295      0.9892011
      4008.5000         0.5412         2.1708          0.662       -71.7231       -2.45713      0.9950846
      4009.0000         0.4854         2.2729         0.6514       -70.6312      -1.362473              1
      4009.5000          0.485         2.2726         0.6513       -70.6345      -1.363007              1
      4010.0000         0.4844         2.3279          0.651       -71.1841      -1.909843              1
      4010.5000         0.4838         2.3276         0.6619       -72.2813      -3.004288      0.9892012
      4011.0000         0.4833         2.3273         0.6889       -74.8258      -5.546021      0.9618707
      4011.5000         0.4827         2.2694         0.7393       -79.9464      -10.66386      0.9068401
      4012.0000         0.4822          2.049           0.87      -107.4637       -38.1784       0.610985
      4012.5000         0.4816         1.8265         1.0388      -111.6844      -42.39634      0.5656307
      4013.0000         0.4811          1.551         1.1058      -113.3695      -44.07867      0.5475411
      4013.5000         0.4805         1.2149         1.1384      -128.1033      -58.80972      0.3891428
      4014.0000           0.48         1.0236         1.1382      -130.2972      -61.00084      0.3655824
      4014.5000         0.4794         0.9365         0.9935      -131.6489      -62.34978      0.3510777
      4015.0000         0.4789         0.9363         0.8211       -133.582      -64.28012      0.3303213
      4015.5000         0.4783          0.936         0.7708      -136.4328      -67.12816      0.2996972
      4016.0000         0.4778         0.9913         0.7462         -140.7      -71.39259      0.2538431
      4016.5000         0.4772          0.991          0.737       -142.706      -73.39583      0.2323029
      4017.0000         0.4767         0.9907         0.7257      -148.3651      -79.05217       0.171482
      4017.5000         0.4761         0.9904         0.7144      -151.1028      -81.78711      0.1420741
      4018.0000         0.4205         1.0056          0.702      -144.5407      -75.22224       0.212664
      4018.5000         0.4199         1.0454         0.6584      -133.3096      -63.98839      0.3334582
      4019.0000         0.4194         1.1007         0.6471      -124.8502      -55.52622      0.4244492
      4019.5000         0.4187         1.1004         0.6912       -123.211      -53.88426      0.4421047
      4020.0000         0.4183         1.1557         0.7688      -129.2326      -59.90311      0.3773859
      4020.5000         0.4177         1.1554         0.8511      -143.1154      -73.78314      0.2281383
      4021.0000         0.4172         1.0821         0.9128      -148.9341      -79.59908      0.1656013
      4021.5000         0.3931         0.9326         0.9507      -150.5776      -81.23982      0.1479589
      4022.0000          0.361         0.7593         0.9568      -151.3723      -82.03175      0.1394435
      4022.5000         0.3604         0.6543         0.9566      -151.6773        -82.334      0.1361936
      4023.0000         0.3048         0.6541          0.923      -143.8742      -74.52814      0.2201276
      4023.5000         0.3042         0.6537         0.8535      -134.7223      -65.37347      0.3185648
      4024.0000         0.3587         0.7091          0.667      -126.8526      -57.50101       0.403215
      4024.5000         0.3582         0.7643         0.5163      -112.8433      -43.48894      0.5538824
      4025.0000         0.3576         0.8196         0.4666      -114.5918      -45.23467      0.5351111
      4025.5000         0.4123         0.9014         0.4553      -121.6026      -52.24271      0.4597558
      4026.0000         0.4116         0.9857         0.4773      -128.4469      -59.08425      0.3861908
      4026.5000         0.4111         1.0653         0.4751      -126.5321      -57.16669      0.4068098
      4027.0000         0.4105         1.0963         0.4546      -123.1977      -53.82953      0.4426932
      4027.5000           0.41          1.096         0.4322      -125.4434      -56.07246      0.4185756
      4028.0000         0.4094         0.9846         0.4319      -127.6834      -58.30971      0.3945193
      4028.5000          0.464         0.9288         0.4548      -130.9122      -61.53574      0.3598307
      4029.0000         0.4634         0.9285         0.4981      -130.9445      -61.56528      0.3595131
      4029.5000         0.4629         0.8551         0.5205      -127.2622      -57.88022      0.3991374
      4030.0000         0.4624         0.8168         0.5477      -123.2681      -53.88335      0.4421145
      4030.5000         0.4618          0.761         0.5642      -121.9826      -52.59509      0.4559667
      4031.0000         0.4613         0.7607         0.5912      -133.6687      -64.27843      0.3303394
      4031.5000         0.4607         0.7049         0.5971      -143.5189      -74.12588      0.2244529
      4032.0000         0.4051         0.7046         0.5813      -142.4279      -73.03211      0.2362138
      4032.5000         0.3494         0.7044         0.5522      -141.7654      -72.36684      0.2433673
      4033.0000         0.2744         0.6485         0.5481       -140.245      -70.84368      0.2597454
      4033.5000          0.183         0.6482         0.5517      -140.2473      -70.84322      0.2597503
      4034.0000         0.1825         0.6479         0.6493      -136.4207      -67.01386      0.3009262
      4034.5000         0.1268         0.6477         1.4735      -131.2918      -61.88219      0.3561054
      4035.0000         0.1263         0.6474          1.651      -121.6541      -52.24173      0.4597664
      4035.5000         0.1257         0.7069         1.7731      -119.4652      -50.05007      0.4833326
      4036.0000         0.0701          0.869         1.8106       -118.666      -49.24811      0.4919558
      4036.5000         0.0695          0.984         1.8504      -118.3791      -48.95844      0.4950705
      4037.0000         0.1241         1.3685          1.863      -118.1625      -48.73908      0.4974292
      4037.5000         0.1234         1.7571         1.8499      -118.9317      -49.50552      0.4891879
      4038.0000         0.1781         1.5928         1.7953      -130.2031      -60.77415      0.3680198
      4038.5000         0.2325         1.3677         1.5828       -151.764      -82.33231      0.1362118
      4039.0000         0.2321          1.121          1.391      -153.6935      -84.25903      0.1154943
      4039.5000         0.2866         0.9227         1.2602      -156.1463      -86.70908     0.08914972
