#------------------------------------------------------------------------------
# Created by    : vladimir.rabinovich
# Created on    : 09/19/2023 17:19:41
#------------------------------------------------------------------------------
~Version Information Section
VERS.           2.0     :   CWLS log ASCII Standard - VERSION 2.0
WRAP.           NO      :   One line per depth step
~Well Information Section
#MNEM       .UNIT                                         VALUE :DESCRIPTION
#------------------------------------------------------------------------------
STRT        .FT                                            1000 :START DEPTH
STOP        .FT                                         10019.5 :STOP DEPTH
STEP        .FT                                             0.5 :STEP      
NULL        .                                           -999.25 :NULL      
COMP        .                                UNION PRODUCING CO :COMPANY   
WELL        .                                            BARROW :WELL      
FLD         .                                           WILDCAT :FIELD     
LOC         .                                                   :LOCATION  
CNTY        .                                          CHAMBERS :LOCATION  
STAT        .                                             TEXAS :STATE     
CTRY        .                                     UNITED STATES :COUNTRY   
SRVC        .                                                   :SERVICE COMPANY
DATE        .                             9/13/2023 11:19:11 AM :LOG DATE  
API         .                                    42071025090000 :API NUMBER
UWI         .                                    42071025090000 :UNIQUE WELL ID
XCOORD      .                                  1126276.26743497 :SURFACE X 
YCOORD      .                                  10763240.3077352 :SURFACE Y 
LAT         .                                        29.6474899 :LATITUDE  
LON         .                                       -94.6189869 :LONGITUDE 
ELEV        .FT                                              18 :ELEVATION VALUE
ELEV_TYPE   .                                                DF :ELEVATION REFERENCE TYPE
~Curve Information Section
#MNEM       .UNIT                                      API CODE :CURVE DESCRIPTION
#------------------------------------------------------------------------------
DEPT        .FT                                                 :DEPTH     
AM64        .OHMM                                               :          
AO18        .OHMM                                               :          
SN16        .OHMM                                               :          
SP          .MV                                                 :          
SP_NORM     .MV                                                 :SP Normalized
VSH_SP      .V/V                                                :Volume of Shale from SP
~A        DEPTH           AM64           AO18           SN16             SP        SP_NORM         VSH_SP
# ...
      5788.0000         0.5108         0.7977         0.7817      -143.6975      -84.43823      0.1587936
      5788.5000         0.5102         0.7541         0.7815      -146.6465      -87.38724      0.1287017
      5789.0000         0.5097         0.6972         0.7925      -149.1853      -89.92604      0.1027955
      5789.5000         0.5091         0.6402         0.7923      -150.9049      -91.64565     0.08524852
      5790.0000         0.5086         0.5833          0.831      -153.0317      -93.77243     0.06354663
      5790.5000         0.5081         0.5575         0.9031       -154.171      -94.91174     0.05192099
      5791.0000         0.5075          0.505         0.9412      -155.2368      -95.97754     0.04104552
      5791.5000          0.507         0.4124          0.925      -156.3482      -97.08894     0.02970466
      5792.0000         0.5065         0.4111          0.676      -157.7025      -98.44324     0.01588533
      5792.5000         0.5059         0.4096         0.5913      -159.0899      -99.83064    0.001728136
      5793.0000         0.5605         0.4083         0.5539      -159.0979      -99.83864    0.001646548
      5793.5000         0.5599         0.4068         0.5243       -158.559      -99.29974    0.007145473
      5794.0000         0.5593         0.4189         0.5097      -157.8246      -98.56534     0.01463941
      5794.5000         0.5589         0.4597         0.4906      -155.2934      -96.03413     0.04046802
      5795.0000         0.5583          0.514         0.4794      -153.4971      -94.23784     0.05879756
      5795.5000         0.5027         0.5681         0.4681      -147.6505      -88.39124      0.1184568
      5796.0000         0.4821         0.6311         0.4568      -143.8532      -84.59393      0.1572048
      5796.5000         0.4465         0.7873         0.4566      -137.8191      -78.55984      0.2187771
      5797.0000         0.4302         0.8417         0.4804      -132.4739      -73.21465        0.27332
      5797.5000         0.3903         0.8401         0.5563      -118.1397      -58.88044      0.4195873
      5798.0000         0.3347         0.8989         0.7584       -111.323      -52.06374      0.4891455
      5798.5000          0.279         0.9486         0.8671       -106.667      -47.40774      0.5366557
      5799.0000         0.2785         0.9472         0.8669      -104.3902      -45.13094      0.5598884
      5799.5000         0.2779         1.0014         0.8556      -100.6654      -41.40614      0.5978965
      5800.0000         0.3326              1         0.8333      -101.3906      -42.13134      0.5904965
      5800.5000         0.3871           0.64         0.8282      -117.8817      -58.62244        0.42222
      5801.0000         0.3866         0.5544         0.7888      -148.8146      -89.55534      0.1065781
      5801.5000         0.4412         0.4983         0.7689      -153.4059      -94.14664     0.05972819
      5802.0000         0.3852         0.4978          0.722      -153.7386      -94.47934     0.05633327
      5802.5000         0.4394         0.4972         0.5779      -152.6444      -93.38513     0.06749865
      5803.0000         0.4932         0.4966         0.5108      -152.6444      -93.38513     0.06749865
      5803.5000         0.4921         0.4961         0.4607      -152.7828      -93.52354     0.06608628
      5804.0000         0.4909         0.4955         0.4217      -156.4742      -97.21494     0.02841903
      5804.5000         0.4899          0.495         0.3995      -157.5684      -98.30914     0.01725364
      5805.0000         0.4335         0.4944         0.3883      -149.3617      -90.10243      0.1009956
      5805.5000         0.4225         0.4939         0.3895       -143.942      -84.68274      0.1562986
      5806.0000         0.3762         0.4933         0.4326      -126.9301      -67.67084      0.3298894
      5806.5000         0.3201         0.4928         0.4779       -118.755      -59.49574      0.4133088
      5807.0000         0.3188         0.5477         0.5159      -102.2969      -43.03764      0.5812486
      5807.5000         0.3179           0.55         0.5547       -99.5587      -40.29944      0.6091894
      5808.0000         0.3166         0.6022         0.5658       -99.3359      -40.07664      0.6114628
      5808.5000         0.3433         0.6572         0.5657       -96.2918      -37.03254      0.6425251
      5809.0000         0.3699         0.7933         0.5616       -94.1033      -34.84404      0.6648567
      5809.5000         0.3685         0.9339         0.5545      -105.0456      -45.78634      0.5532006
      5810.0000         0.4227         0.9111         0.5577      -107.5584      -48.29914      0.5275598
      5810.5000         0.4764         0.7661         0.5766      -114.8936      -55.63434      0.4527108
      5811.0000         0.5306         0.5245         0.8235      -136.7689      -77.50964      0.2294934
      5811.5000         0.5844         0.3761         0.8431      -149.9088      -90.64954      0.0954129
      5812.0000         0.5833           0.32          0.867      -149.1881      -89.92883       0.102767
      5812.5000         0.6372         0.2638         0.8986       -146.079      -86.81973      0.1344925
      5813.0000         0.6362         0.2633         0.9236       -144.389      -85.12975      0.1517373
      5813.5000          0.635         0.2627         0.9985      -142.2492      -82.98994       0.173572
      5814.0000         0.6017         0.3178         1.0095      -142.2492      -82.98994       0.173572
      5814.5000         0.5776         0.3727         0.9437      -145.2307      -85.97144      0.1431486
      5815.0000         0.5705         0.3777         0.8539      -149.3617      -90.10243      0.1009956
      5815.5000         0.5203         0.4272           0.68      -154.7381      -95.47884     0.04613433
      5816.0000         0.4091         0.4267         0.6204      -157.0213      -97.76204     0.02283634
      5816.5000         0.3527         0.4816         0.5722       -158.304      -99.04474    0.009747564
      5817.0000         0.2967         0.4811         0.5536      -159.7568      -100.4975              0
      5817.5000         0.2405         0.5208         0.5395      -159.7568      -100.4975              0
      5818.0000         0.2394         0.5356         0.5202      -158.6626      -99.40334    0.006088412
      5818.5000         0.1832         0.5906         0.5179      -145.3803      -86.12103      0.1416221
      5819.0000          0.182         0.6455         0.4979      -125.8359      -66.57664      0.3410546
      5819.5000         0.1809          0.645         0.4867      -122.4082      -63.14894      0.3760312
      5820.0000         0.1797         0.6444           0.52      -118.1763      -58.91704      0.4192139
      5820.5000         0.1787         0.6439         0.6206      -123.8531      -64.59384      0.3612873
      5821.0000         0.1983         0.5877          0.631      -129.1185      -69.85924      0.3075588
      5821.5000         0.2437         0.5872         0.6309      -126.9301      -67.67084      0.3298894
      5822.0000         0.2856          0.531         0.6086      -124.4911      -65.23184      0.3547771
      5822.5000         0.3241         0.5306         0.5975      -123.1003      -63.84105      0.3689689
      5823.0000         0.3384         0.4744         0.5863      -122.5532      -63.29394      0.3745516
      5823.5000         0.3676         0.4183         0.5751      -127.4772      -68.21794      0.3243067
      5824.0000         0.3913         0.3621         0.5751      -138.3443      -79.08504       0.213418
      5824.5000         0.3902         0.3061          0.575      -146.6261      -87.36684      0.1289098
      5825.0000         0.4442           0.25         0.5861      -147.7204      -88.46114      0.1177435
      5825.5000         0.4981         0.2494         0.6082      -146.6261      -87.36684      0.1289098
