#------------------------------------------------------------------------------
# Created by    : vladimir.rabinovich
# Created on    : 09/19/2023 17:20:53
#------------------------------------------------------------------------------
~Version Information Section
VERS.           2.0     :   CWLS log ASCII Standard - VERSION 2.0
WRAP.           NO      :   One line per depth step
~Well Information Section
#MNEM       .UNIT                                         VALUE :DESCRIPTION
#------------------------------------------------------------------------------
STRT        .FT                                             100 :START DEPTH
STOP        .FT                                           19050 :STOP DEPTH
STEP        .FT                                             0.5 :STEP      
NULL        .                                           -999.25 :NULL      
COMP        .                                    EXXON CO U S A :COMPANY   
WELL        .                                OSTERMEYER WILLIAM :WELL      
FLD         .                                         GALVESTON :FIELD     
LOC         .                                                   :LOCATION  
CNTY        .                                         GALVESTON :LOCATION  
STAT        .                                             TEXAS :STATE     
CTRY        .                                     UNITED STATES :COUNTRY   
SRVC        .                                                   :SERVICE COMPANY
DATE        .                             9/13/2023 11:19:11 AM :LOG DATE  
API         .                                    42167019160000 :API NUMBER
UWI         .                                    42167019160000 :UNIQUE WELL ID
XCOORD      .                                  1021218.85435247 :SURFACE X 
YCOORD      .                                  10604853.0341231 :SURFACE Y 
LAT         .                                          29.20756 :LATITUDE  
LON         .                                       -94.9413574 :LONGITUDE 
ELEV        .FT                                              26 :ELEVATION VALUE
ELEV_TYPE   .                                                KB :ELEVATION REFERENCE TYPE
~Curve Information Section
#MNEM       .UNIT                                      API CODE :CURVE DESCRIPTION
#------------------------------------------------------------------------------
DEPT        .FT                                                 :DEPTH     
ASN         .OHMM                                               :          
SP          .MV                                                 :          
SP_NORM     .MV                                                 :SP Normalized
VSH_SP      .V/V                                                :Volume of Shale from SP
~A        DEPTH            ASN             SP        SP_NORM         VSH_SP
# ...
      6407.0000         0.2393      -109.5187      -81.73131     0.09396241
      6407.5000         0.2367      -108.7024      -80.92214      0.1031575
      6408.0000         0.2342      -107.8849      -80.11178      0.1123662
      6408.5000         0.2317      -107.0674      -79.30141      0.1215749
      6409.0000         0.2292      -106.2512      -78.49234      0.1307689
      6409.5000         0.2269       -105.479      -77.72728      0.1394627
      6410.0000         0.2247      -104.7534      -77.00882      0.1476271
      6410.5000         0.2224      -104.0278      -76.29035      0.1557915
      6411.0000         0.2202      -103.3024      -75.57208      0.1639536
      6411.5000         0.2177      -102.6221      -74.89892      0.1716032
      6412.0000         0.2152      -101.9572      -74.24115      0.1790778
      6412.5000         0.2124      -101.2935      -73.58459      0.1865387
      6413.0000         0.2091      -100.6342      -72.93242      0.1939498
      6413.5000         0.2058       -99.9753      -72.28066      0.2013561
      6414.0000         0.2026       -99.7544      -72.06689      0.2037853
      6414.5000         0.1996        -99.546      -71.86562      0.2060725
      6415.0000         0.1967       -99.3041      -71.63086      0.2087402
      6415.5000         0.1948       -98.9915      -71.32539      0.2122114
      6416.0000          0.194       -98.5879      -70.92892      0.2167168
      6416.5000         0.1933       -98.0836      -70.43176      0.2223663
      6417.0000         0.1925       -97.6417      -69.99699      0.2273069
      6417.5000         0.1918       -97.2872      -69.64964      0.2312541
      6418.0000         0.1912       -96.9331      -69.30267       0.235197
      6418.5000         0.1911       -96.8329       -69.2096      0.2362545
      6419.0000          0.191       -96.9476      -69.33144        0.23487
      6419.5000         0.1908       -97.7036      -70.09457      0.2261981
      6420.0000         0.1907       -98.5726       -70.9707       0.216242
      6420.5000         0.1906        -99.123      -71.52824      0.2099063
      6421.0000         0.1908       -99.2219      -71.63428      0.2087014
      6421.5000          0.191       -99.1377      -71.55721      0.2095771
      6422.0000         0.1913       -98.1228      -70.54945       0.221029
      6422.5000         0.1915       -97.0713      -69.50507      0.2328969
      6423.0000         0.1912       -95.4044      -67.84531      0.2517578
      6423.5000         0.1906       -93.7375      -66.18555      0.2706188
      6424.0000           0.19       -91.8647      -64.31989      0.2918195
      6424.5000         0.1895       -89.7543      -62.21662      0.3157203
      6425.0000         0.1894       -87.5947      -60.06416        0.34018
      6425.5000         0.1892       -85.4106      -57.88718      0.3649184
      6426.0000         0.1907       -82.6016      -55.08532      0.3967577
      6426.5000         0.1924       -79.9958      -52.48665      0.4262881
      6427.0000         0.1947        -79.337      -51.83498      0.4336934
      6427.5000         0.1987       -79.7954      -52.30053      0.4284031
      6428.0000         0.2027       -80.4003      -52.91256      0.4214482
      6428.5000         0.2072       -82.5255      -55.04489      0.3972172
      6429.0000          0.212       -85.7146      -58.24113      0.3608963
      6429.5000         0.2199       -89.6758      -62.20946      0.3158016
      6430.0000         0.2327         -93.74      -66.28079      0.2695365
      6430.5000         0.2457       -96.7501      -69.29803      0.2352497
      6431.0000         0.2618       -98.8362      -71.39126       0.211463
      6431.5000         0.2779        -99.426       -71.9882      0.2046795
      6432.0000         0.2779       -99.6993      -72.26863      0.2014928
      6432.5000         0.2771       -99.9727      -72.54917      0.1983049
      6433.0000         0.2763      -100.2263      -72.80991       0.195342
      6433.5000         0.2756      -100.4631      -73.05383      0.1925701
      6434.0000         0.2748         -100.7      -73.29787       0.189797
      6434.5000         0.2752      -100.9098       -73.5148      0.1873318
      6435.0000         0.2756      -101.0942      -73.70634      0.1851552
      6435.5000          0.276      -100.6451      -73.26437      0.1901776
      6436.0000          0.277       -99.5898      -72.21621      0.2020885
      6436.5000         0.2781       -98.5616      -71.19514      0.2136915
      6437.0000         0.2792       -97.6448      -70.28548      0.2240287
      6437.5000         0.2808        -96.728      -69.37581      0.2343658
      6438.0000         0.2848       -95.8113      -68.46625      0.2447017
      6438.5000         0.2888        -94.913      -67.57508      0.2548286
      6439.0000         0.2991       -94.0906      -66.75981       0.264093
      6439.5000         0.3153       -93.2668      -65.94315      0.2733733
      6440.0000         0.3372       -92.3894      -65.07288      0.2832627
      6440.5000         0.3631       -90.8267      -63.51732      0.3009396
      6441.0000         0.3994        -89.264      -61.96175      0.3186164
      6441.5000         0.4569       -84.1802      -56.88509      0.3763058
      6442.0000         0.4849       -79.9738      -52.68582      0.4240248
      6442.5000         0.5036       -76.8435      -49.56266      0.4595153
      6443.0000         0.5198       -74.4634      -47.18969      0.4864807
      6443.5000         0.5359        -71.115      -43.84843      0.5244497
      6444.0000         0.5513       -67.6489      -40.38947       0.563756
      6444.5000         0.5667       -62.3248      -35.07249      0.6241762
      6445.0000         0.5822       -57.5008      -30.25563      0.6789133
      6445.5000         0.6001       -44.6464      -17.40837      0.8249049
      6446.0000         0.6216       -37.3123       -10.0814      0.9081659
      6446.5000         0.6419       -33.0226      -5.798832      0.9568315
      6447.0000         0.6619       -29.5762      -2.359568       0.995914
      6447.5000         0.6779       -28.2292      -1.019703              1
      6448.0000         0.6913       -27.9157     -0.7133369              1
      6448.5000         0.7017       -28.0817     -0.8864708              1
      6449.0000         0.7128       -28.2476      -1.059505              1
      6449.5000         0.7246       -28.4627       -1.28174              1
      6450.0000          0.731       -28.8408      -1.666975              1
      6450.5000         0.7374       -28.9321      -1.765409              1
      6451.0000         0.7422       -28.6533      -1.493744              1
      6451.5000         0.7416       -28.3083      -1.155878              1
      6452.0000         0.7409       -27.8597     -0.7144127              1
      6452.5000         0.7395       -27.4117     -0.2735462              1
      6453.0000         0.7359       -26.9975      0.1335182              1
      6453.5000         0.7323       -26.8969       0.226984              1
      6454.0000         0.7287       -26.7963      0.3204479              1
      6454.5000         0.7254       -27.0845     0.02511597              1
      6455.0000         0.7221       -27.5735     -0.4710197              1
      6455.5000         0.7191       -28.2219      -1.126554              1
      6456.0000         0.7183       -29.2881      -2.199888      0.9977285
      6456.5000         0.7175       -30.3544      -3.273323      0.9855304
      6457.0000         0.7194       -31.5028      -4.428858      0.9723994
      6457.5000         0.7222       -32.7174      -5.650591       0.958516
      6458.0000         0.7256       -33.9008      -6.841125      0.9449872
      6458.5000         0.7348         -34.35      -7.297461      0.9398016
      6459.0000         0.7445       -34.7991      -7.753695      0.9346171
      6459.5000         0.7564       -35.2753       -8.23703      0.9291247
