#------------------------------------------------------------------------------
# Created by    : vladimir.rabinovich
# Created on    : 09/19/2023 17:20:53
#------------------------------------------------------------------------------
~Version Information Section
VERS.           2.0     :   CWLS log ASCII Standard - VERSION 2.0
WRAP.           NO      :   One line per depth step
~Well Information Section
#MNEM       .UNIT                                         VALUE :DESCRIPTION
#------------------------------------------------------------------------------
STRT        .FT                                             100 :START DEPTH
STOP        .FT                                           19050 :STOP DEPTH
STEP        .FT                                             0.5 :STEP      
NULL        .                                           -999.25 :NULL      
COMP        .                                    EXXON CO U S A :COMPANY   
WELL        .                                OSTERMEYER WILLIAM :WELL      
FLD         .                                         GALVESTON :FIELD     
LOC         .                                                   :LOCATION  
CNTY        .                                         GALVESTON :LOCATION  
STAT        .                                             TEXAS :STATE     
CTRY        .                                     UNITED STATES :COUNTRY   
SRVC        .                                                   :SERVICE COMPANY
DATE        .                             9/13/2023 11:19:11 AM :LOG DATE  
API         .                                    42167019160000 :API NUMBER
UWI         .                                    42167019160000 :UNIQUE WELL ID
XCOORD      .                                  1021218.85435247 :SURFACE X 
YCOORD      .                                  10604853.0341231 :SURFACE Y 
LAT         .                                          29.20756 :LATITUDE  
LON         .                                       -94.9413574 :LONGITUDE 
ELEV        .FT                                              26 :ELEVATION VALUE
ELEV_TYPE   .                                                KB :ELEVATION REFERENCE TYPE
~Curve Information Section
#MNEM       .UNIT                                      API CODE :CURVE DESCRIPTION
#------------------------------------------------------------------------------
DEPT        .FT                                                 :DEPTH     
ASN         .OHMM                                               :          
SP          .MV                                                 :          
SP_NORM     .MV                                                 :SP Normalized
VSH_SP      .V/V                                                :Volume of Shale from SP
~A        DEPTH            ASN             SP        SP_NORM         VSH_SP
# ...
      5135.0000         0.7082       -29.3423      -0.829195              1
      5135.5000          0.704        -29.677      -1.166334      0.9975893
      5136.0000         0.6999        -30.139      -1.630775      0.9908583
      5136.5000         0.6998       -30.6004      -2.094618       0.984136
      5137.0000         0.7027       -31.1077      -2.604359      0.9767484
      5137.5000         0.7056        -31.801        -3.3001      0.9666652
      5138.0000         0.7071       -32.4936       -3.99514      0.9565922
      5138.5000         0.7073       -32.8168       -4.32078      0.9518728
      5139.0000         0.7075        -33.038       -4.54442      0.9486316
      5139.5000         0.7078       -33.2591      -4.767965      0.9453918
      5140.0000         0.7056       -33.4803      -4.991606      0.9421507
      5140.5000         0.7032       -33.7014      -5.215147      0.9389109
      5141.0000         0.7009       -33.7339      -5.250084      0.9384046
      5141.5000         0.6985       -33.5635      -5.082127      0.9408388
      5142.0000         0.6958       -33.3931      -4.914169      0.9432729
      5142.5000         0.6928       -33.2227      -4.746208      0.9457071
      5143.0000         0.6898       -32.8072      -4.333153      0.9516934
      5143.5000          0.688       -32.3394      -3.867794      0.9584377
      5144.0000         0.6867       -31.8716      -3.402431      0.9651821
      5144.5000         0.6853       -31.4038      -2.937073      0.9719265
      5145.0000          0.684       -31.0052      -2.540915      0.9776679
      5145.5000          0.684       -30.6659      -2.204056      0.9825499
      5146.0000         0.6852       -30.3269      -1.867498      0.9874275
      5146.5000         0.6864       -29.9876      -1.530638      0.9923096
      5147.0000         0.6877       -29.8014      -1.346878      0.9949728
      5147.5000         0.6892       -29.7442       -1.29212      0.9957664
      5148.0000         0.6938        -29.912      -1.462362      0.9932991
      5148.5000         0.6985       -30.0797      -1.632504      0.9908333
      5149.0000         0.7032       -30.2473      -1.802542       0.988369
      5149.5000         0.7063       -30.3985      -1.956184      0.9861423
      5150.0000         0.6745       -26.6386       1.801275              1
      5150.5000         0.6742       -26.7144       1.723034              1
      5151.0000         0.6739       -26.7901       1.644892              1
      5151.5000         0.6738       -26.8658        1.56675              1
      5152.0000         0.6743       -27.0528       1.377312              1
      5152.5000         0.6749       -27.3082       1.119469              1
      5153.0000         0.6755       -27.6428      0.7824287              1
      5153.5000         0.6749       -27.9712      0.4515858              1
      5154.0000          0.673       -28.2516       0.168745              1
      5154.5000          0.671       -28.4931    -0.07519341              1
      5155.0000         0.6691       -28.6101     -0.1946354              1
      5155.5000           0.67       -28.7272     -0.3141766              1
      5156.0000         0.6723       -28.8442     -0.4336185              1
      5156.5000         0.6745       -28.6989       -0.29076              1
      5157.0000         0.6767       -28.4042    0.001501083              1
      5157.5000         0.6789       -27.9896        0.41366              1
      5158.0000         0.6772       -27.5245       0.876318              1
      5158.5000         0.6736       -27.0584       1.339977              1
      5159.0000         0.6699       -26.5859       1.810036              1
      5159.5000         0.6701       -26.1135       2.279993              1
      5160.0000         0.6709       -25.6638       2.727255              1
      5160.5000         0.6717       -25.7911       2.597513              1
      5161.0000         0.6829       -25.9186       2.467571              1
      5161.5000         0.6964       -26.0459        2.33783              1
      5162.0000         0.7167       -26.4389       1.942389              1
      5162.5000         0.7447       -26.8902       1.488649              1
      5163.0000         0.7627       -27.3416       1.034807              1
      5163.5000         0.7553       -27.4389      0.9350662              1
      5164.0000         0.7447       -27.4687      0.9028244              1
      5164.5000         0.7337       -27.4986      0.8704834              1
      5165.0000         0.7227       -27.8627      0.5039425              1
      5165.5000         0.7204       -28.3141     0.05010223              1
      5166.0000         0.7182       -28.7103     -0.3485394              1
      5166.5000          0.716       -29.0626     -0.7032795              1
      5167.0000         0.7139        -29.403      -1.046122              1
      5167.5000         0.7142       -29.6604      -1.305964              1
      5168.0000          0.715       -29.8944      -1.542402              1
      5168.5000         0.7158         -29.72      -1.370443              1
      5169.0000         0.7168       -29.5458      -1.198685              1
      5169.5000         0.7179       -29.3338     -0.9891262              1
      5170.0000         0.7251        -29.109     -0.7667675              1
      5170.5000         0.7355       -28.8845     -0.5447083              1
      5171.0000         0.7513       -28.8624     -0.5250492              1
      5171.5000         0.7735       -28.9439     -0.6089897              1
      5172.0000         0.7994       -29.0254     -0.6929321              1
      5172.5000         0.8176       -29.2615     -0.9314728              1
      5173.0000         0.8365       -29.5906      -1.263014              1
      5173.5000         0.8546       -29.9196      -1.594454              1
      5174.0000         0.8689       -30.1416      -1.818895              1
      5174.5000         0.8842       -30.3636      -2.043337      0.9994779
      5175.0000         0.8902       -30.4515      -2.133678      0.9983894
      5175.5000         0.8801       -30.4299      -2.114519      0.9986203
      5176.0000         0.8699       -30.4083       -2.09536      0.9988511
      5176.5000         0.8567        -30.325      -2.014502      0.9998253
      5177.0000         0.8434       -30.1796      -1.871542              1
      5177.5000         0.8311       -30.0342      -1.728584              1
      5178.0000          0.819       -29.7395      -1.436325              1
      5178.5000          0.807       -29.4665      -1.165764              1
      5179.0000         0.7961        -30.026      -1.727705              1
      5179.5000         0.7942       -30.5849      -2.289047      0.9965175
      5180.0000         0.8113       -31.1977      -2.904289      0.9891049
      5180.5000         0.8284       -32.2909      -3.999931      0.9759045
      5181.0000         0.8383       -33.1826       -4.89407      0.9651317
      5181.5000         0.8265       -33.8517      -5.565611      0.9570408
      5182.0000         0.8148       -34.0068      -5.723154      0.9551427
      5182.5000         0.8046       -32.7272      -4.445993      0.9705302
      5183.0000         0.7964       -31.3484      -3.069635      0.9871128
      5183.5000         0.7881       -29.6252      -1.348877              1
      5184.0000         0.7801       -28.5258     -0.2519169              1
      5184.5000         0.7725       -27.7169      0.5545425              1
      5185.0000          0.765       -27.1255       1.143501              1
      5185.5000          0.761       -26.6763        1.59026              1
      5186.0000         0.7583       -26.2667       1.997417              1
      5186.5000         0.7557       -25.9391       2.322577              1
      5187.0000         0.7531       -25.6566       2.602636              1
      5187.5000         0.7505       -25.3668       2.889996              1
