#------------------------------------------------------------------------------
# Created by    : vladimir.rabinovich
# Created on    : 09/19/2023 17:20:53
#------------------------------------------------------------------------------
~Version Information Section
VERS.           2.0     :   CWLS log ASCII Standard - VERSION 2.0
WRAP.           NO      :   One line per depth step
~Well Information Section
#MNEM       .UNIT                                         VALUE :DESCRIPTION
#------------------------------------------------------------------------------
STRT        .FT                                             100 :START DEPTH
STOP        .FT                                           19050 :STOP DEPTH
STEP        .FT                                             0.5 :STEP      
NULL        .                                           -999.25 :NULL      
COMP        .                                    EXXON CO U S A :COMPANY   
WELL        .                                OSTERMEYER WILLIAM :WELL      
FLD         .                                         GALVESTON :FIELD     
LOC         .                                                   :LOCATION  
CNTY        .                                         GALVESTON :LOCATION  
STAT        .                                             TEXAS :STATE     
CTRY        .                                     UNITED STATES :COUNTRY   
SRVC        .                                                   :SERVICE COMPANY
DATE        .                             9/13/2023 11:19:11 AM :LOG DATE  
API         .                                    42167019160000 :API NUMBER
UWI         .                                    42167019160000 :UNIQUE WELL ID
XCOORD      .                                  1021218.85435247 :SURFACE X 
YCOORD      .                                  10604853.0341231 :SURFACE Y 
LAT         .                                          29.20756 :LATITUDE  
LON         .                                       -94.9413574 :LONGITUDE 
ELEV        .FT                                              26 :ELEVATION VALUE
ELEV_TYPE   .                                                KB :ELEVATION REFERENCE TYPE
~Curve Information Section
#MNEM       .UNIT                                      API CODE :CURVE DESCRIPTION
#------------------------------------------------------------------------------
DEPT        .FT                                                 :DEPTH     
ASN         .OHMM                                               :          
SP          .MV                                                 :          
SP_NORM     .MV                                                 :SP Normalized
VSH_SP      .V/V                                                :Volume of Shale from SP
~A        DEPTH            ASN             SP        SP_NORM         VSH_SP
# ...
     16477.0000         1.7759       -19.9162     -0.4040051              1
     16477.5000         1.8325       -19.9221     -0.4099045              1
     16478.0000         1.9124       -19.9279     -0.4157047              1
     16478.5000         1.9754        -19.944     -0.4318047              1
     16479.0000         2.0009       -19.9609     -0.4487038              1
     16479.5000         1.9182       -19.9779      -0.465704              1
     16480.0000         1.9321       -19.9948      -0.482605              1
     16480.5000         1.9466       -20.0117     -0.4995041              1
     16481.0000         1.9649       -20.0286     -0.5164051              1
     16481.5000         1.9834       -20.0455     -0.5333042              1
     16482.0000         2.0017       -20.0359     -0.5237045              1
     16482.5000         2.0161       -20.0214     -0.5092049              1
     16483.0000         2.3497       -20.0069     -0.4947052              1
     16483.5000         2.5368       -19.9924     -0.4802036              1
     16484.0000         2.6377       -19.9779      -0.465704              1
     16484.5000         2.4931       -19.9634     -0.4512043              1
     16485.0000          2.363       -19.9489     -0.4367046              1
     16485.5000         2.1411       -19.9389     -0.4267044              1
     16486.0000         2.0269       -19.9522     -0.4400043              1
     16486.5000         1.9997       -19.9656     -0.4534035              1
     16487.0000         1.6286        -19.979     -0.4668045              1
     16487.5000         1.5902       -19.9923     -0.4801044              1
     16488.0000         1.5717       -20.0057     -0.4935036              1
     16488.5000         1.5304       -20.0191     -0.5069046              1
     16489.0000          1.301       -20.0325     -0.5203037              1
     16489.5000         1.2296       -20.0458     -0.5336037              1
     16490.0000         1.1711       -20.0592     -0.5470047              1
     16490.5000         1.1401       -20.0726     -0.5604038              1
     16491.0000         1.1151       -20.0616     -0.5494041              1
     16491.5000         1.0905       -20.0416     -0.5294037              1
     16492.0000         1.0691       -20.0215      -0.509304              1
     16492.5000         1.0817       -20.0015     -0.4893036              1
     16493.0000         1.0976       -19.9815      -0.469305              1
     16493.5000         1.1178       -19.9615     -0.4493046              1
     16494.0000         1.1522       -19.9413     -0.4291039              1
     16494.5000         1.1954       -19.9213     -0.4091053              1
     16495.0000         1.2655       -19.9013     -0.3891048              1
     16495.5000         1.3493       -19.8919     -0.3797035              1
     16496.0000         1.3893       -19.8878     -0.3756046              1
     16496.5000         1.4169       -19.8838     -0.3716049              1
     16497.0000         1.4299       -19.8797     -0.3675041              1
     16497.5000         1.4203       -19.8756     -0.3634052              1
     16498.0000         1.4108       -19.8716     -0.3594036              1
     16498.5000         1.3925       -19.8675     -0.3553047              1
     16499.0000          1.373       -19.8634     -0.3512039              1
     16499.5000         1.3469        -19.849     -0.3368053              1
     16500.0000          1.319       -19.8318     -0.3196049              1
     16500.5000         1.2725       -19.8146     -0.3024044              1
     16501.0000         1.2406       -19.7974     -0.2852039              1
     16501.5000         1.2126       -19.7802     -0.2680035              1
     16502.0000         1.1859       -19.7629     -0.2507038              1
     16502.5000         1.1547       -19.7457     -0.2335052              1
     16503.0000         1.2113       -19.7285     -0.2163048              1
     16503.5000         1.3362       -19.7133     -0.2011051              1
     16504.0000         1.4307       -19.6986     -0.1864052              1
     16504.5000         1.9531       -19.6838     -0.1716042              1
     16505.0000         2.2113       -19.6691     -0.1569042              1
     16505.5000         2.4813       -19.6544     -0.1422043              1
     16506.0000         2.5255       -19.6397     -0.1275043              1
     16506.5000         2.1524        -19.625     -0.1128044              1
     16507.0000         2.0252       -19.6103    -0.09810448              1
     16507.5000         2.0211       -19.5956    -0.08340454              1
     16508.0000          2.017       -19.5808    -0.06860352              1
     16508.5000         2.0129       -19.5672    -0.05500412              1
     16509.0000         1.9391       -19.5537    -0.04150391              1
     16509.5000         1.8576       -19.5402    -0.02800369              1
     16510.0000          1.681       -19.5266     -0.0144043              1
     16510.5000         1.1623       -19.5131  -0.0009040833              1
     16511.0000         1.1458       -19.4995     0.01269531              1
     16511.5000         1.1532        -19.486     0.02619553              1
     16512.0000         1.1796       -19.4724     0.03979492              1
     16512.5000         1.1934       -19.4589     0.05329514              1
     16513.0000         1.2072       -19.4454     0.06679535              1
     16513.5000         1.2181       -19.4339     0.07829475              1
     16514.0000         1.2248        -19.427     0.08519554              1
     16514.5000         1.2286       -19.4201     0.09209633              1
     16515.0000         1.2259       -19.4131      0.0990963              1
     16515.5000         1.2185       -19.4062      0.1059952              1
     16516.0000         1.2094       -19.3993       0.112896              1
     16516.5000          1.198       -19.3923      0.1198959              1
     16517.0000         1.1867       -19.3854      0.1267948              1
     16517.5000         1.1593       -19.3784      0.1337948              1
     16518.0000         1.1384       -19.3715      0.1406956              1
     16518.5000          1.112       -19.3534      0.1587963              1
     16519.0000         1.0968       -19.3297      0.1824951              1
     16519.5000          1.104       -19.3061      0.2060947              1
     16520.0000         1.1112       -19.2824      0.2297955              1
     16520.5000         1.1185       -19.2588      0.2533951              1
     16521.0000         1.1275       -19.2351      0.2770958              1
     16521.5000         1.1372       -19.2115      0.3006954              1
     16522.0000         1.1343       -19.1879       0.324295              1
     16522.5000         1.1143       -19.1642      0.3479958              1
     16523.0000         1.0931       -19.1441      0.3680954              1
     16523.5000         1.0787        -19.137      0.3751965              1
     16524.0000         1.0744       -19.1299      0.3822956              1
     16524.5000         1.0814       -19.1227      0.3894958              1
     16525.0000         1.0903       -19.1156       0.396595              1
     16525.5000         1.1046       -19.1086       0.403595              1
     16526.0000         1.1189       -19.1014      0.4107952              1
     16526.5000         1.1332       -19.0943      0.4178963              1
     16527.0000         1.1475       -19.0872      0.4249954              1
     16527.5000         1.1616       -19.0801      0.4320965              1
     16528.0000         1.1757        -19.092      0.4201965              1
     16528.5000         1.1883       -19.1098      0.4023952              1
     16529.0000         1.2001       -19.1275      0.3846951              1
     16529.5000         1.2095       -19.1453      0.3668957              1
