#------------------------------------------------------------------------------
# Created by    : vladimir.rabinovich
# Created on    : 09/19/2023 17:20:53
#------------------------------------------------------------------------------
~Version Information Section
VERS.           2.0     :   CWLS log ASCII Standard - VERSION 2.0
WRAP.           NO      :   One line per depth step
~Well Information Section
#MNEM       .UNIT                                         VALUE :DESCRIPTION
#------------------------------------------------------------------------------
STRT        .FT                                             100 :START DEPTH
STOP        .FT                                           19050 :STOP DEPTH
STEP        .FT                                             0.5 :STEP      
NULL        .                                           -999.25 :NULL      
COMP        .                                    EXXON CO U S A :COMPANY   
WELL        .                                OSTERMEYER WILLIAM :WELL      
FLD         .                                         GALVESTON :FIELD     
LOC         .                                                   :LOCATION  
CNTY        .                                         GALVESTON :LOCATION  
STAT        .                                             TEXAS :STATE     
CTRY        .                                     UNITED STATES :COUNTRY   
SRVC        .                                                   :SERVICE COMPANY
DATE        .                             9/13/2023 11:19:11 AM :LOG DATE  
API         .                                    42167019160000 :API NUMBER
UWI         .                                    42167019160000 :UNIQUE WELL ID
XCOORD      .                                  1021218.85435247 :SURFACE X 
YCOORD      .                                  10604853.0341231 :SURFACE Y 
LAT         .                                          29.20756 :LATITUDE  
LON         .                                       -94.9413574 :LONGITUDE 
ELEV        .FT                                              26 :ELEVATION VALUE
ELEV_TYPE   .                                                KB :ELEVATION REFERENCE TYPE
~Curve Information Section
#MNEM       .UNIT                                      API CODE :CURVE DESCRIPTION
#------------------------------------------------------------------------------
DEPT        .FT                                                 :DEPTH     
ASN         .OHMM                                               :          
SP          .MV                                                 :          
SP_NORM     .MV                                                 :SP Normalized
VSH_SP      .V/V                                                :Volume of Shale from SP
~A        DEPTH            ASN             SP        SP_NORM         VSH_SP
# ...
     12714.0000         0.7488        -23.101      -1.632643              1
     12714.5000         0.7494       -23.0238      -1.556122              1
     12715.0000         0.7568       -22.9602        -1.4932              1
     12715.5000         0.7642       -22.9194      -1.453079              1
     12716.0000           0.77       -22.8786      -1.412958              1
     12716.5000         0.7753       -22.8379       -1.37294              1
     12717.0000         0.7807       -22.7971      -1.332819              1
     12717.5000         0.7856       -22.7563      -1.292698              1
     12718.0000          0.788       -22.7155      -1.252577              1
     12718.5000         0.7849       -22.6747      -1.212456              1
     12719.0000         0.7701       -22.6339      -1.172335              1
     12719.5000         0.7553       -22.5932      -1.132315              1
     12720.0000         0.7425       -22.5524      -1.092194              1
     12720.5000         0.7323       -22.5116      -1.052073              1
     12721.0000          0.742       -22.4708      -1.011951              1
     12721.5000         0.7544       -22.4549     -0.9967308              1
     12722.0000         0.7668       -22.4394     -0.9819107              1
     12722.5000         0.7793       -22.4238     -0.9669895              1
     12723.0000         0.7916       -22.4082     -0.9520683              1
     12723.5000         0.8035       -22.3927     -0.9372482              1
     12724.0000         0.8155       -22.3771      -0.922327              1
     12724.5000          0.831       -22.3519     -0.8978062              1
     12725.0000         0.8484       -22.3243     -0.8708858              1
     12725.5000         0.8691       -22.2967     -0.8439636              1
     12726.0000         0.8987       -22.2691     -0.8170433              1
     12726.5000         0.9428       -22.2415      -0.790123              1
     12727.0000         0.9733       -22.2139     -0.7632008              1
     12727.5000         0.9933       -22.1863     -0.7362823              1
     12728.0000         0.9306       -22.1588     -0.7094612              1
     12728.5000          0.851       -22.1473     -0.6986408              1
     12729.0000         0.8211        -22.157     -0.7090187              1
     12729.5000         0.7993       -22.1668     -0.7194977              1
     12730.0000         0.7834       -22.1766     -0.7299767              1
     12730.5000         0.7703       -22.1864     -0.7404556              1
     12731.0000         0.7586       -22.1681     -0.7228355              1
     12731.5000         0.7493       -22.0686     -0.6240139              1
     12732.0000         0.7399       -21.9691     -0.5251942              1
     12732.5000         0.7319       -21.8698     -0.4265728              1
     12733.0000         0.7266       -21.7704     -0.3278522              1
     12733.5000         0.7212       -21.6841     -0.2422314              1
     12734.0000          0.729       -21.6399     -0.1987114              1
     12734.5000         0.7487       -21.5956     -0.1550903              1
     12735.0000         0.7705       -21.5513     -0.1114693              1
     12735.5000         0.7881       -21.5071    -0.06794739              1
     12736.0000         0.8061       -21.4628    -0.02432632              1
     12736.5000         0.8261       -21.4208     0.01699448              1
     12737.0000         0.8444       -21.3817      0.0554142              1
     12737.5000         0.8606       -21.3425     0.09393501              1
     12738.0000         0.8749       -21.3032      0.1325569              1
     12738.5000          0.886        -21.264      0.1710758              1
     12739.0000         0.8854       -21.2248      0.2095966              1
     12739.5000         0.8799       -21.1872      0.2465172              1
     12740.0000         0.8744       -21.1745      0.2585392              1
     12740.5000         0.8443       -21.1618      0.2705593              1
     12741.0000         0.7718       -21.1491      0.2825813              1
     12741.5000         0.7621       -21.1365      0.2945023              1
     12742.0000         0.7583       -21.1238      0.3065224              1
     12742.5000         0.7522       -21.1112      0.3184433              1
     12743.0000         0.7441       -21.1016       0.327364              1
     12743.5000         0.7285        -21.126      0.3022861              1
     12744.0000         0.7145       -21.1504      0.2772045              1
     12744.5000         0.7036       -21.1747      0.2522259              1
     12745.0000         0.7183       -21.1991      0.2271461              1
     12745.5000          0.733       -21.2235      0.2020683              1
     12746.0000         0.7478       -21.3089      0.1159878              1
     12746.5000         0.7625       -21.4177    0.006509781              1
     12747.0000         0.7803       -21.5268     -0.1032696              1
     12747.5000         0.8003       -21.6603     -0.2374477              1
     12748.0000         0.8275       -21.8134     -0.3912277              1
     12748.5000         0.8551       -21.9665     -0.5450058              1
     12749.0000         0.8928       -22.1196     -0.6987858              1
     12749.5000         0.9275       -22.2724     -0.8522663              1
     12750.0000          0.959       -22.5328      -1.113346              1
     12750.5000         0.9942       -22.8506      -1.431824              1
     12751.0000         1.0333       -23.1684      -1.750303              1
     12751.5000         1.0727       -23.4587      -2.041283      0.9995309
     12752.0000         1.1169       -23.6976      -2.280861      0.9968084
     12752.5000         1.1857       -23.9366       -2.52054      0.9940848
     12753.0000         1.4199       -24.1077       -2.69232      0.9921327
     12753.5000         1.4486       -24.2367      -2.821999      0.9906591
     12754.0000         1.4725       -24.4176      -3.003578      0.9885957
     12754.5000         1.4964       -24.6232      -3.209856      0.9862517
     12755.0000         1.5215       -24.7824      -3.369738      0.9844348
     12755.5000         1.5467       -25.1003      -3.688316      0.9808146
     12756.0000         1.5825       -25.4819      -4.070595      0.9764705
     12756.5000          1.596       -25.3621      -3.951475      0.9778242
     12757.0000         1.4675        -25.242      -3.832054      0.9791812
     12757.5000         1.3833       -25.1219      -3.712633      0.9805382
     12758.0000         1.3198       -25.0018      -3.593212      0.9818953
     12758.5000         1.2587        -24.813       -3.40509       0.984033
     12759.0000         1.2043       -24.4879      -3.080669      0.9877197
     12759.5000         1.1714       -24.1627      -2.756149      0.9914074
     12760.0000         1.1427       -23.8376      -2.431728       0.995094
     12760.5000         1.0904       -23.5125      -2.107309      0.9987805
     12761.0000          1.073       -23.2154      -1.810888              1
     12761.5000         1.0812       -22.9575      -1.553667              1
     12762.0000         1.0925       -22.6996      -1.296446              1
     12762.5000         1.1078       -22.4411      -1.038624              1
     12763.0000          1.123       -22.1832     -0.7814045              1
     12763.5000         1.1422       -22.0328     -0.6316833              1
     12764.0000         1.1648       -21.9167     -0.5162621              1
     12764.5000         1.1492       -21.8009     -0.4011402              1
     12765.0000         1.1258       -21.6851     -0.2860203              1
     12765.5000          1.097       -21.5693     -0.1708984              1
     12766.0000         1.0734       -21.4535    -0.05578041              1
     12766.5000         1.0538       -21.3833     0.01374054              1
