#------------------------------------------------------------------------------
# Created by    : vladimir.rabinovich
# Created on    : 09/19/2023 17:20:53
#------------------------------------------------------------------------------
~Version Information Section
VERS.           2.0     :   CWLS log ASCII Standard - VERSION 2.0
WRAP.           NO      :   One line per depth step
~Well Information Section
#MNEM       .UNIT                                         VALUE :DESCRIPTION
#------------------------------------------------------------------------------
STRT        .FT                                             100 :START DEPTH
STOP        .FT                                           19050 :STOP DEPTH
STEP        .FT                                             0.5 :STEP      
NULL        .                                           -999.25 :NULL      
COMP        .                                    EXXON CO U S A :COMPANY   
WELL        .                                OSTERMEYER WILLIAM :WELL      
FLD         .                                         GALVESTON :FIELD     
LOC         .                                                   :LOCATION  
CNTY        .                                         GALVESTON :LOCATION  
STAT        .                                             TEXAS :STATE     
CTRY        .                                     UNITED STATES :COUNTRY   
SRVC        .                                                   :SERVICE COMPANY
DATE        .                             9/13/2023 11:19:11 AM :LOG DATE  
API         .                                    42167019160000 :API NUMBER
UWI         .                                    42167019160000 :UNIQUE WELL ID
XCOORD      .                                  1021218.85435247 :SURFACE X 
YCOORD      .                                  10604853.0341231 :SURFACE Y 
LAT         .                                          29.20756 :LATITUDE  
LON         .                                       -94.9413574 :LONGITUDE 
ELEV        .FT                                              26 :ELEVATION VALUE
ELEV_TYPE   .                                                KB :ELEVATION REFERENCE TYPE
~Curve Information Section
#MNEM       .UNIT                                      API CODE :CURVE DESCRIPTION
#------------------------------------------------------------------------------
DEPT        .FT                                                 :DEPTH     
ASN         .OHMM                                               :          
SP          .MV                                                 :          
SP_NORM     .MV                                                 :SP Normalized
VSH_SP      .V/V                                                :Volume of Shale from SP
~A        DEPTH            ASN             SP        SP_NORM         VSH_SP
       100.0000        -999.25       -55.7363      -9.394836      0.8783357
       100.5000        -999.25       -55.9019      -9.560436      0.8759357
       101.0000        -999.25       -56.0674      -9.725937      0.8735371
       101.5000        -999.25        -56.233      -9.891537      0.8711371
       102.0000        -999.25       -56.3986      -10.05714      0.8687372
       102.5000        -999.25       -56.5674      -10.22594      0.8662907
       103.0000        -999.25       -56.7717      -10.43024      0.8633299
       103.5000        -999.25       -56.9761      -10.63464      0.8603676
       104.0000        -999.25       -57.1805      -10.83904      0.8574053
       104.5000        -999.25       -57.3849      -11.04343       0.854443
       105.0000        -999.25       -57.5572      -11.21574      0.8519459
       105.5000        -999.25       -57.5988      -11.25734       0.851343
       106.0000        -999.25       -57.6405      -11.29903      0.8507386
       106.5000        -999.25       -57.6255      -11.28403       0.850956
       107.0000        -999.25        -57.577      -11.23553      0.8516589
       107.5000        -999.25       -57.5287      -11.18724      0.8523589
       108.0000        -999.25       -57.4803      -11.13884      0.8530604
       108.5000        -999.25       -57.4624      -11.12093      0.8533198
       109.0000        -999.25       -57.4606      -11.11914      0.8533459
       109.5000        -999.25       -57.4588      -11.11734      0.8533719
       110.0000        -999.25        -57.457      -11.11554       0.853398
       110.5000        -999.25       -57.4551      -11.11364      0.8534256
       111.0000        -999.25       -57.4534      -11.11193      0.8534502
       111.5000        -999.25       -57.4269      -11.08543      0.8538343
       112.0000        -999.25        -57.377      -11.03553      0.8545575
       112.5000        -999.25        -57.327      -10.98553      0.8552821
       113.0000        -999.25        -57.277      -10.93554      0.8560067
       113.5000        -999.25       -57.2272      -10.88573      0.8567285
       114.0000        -999.25       -57.2098      -10.86834      0.8569806
       114.5000        -999.25        -57.254      -10.91254      0.8563401
       115.0000        -999.25       -57.2983      -10.95684       0.855698
       115.5000        -999.25       -57.2274      -10.88594      0.8567256
       116.0000        -999.25       -57.1537      -10.81224      0.8577937
       116.5000        -999.25       -57.0394      -10.69793      0.8594502
       117.0000        -999.25       -56.7505      -10.40903      0.8636371
       117.5000        -999.25       -56.4616      -10.12014      0.8678241
       118.0000        -999.25       -55.8359      -9.494434      0.8768923
       118.5000        -999.25        -55.123      -8.781536      0.8872241
       119.0000        -999.25       -54.5767      -8.235233      0.8951415
       119.5000        -999.25       -54.0109      -7.669434      0.9033415
       120.0000        -999.25       -53.3868      -7.045334      0.9123865
       120.5000        -999.25       -52.8227      -6.481236      0.9205618
       121.0000        -999.25       -52.3523      -6.010834      0.9273793
       121.5000        -999.25       -52.0245      -5.683037      0.9321299
       122.0000        -999.25        -51.743      -5.401535      0.9362096
       122.5000        -999.25       -51.5202      -5.178734      0.9394386
       123.0000        -999.25       -51.4151      -5.073635      0.9409618
       123.5000        -999.25       -51.3101      -4.968636      0.9424835
       124.0000        -999.25        -51.205      -4.863537      0.9440067
       124.5000        -999.25       -51.2206      -4.879135      0.9437807
       125.0000        -999.25       -51.2437      -4.902233      0.9434459
       125.5000        -999.25       -51.2667      -4.925236      0.9431126
       126.0000        -999.25       -51.2898      -4.948334      0.9427778
       126.5000        -999.25       -51.3129      -4.971436       0.942443
       127.0000        -999.25        -51.336      -4.994534      0.9421082
       127.5000        -999.25       -51.3806      -5.039135      0.9414618
       128.0000        -999.25       -51.4555      -5.114037      0.9403763
       128.5000        -999.25       -51.5305      -5.189034      0.9392894
       129.0000        -999.25       -51.6053      -5.263836      0.9382053
       129.5000        -999.25       -51.6803      -5.338837      0.9371183
       130.0000        -999.25       -51.7518      -5.410336      0.9360821
       130.5000        -999.25       -51.8199      -5.478436      0.9350951
       131.0000        -999.25        -51.888      -5.546535      0.9341082
       131.5000        -999.25       -51.9873      -5.645836       0.932669
       132.0000        -999.25       -52.0984      -5.756935      0.9310589
       132.5000        -999.25       -52.2095      -5.868034      0.9294488
       133.0000        -999.25       -52.3207      -5.979237      0.9278371
       133.5000        -999.25       -52.4312      -6.089733      0.9262357
       134.0000        -999.25       -52.4422      -6.100735      0.9260763
       134.5000        -999.25       -52.4532      -6.111736      0.9259169
       135.0000        -999.25       -52.4642      -6.122734      0.9257575
       135.5000        -999.25       -52.4702      -6.128735      0.9256705
       136.0000        -999.25       -52.3735      -6.032036      0.9270719
       136.5000        -999.25       -52.2768      -5.935333      0.9284734
       137.0000        -999.25       -52.1801      -5.838634      0.9298748
       137.5000        -999.25       -52.0834      -5.741936      0.9312763
       138.0000        -999.25       -52.0448      -5.703335      0.9318357
       138.5000        -999.25       -52.0359      -5.694435      0.9319647
       139.0000        -999.25       -52.0271      -5.685635      0.9320922
       139.5000        -999.25       -52.0182      -5.676735      0.9322212
       140.0000        -999.25       -52.0101      -5.668636      0.9323386
       140.5000        -999.25       -52.0022      -5.660736      0.9324531
       141.0000        -999.25       -51.9943      -5.652836      0.9325676
       141.5000        -999.25       -51.9864      -5.644936      0.9326821
       142.0000        -999.25       -51.9552      -5.613735      0.9331343
       142.5000        -999.25       -51.9036      -5.562134      0.9338821
       143.0000        -999.25       -51.8521      -5.510635      0.9346285
       143.5000        -999.25       -51.8006      -5.459133      0.9353749
       144.0000        -999.25       -51.8978      -5.556335      0.9339662
       144.5000        -999.25       -52.0426      -5.701134      0.9318676
       145.0000        -999.25       -52.1873      -5.845837      0.9297705
       145.5000        -999.25       -52.2639      -5.922436      0.9286603
       146.0000        -999.25       -52.3248      -5.983334      0.9277778
       146.5000        -999.25       -52.3857      -6.044235      0.9268951
       147.0000        -999.25       -52.3396      -5.998135      0.9275633
       147.5000        -999.25       -52.2378      -5.896336      0.9290386
       148.0000        -999.25        -52.136      -5.794537       0.930514
       148.5000        -999.25       -51.9899      -5.648434      0.9326314
       149.0000        -999.25        -51.837      -5.495537      0.9348473
       149.5000        -999.25       -51.6992      -5.357735      0.9368444
       150.0000        -999.25       -51.5787      -5.237236      0.9385908
       150.5000        -999.25       -51.4521      -5.110634      0.9404256
       151.0000        -999.25       -51.3224      -4.980934      0.9423053
       151.5000        -999.25       -51.1927      -4.851234       0.944185
       152.0000        -999.25       -51.0844      -4.742935      0.9457546
       152.5000        -999.25       -50.9793      -4.637836      0.9472777
