#------------------------------------------------------------------------------
# Created by    : vladimir.rabinovich
# Created on    : 09/19/2023 17:20:53
#------------------------------------------------------------------------------
~Version Information Section
VERS.           2.0     :   CWLS log ASCII Standard - VERSION 2.0
WRAP.           NO      :   One line per depth step
~Well Information Section
#MNEM       .UNIT                                         VALUE :DESCRIPTION
#------------------------------------------------------------------------------
STRT        .FT                                             100 :START DEPTH
STOP        .FT                                           19050 :STOP DEPTH
STEP        .FT                                             0.5 :STEP      
NULL        .                                           -999.25 :NULL      
COMP        .                                    EXXON CO U S A :COMPANY   
WELL        .                                OSTERMEYER WILLIAM :WELL      
FLD         .                                         GALVESTON :FIELD     
LOC         .                                                   :LOCATION  
CNTY        .                                         GALVESTON :LOCATION  
STAT        .                                             TEXAS :STATE     
CTRY        .                                     UNITED STATES :COUNTRY   
SRVC        .                                                   :SERVICE COMPANY
DATE        .                             9/13/2023 11:19:11 AM :LOG DATE  
API         .                                    42167019160000 :API NUMBER
UWI         .                                    42167019160000 :UNIQUE WELL ID
XCOORD      .                                  1021218.85435247 :SURFACE X 
YCOORD      .                                  10604853.0341231 :SURFACE Y 
LAT         .                                          29.20756 :LATITUDE  
LON         .                                       -94.9413574 :LONGITUDE 
ELEV        .FT                                              26 :ELEVATION VALUE
ELEV_TYPE   .                                                KB :ELEVATION REFERENCE TYPE
~Curve Information Section
#MNEM       .UNIT                                      API CODE :CURVE DESCRIPTION
#------------------------------------------------------------------------------
DEPT        .FT                                                 :DEPTH     
ASN         .OHMM                                               :          
SP          .MV                                                 :          
SP_NORM     .MV                                                 :SP Normalized
VSH_SP      .V/V                                                :Volume of Shale from SP
~A        DEPTH            ASN             SP        SP_NORM         VSH_SP
# ...
     11442.0000         0.5518       -26.7591      -2.426161      0.9951572
     11442.5000          0.548       -26.7684      -2.436762      0.9950368
     11443.0000         0.5438       -26.7778       -2.44746      0.9949152
     11443.5000         0.5395       -26.7686       -2.43956       0.995005
     11444.0000         0.5353       -26.7341      -2.406359      0.9953823
     11444.5000          0.531       -26.6996      -2.373158      0.9957595
     11445.0000         0.5268        -26.665      -2.339859       0.996138
     11445.5000         0.5233       -26.6306      -2.306757      0.9965141
     11446.0000         0.5199        -26.596      -2.273457      0.9968925
     11446.5000         0.5165       -26.5615      -2.240255      0.9972698
     11447.0000          0.513       -26.5269      -2.206953      0.9976482
     11447.5000         0.5094       -26.5426      -2.223955      0.9974551
     11448.0000         0.5049       -26.5693      -2.251953      0.9971369
     11448.5000         0.5005        -26.596      -2.279953      0.9968187
     11449.0000         0.4961       -26.6228      -2.308052      0.9964994
     11449.5000         0.4916       -26.6495      -2.336052      0.9961812
     11450.0000          0.489       -26.6762      -2.364052       0.995863
     11450.5000         0.4868       -26.7029       -2.39205      0.9955449
     11451.0000         0.4846       -26.7296       -2.42005      0.9952267
     11451.5000         0.4824       -26.7563      -2.448048      0.9949086
     11452.0000         0.4832       -26.7831      -2.476149      0.9945892
     11452.5000         0.4842       -26.8098      -2.504147       0.994271
     11453.0000         0.4843       -26.8365      -2.532146      0.9939529
     11453.5000         0.4828       -26.8632      -2.560144      0.9936347
     11454.0000         0.4814       -26.8899      -2.588144      0.9933165
     11454.5000         0.4799       -26.9166      -2.616144      0.9929984
     11455.0000         0.4776       -26.9433      -2.644144      0.9926802
     11455.5000          0.475         -26.97      -2.672142       0.992362
     11456.0000         0.4728       -26.9967      -2.700142      0.9920439
     11456.5000         0.4708       -27.0872      -2.791943      0.9910007
     11457.0000         0.4691       -27.2008      -2.906841       0.989695
     11457.5000         0.4685       -27.3145      -3.021841      0.9883882
     11458.0000         0.4679       -27.4284      -3.137039      0.9870791
     11458.5000         0.4672        -27.542      -3.251938      0.9857734
     11459.0000         0.4684       -27.6556      -3.366838      0.9844677
     11459.5000          0.471       -27.7695      -3.482038      0.9831586
     11460.0000         0.4737       -27.8831      -3.596937       0.981853
     11460.5000         0.4773       -27.9967      -3.711836      0.9805473
     11461.0000         0.4813       -28.0266      -3.743034      0.9801928
     11461.5000         0.4852       -28.0371      -3.754835      0.9800587
     11462.0000         0.4892       -28.0475      -3.766535      0.9799258
     11462.5000         0.4937        -28.058      -3.778334      0.9797916
     11463.0000         0.4982       -28.0684      -3.790031      0.9796587
     11463.5000         0.5027       -28.0788      -3.801733      0.9795257
     11464.0000         0.5064       -28.0893      -3.813532      0.9793917
     11464.5000         0.5102       -28.0997      -3.825232      0.9792587
     11465.0000         0.5139       -28.1102       -3.83703      0.9791247
     11465.5000         0.5177         -28.11      -3.838129      0.9791121
     11466.0000         0.5216       -28.0825       -3.81193      0.9794099
     11466.5000         0.5256       -28.0549      -3.785627      0.9797088
     11467.0000         0.5295       -28.0273      -3.759327      0.9800076
     11467.5000         0.5331       -27.9997      -3.733027      0.9803065
     11468.0000         0.5357       -27.9722      -3.706825      0.9806042
     11468.5000         0.5384       -27.9446      -3.680525      0.9809031
     11469.0000         0.5408        -27.917      -3.654224       0.981202
     11469.5000         0.5431       -27.8894      -3.627924      0.9815009
     11470.0000         0.5453       -27.8713      -3.611122      0.9816918
     11470.5000         0.5433       -27.8571      -3.598221      0.9818384
     11471.0000         0.5404        -27.843      -3.585423      0.9819838
     11471.5000         0.5366       -27.8289       -3.57262      0.9821293
     11472.0000         0.5327       -27.8147      -3.559719      0.9822759
     11472.5000         0.5289       -27.8006      -3.546919      0.9824214
     11473.0000         0.5256       -27.7864      -3.534019       0.982568
     11473.5000         0.5227       -27.7656      -3.514519      0.9827896
     11474.0000         0.5213       -27.6863      -3.436518       0.983676
     11474.5000         0.5242       -27.6071      -3.358616      0.9845612
     11475.0000         0.5269       -27.5279      -3.280716      0.9854464
     11475.5000         0.5289       -27.4487      -3.202816      0.9863316
     11476.0000         0.5306       -27.3694      -3.124815       0.987218
     11476.5000         0.5304       -27.2902      -3.046913      0.9881033
     11477.0000         0.5303        -27.211      -2.969013      0.9889885
     11477.5000         0.5301       -27.1318      -2.891111      0.9898737
     11478.0000         0.5291        -27.055      -2.815613      0.9907317
     11478.5000         0.5269       -26.9841      -2.746012      0.9915226
     11479.0000         0.5235       -26.9132      -2.676411      0.9923135
     11479.5000           0.52       -26.8423       -2.60681      0.9931045
     11480.0000         0.5165       -26.7714       -2.53721      0.9938954
     11480.5000          0.512       -26.7005      -2.467609      0.9946862
     11481.0000          0.507       -26.6296      -2.398008      0.9954772
     11481.5000         0.5019       -26.5585      -2.328207      0.9962704
     11482.0000         0.5002       -26.4876      -2.258606      0.9970613
     11482.5000         0.5001       -26.4167      -2.189007      0.9978522
     11483.0000         0.5022       -26.3459      -2.119505       0.998642
     11483.5000         0.5051       -26.2833      -2.058205      0.9993386
     11484.0000         0.5079        -26.257      -2.033203      0.9996227
     11484.5000          0.511       -26.2306      -2.008102      0.9999079
     11485.0000         0.5147       -26.2042      -1.983004              1
     11485.5000         0.5185       -26.1778      -1.957901              1
     11486.0000         0.5229       -26.1515      -1.932901              1
     11486.5000         0.5274       -26.1251      -1.907799              1
     11487.0000         0.5319       -26.0987        -1.8827              1
     11487.5000         0.5374       -26.0724      -1.857698              1
     11488.0000          0.543       -26.0302      -1.816797              1
     11488.5000          0.549       -25.9659      -1.753798              1
     11489.0000         0.5549       -25.9019      -1.691095              1
     11489.5000         0.5596       -25.8376      -1.628098              1
     11490.0000         0.5606       -25.7736      -1.565395              1
     11490.5000         0.5596       -25.7093      -1.502394              1
     11491.0000         0.5519       -25.6452      -1.439594              1
     11491.5000         0.5481       -25.6221      -1.417793              1
     11492.0000          0.566       -25.6278      -1.424793              1
     11492.5000         0.5976       -25.6335      -1.431791              1
     11493.0000         0.6401       -25.6393       -1.43889              1
     11493.5000         0.6883        -25.645       -1.44589              1
     11494.0000         0.7273       -25.6507       -1.45289              1
     11494.5000         0.7303       -25.6564       -1.45989              1
