#------------------------------------------------------------------------------
# Created by    : vladimir.rabinovich
# Created on    : 09/19/2023 17:20:53
#------------------------------------------------------------------------------
~Version Information Section
VERS.           2.0     :   CWLS log ASCII Standard - VERSION 2.0
WRAP.           NO      :   One line per depth step
~Well Information Section
#MNEM       .UNIT                                         VALUE :DESCRIPTION
#------------------------------------------------------------------------------
STRT        .FT                                             100 :START DEPTH
STOP        .FT                                           19050 :STOP DEPTH
STEP        .FT                                             0.5 :STEP      
NULL        .                                           -999.25 :NULL      
COMP        .                                    EXXON CO U S A :COMPANY   
WELL        .                                OSTERMEYER WILLIAM :WELL      
FLD         .                                         GALVESTON :FIELD     
LOC         .                                                   :LOCATION  
CNTY        .                                         GALVESTON :LOCATION  
STAT        .                                             TEXAS :STATE     
CTRY        .                                     UNITED STATES :COUNTRY   
SRVC        .                                                   :SERVICE COMPANY
DATE        .                             9/13/2023 11:19:11 AM :LOG DATE  
API         .                                    42167019160000 :API NUMBER
UWI         .                                    42167019160000 :UNIQUE WELL ID
XCOORD      .                                  1021218.85435247 :SURFACE X 
YCOORD      .                                  10604853.0341231 :SURFACE Y 
LAT         .                                          29.20756 :LATITUDE  
LON         .                                       -94.9413574 :LONGITUDE 
ELEV        .FT                                              26 :ELEVATION VALUE
ELEV_TYPE   .                                                KB :ELEVATION REFERENCE TYPE
~Curve Information Section
#MNEM       .UNIT                                      API CODE :CURVE DESCRIPTION
#------------------------------------------------------------------------------
DEPT        .FT                                                 :DEPTH     
ASN         .OHMM                                               :          
SP          .MV                                                 :          
SP_NORM     .MV                                                 :SP Normalized
VSH_SP      .V/V                                                :Volume of Shale from SP
~A        DEPTH            ASN             SP        SP_NORM         VSH_SP
# ...
      7679.0000          1.429       -34.7292      -14.46016      0.8584073
      7679.5000         1.5259       -29.9588      -9.692974      0.9125798
      7680.0000         1.4443       -26.4091      -6.146484      0.9528809
      7680.5000         1.4296       -24.7587      -4.499296      0.9715989
      7681.0000         1.4149       -23.5271      -3.270906      0.9855579
      7681.5000         1.4303       -23.0315      -2.778519      0.9911532
      7682.0000         1.4479       -22.5865      -2.336729      0.9961736
      7682.5000         1.4702       -22.1416      -1.895041              1
      7683.0000         1.4937        -21.761      -1.517651              1
      7683.5000          1.532       -21.5832      -1.343063              1
      7684.0000         1.5483       -21.4049      -1.167973              1
      7684.5000         1.5644        -21.227     -0.9932842              1
      7685.0000         1.5621       -21.0488     -0.8182945              1
      7685.5000         1.5503       -20.8706     -0.6433067              1
      7686.0000         1.5392        -20.859     -0.6349163              1
      7686.5000         1.5342       -20.9089     -0.6880283              1
      7687.0000         1.5293       -20.9588     -0.7411385              1
      7687.5000         1.5287       -21.0086     -0.7941513              1
      7688.0000         1.5333       -21.0585     -0.8472614              1
      7688.5000         1.5247       -21.1861     -0.9780731              1
      7689.0000          1.513        -21.412      -1.207184              1
      7689.5000         1.4999       -21.6378      -1.436195              1
      7690.0000         1.4818       -21.8639      -1.665504              1
      7690.5000         1.4636       -22.0897      -1.894518              1
      7691.0000         1.4521       -22.3156      -2.123627      0.9985952
      7691.5000         1.4417        -22.497      -2.308239      0.9964973
      7692.0000         1.4334       -22.5997       -2.41415      0.9952937
      7692.5000         1.4254       -22.7024      -2.520061      0.9940902
      7693.0000         1.4183       -22.8051      -2.625971      0.9928867
      7693.5000         1.4135       -22.9077      -2.731783      0.9916843
      7694.0000         1.4086       -23.0104      -2.837694      0.9904807
      7694.5000         1.4069       -22.9784      -2.808905      0.9908079
      7695.0000         1.4152       -22.8807      -2.714415      0.9918817
      7695.5000         1.4235       -22.7831      -2.620028      0.9929543
      7696.0000         1.4318       -22.6856      -2.525738      0.9940257
      7696.5000         1.4368       -22.5879       -2.43125      0.9950994
      7697.0000         1.4405       -22.4749      -2.321459      0.9963471
      7697.5000         1.4453       -22.3357      -2.185471      0.9978924
      7698.0000         1.4538       -22.1965      -2.049482      0.9994377
      7698.5000         1.4623       -22.0572      -1.913393              1
      7699.0000         1.4719       -21.9181      -1.777504              1
      7699.5000         1.4835       -21.8046      -1.667215              1
      7700.0000         1.4943       -21.7196      -1.585426              1
      7700.5000         1.5126       -21.6348      -1.503838              1
      7701.0000         1.5366       -21.5498      -1.422049              1
      7701.5000         1.5243        -21.465       -1.34046              1
      7702.0000          1.512       -21.4591       -1.33777              1
      7702.5000         1.4923        -21.504      -1.385881              1
      7703.0000         1.4633        -21.549      -1.434092              1
      7703.5000         1.4451       -21.5939      -1.482204              1
      7704.0000         1.4335       -21.6402      -1.531713              1
      7704.5000         1.4499       -21.7874      -1.682125              1
      7705.0000         1.4664       -21.9345      -1.832436              1
      7705.5000         1.4828       -22.0818      -1.982948              1
      7706.0000         1.4992        -22.229      -2.133358      0.9984846
      7706.5000         1.5156       -22.3709      -2.278469      0.9968356
      7707.0000          1.532       -22.5057      -2.416479      0.9952673
      7707.5000         1.5484       -22.6403      -2.554293      0.9937012
      7708.0000         1.5649       -22.7748      -2.692001      0.9921364
      7708.5000          1.545       -22.7856      -2.706015      0.9919771
      7709.0000         1.4811       -22.7256      -2.649223      0.9926224
      7709.5000         1.4267       -22.6656      -2.592436      0.9932678
      7710.0000          1.381       -22.6056      -2.535646      0.9939131
      7710.5000         1.3202       -22.5292      -2.462458      0.9947448
      7711.0000         1.2798       -22.3984      -2.334867      0.9961947
      7711.5000         1.2585       -22.2777      -2.217381      0.9975297
      7712.0000         1.2377       -22.5505      -2.493391      0.9943933
      7712.5000         1.2169       -22.8325      -2.778603      0.9911522
      7713.0000         1.1941       -23.1459      -3.095213      0.9875544
      7713.5000         1.1702       -23.4593      -3.411823      0.9839566
      7714.0000          1.145       -23.6781      -3.633835      0.9814337
      7714.5000         1.1151       -23.8457      -3.804646      0.9794927
      7715.0000         1.0824       -24.0135      -3.975657      0.9775494
      7715.5000         1.0511       -24.6989      -4.664268      0.9697242
      7716.0000         1.0259        -25.651      -5.619577      0.9588684
      7716.5000         0.9951       -27.0243       -6.99609      0.9432263
      7717.0000         0.9803       -29.1043        -9.0793      0.9195534
      7717.5000         0.9736       -28.1241      -8.102312      0.9306555
      7718.0000         0.9707       -27.1439      -7.125322      0.9417577
      7718.5000         0.9711       -26.1637      -6.148335      0.9528598
      7719.0000         0.9715       -25.2568      -5.244644       0.963129
      7719.5000         0.9694       -24.3828      -4.373856      0.9730244
      7720.0000         0.9653       -23.5228      -3.517067      0.9827606
      7720.5000         0.9602       -22.9546      -2.952078      0.9891809
      7721.0000         0.9543       -22.3864      -2.387089      0.9956012
      7721.5000         0.9485       -22.0658        -2.0697       0.999208
      7722.0000         0.9437       -21.8973      -1.904411              1
      7722.5000         0.9392       -21.7357      -1.746023              1
      7723.0000         0.9375       -22.2069      -2.220432      0.9974951
      7723.5000         0.9374       -22.6781      -2.694845      0.9921041
      7724.0000         0.9372       -23.1242      -3.144156      0.9869983
      7724.5000         0.9475       -23.5551      -3.578266      0.9820651
      7725.0000         0.9597       -23.9867      -4.013077      0.9771242
      7725.5000         0.9802       -24.2619      -4.291489      0.9739603
      7726.0000         1.0636       -24.4572      -4.489998      0.9717045
      7726.5000         1.1783       -24.6528       -4.68881      0.9694453
      7727.0000         1.2394       -24.7525      -4.791721      0.9682759
      7727.5000         1.2573       -24.5965      -4.638933      0.9700121
      7728.0000         1.2457       -24.4406      -4.486242      0.9717472
      7728.5000         1.2342         -24.08      -4.128855      0.9758084
      7729.0000         1.2226       -23.4813      -3.533365      0.9825754
      7729.5000         1.2062       -22.8832      -2.938477      0.9893355
      7730.0000         1.1884       -22.2844      -2.342888      0.9961035
      7730.5000         1.1696       -21.8224      -1.884098              1
      7731.0000         1.1414       -21.4458       -1.51071              1
      7731.5000         1.1191       -21.0692      -1.137321              1
