#------------------------------------------------------------------------------
# Created by    : vladimir.rabinovich
# Created on    : 09/19/2023 17:20:53
#------------------------------------------------------------------------------
~Version Information Section
VERS.           2.0     :   CWLS log ASCII Standard - VERSION 2.0
WRAP.           NO      :   One line per depth step
~Well Information Section
#MNEM       .UNIT                                         VALUE :DESCRIPTION
#------------------------------------------------------------------------------
STRT        .FT                                             100 :START DEPTH
STOP        .FT                                           19050 :STOP DEPTH
STEP        .FT                                             0.5 :STEP      
NULL        .                                           -999.25 :NULL      
COMP        .                                    EXXON CO U S A :COMPANY   
WELL        .                                OSTERMEYER WILLIAM :WELL      
FLD         .                                         GALVESTON :FIELD     
LOC         .                                                   :LOCATION  
CNTY        .                                         GALVESTON :LOCATION  
STAT        .                                             TEXAS :STATE     
CTRY        .                                     UNITED STATES :COUNTRY   
SRVC        .                                                   :SERVICE COMPANY
DATE        .                             9/13/2023 11:19:11 AM :LOG DATE  
API         .                                    42167019160000 :API NUMBER
UWI         .                                    42167019160000 :UNIQUE WELL ID
XCOORD      .                                  1021218.85435247 :SURFACE X 
YCOORD      .                                  10604853.0341231 :SURFACE Y 
LAT         .                                          29.20756 :LATITUDE  
LON         .                                       -94.9413574 :LONGITUDE 
ELEV        .FT                                              26 :ELEVATION VALUE
ELEV_TYPE   .                                                KB :ELEVATION REFERENCE TYPE
~Curve Information Section
#MNEM       .UNIT                                      API CODE :CURVE DESCRIPTION
#------------------------------------------------------------------------------
DEPT        .FT                                                 :DEPTH     
ASN         .OHMM                                               :          
SP          .MV                                                 :          
SP_NORM     .MV                                                 :SP Normalized
VSH_SP      .V/V                                                :Volume of Shale from SP
~A        DEPTH            ASN             SP        SP_NORM         VSH_SP
# ...
     10170.0000         0.4467       -21.8304      -1.540012              1
     10170.5000         0.4474       -21.7806      -1.487045              1
     10171.0000          0.448       -21.7244      -1.427679              1
     10171.5000         0.4486       -21.6374      -1.337513              1
     10172.0000         0.4491       -21.5502      -1.247147              1
     10172.5000         0.4497       -21.4632      -1.156981              1
     10173.0000         0.4507       -21.3761      -1.066715              1
     10173.5000         0.4519       -21.3083     -0.9957485              1
     10174.0000         0.4518       -21.2585     -0.9427814              1
     10174.5000         0.4514       -21.2088     -0.8899155              1
     10175.0000         0.4502        -21.159     -0.8369503              1
     10175.5000         0.4486       -21.1092     -0.7839832              1
     10176.0000          0.447       -21.0748      -0.746418              1
     10176.5000         0.4454       -21.0479     -0.7163525              1
     10177.0000          0.443       -21.0209     -0.6861877              1
     10177.5000         0.4401       -20.9939     -0.6560211              1
     10178.0000         0.4372       -20.9833     -0.6422539              1
     10178.5000         0.4338        -20.993     -0.6487885              1
     10179.0000         0.4299       -21.0027      -0.655323              1
     10179.5000          0.426       -21.0124     -0.6618557              1
     10180.0000         0.4234       -21.0476     -0.6938896              1
     10180.5000          0.423       -21.1685     -0.8116245              1
     10181.0000         0.4226       -21.2895     -0.9294567              1
     10181.5000         0.4222       -21.4105      -1.047291              1
     10182.0000         0.4221       -21.5278      -1.161425              1
     10182.5000         0.4222       -21.5743       -1.20476              1
     10183.0000         0.4224       -21.6209      -1.248192              1
     10183.5000         0.4226       -21.6675      -1.291626              1
     10184.0000         0.4228        -21.714      -1.334961              1
     10184.5000         0.4224        -21.718      -1.335794              1
     10185.0000         0.4213       -21.6682      -1.282827              1
     10185.5000         0.4205       -21.6184      -1.229864              1
     10186.0000         0.4219       -21.5686      -1.176897              1
     10186.5000         0.4233       -21.5189      -1.124031              1
     10187.0000         0.4246       -21.4883      -1.090265              1
     10187.5000         0.4251       -21.4705        -1.0693              1
     10188.0000         0.4251       -21.4526      -1.048233              1
     10188.5000         0.4251       -21.4348      -1.027266              1
     10189.0000          0.425        -21.417        -1.0063              1
     10189.5000         0.4237       -21.4488      -1.034933              1
     10190.0000         0.4224       -21.4954      -1.078367              1
     10190.5000          0.421       -21.5419      -1.121702              1
     10191.0000         0.4192       -21.5184      -1.095036              1
     10191.5000         0.4172       -21.3735       -0.94697              1
     10192.0000         0.4153       -21.2289     -0.7992039              1
     10192.5000         0.4137       -21.0843     -0.6514359              1
     10193.0000         0.4123       -20.9682     -0.5321712              1
     10193.5000         0.4109       -20.9184     -0.4792042              1
     10194.0000         0.4102       -20.8687     -0.4263382              1
     10194.5000         0.4102       -20.8188     -0.3732738              1
     10195.0000         0.4102       -20.7691     -0.3204079              1
     10195.5000         0.4104       -20.7091     -0.2572422              1
     10196.0000         0.4114       -20.6373     -0.1822758              1
     10196.5000         0.4124       -20.5654     -0.1072083              1
     10197.0000         0.4134       -20.5446    -0.08324242              1
     10197.5000         0.4148       -20.5339    -0.06937599              1
     10198.0000         0.4162       -20.5232    -0.05550957              1
     10198.5000         0.4176       -20.5125    -0.04164505              1
     10199.0000         0.4187       -20.5017    -0.02767754              1
     10199.5000         0.4198       -20.5413    -0.06411171              1
     10200.0000         0.4201       -20.6548     -0.1744461              1
     10200.5000         0.4188       -20.7149     -0.2313786              1
     10201.0000         0.4176       -20.7607     -0.2740135              1
     10201.5000         0.4167       -20.8065     -0.3166466              1
     10202.0000         0.4158       -20.8512      -0.358181              1
     10202.5000         0.4149       -20.8597     -0.3635139              1
     10203.0000         0.4151       -20.8681     -0.3687477              1
     10203.5000         0.4154       -20.8766     -0.3740826              1
     10204.0000         0.4158        -20.885     -0.3793182              1
     10204.5000         0.4165       -20.8736     -0.3647518              1
     10205.0000         0.4172       -20.8592     -0.3471851              1
     10205.5000          0.418       -20.8447     -0.3295193              1
     10206.0000         0.4189       -20.8303     -0.3119526              1
     10206.5000         0.4198       -20.8158     -0.2942867              1
     10207.0000         0.4208       -20.8162     -0.2915211              1
     10207.5000         0.4218       -20.8228     -0.2949543              1
     10208.0000         0.4235       -20.8293     -0.2982883              1
     10208.5000         0.4252       -20.8359     -0.3017216              1
     10209.0000         0.4264       -20.8713     -0.3339558              1
     10209.5000         0.4275       -20.9171     -0.3765907              1
     10210.0000         0.4285       -20.9629     -0.4192238              1
     10210.5000         0.4291       -21.0086     -0.4617577              1
     10211.0000         0.4293       -21.0545     -0.5044918              1
     10211.5000         0.4294       -21.1002     -0.5470257              1
     10212.0000         0.4305        -21.146     -0.5896587              1
     10212.5000          0.432       -21.1917     -0.6321926              1
     10213.0000         0.4334       -21.2375     -0.6748276              1
     10213.5000         0.4354       -21.2605     -0.6946621              1
     10214.0000         0.4385       -21.2706     -0.7015953              1
     10214.5000         0.4416       -21.2807     -0.7085304              1
     10215.0000          0.445       -21.2909     -0.7155628              1
     10215.5000         0.4484       -21.3218     -0.7432976              1
     10216.0000         0.4505        -21.407     -0.8253307              1
     10216.5000         0.4518        -21.492     -0.9071655              1
     10217.0000         0.4493       -21.5772     -0.9891987              1
     10217.5000         0.4467       -21.6494      -1.058233              1
     10218.0000         0.4471       -21.6951      -1.100767              1
     10218.5000         0.4477       -21.7408      -1.143301              1
     10219.0000         0.4484       -21.7866      -1.185934              1
     10219.5000          0.449       -21.8324      -1.228567              1
     10220.0000         0.4498       -21.8781      -1.271101              1
     10220.5000         0.4506       -21.9239      -1.313736              1
     10221.0000         0.4514       -21.9697      -1.356369              1
     10221.5000         0.4511       -22.0154      -1.398903              1
     10222.0000         0.4507       -22.0612      -1.441538              1
     10222.5000         0.4503        -22.107      -1.484173              1
