#------------------------------------------------------------------------------
# Created by    : vladimir.rabinovich
# Created on    : 09/19/2023 17:20:53
#------------------------------------------------------------------------------
~Version Information Section
VERS.           2.0     :   CWLS log ASCII Standard - VERSION 2.0
WRAP.           NO      :   One line per depth step
~Well Information Section
#MNEM       .UNIT                                         VALUE :DESCRIPTION
#------------------------------------------------------------------------------
STRT        .FT                                             100 :START DEPTH
STOP        .FT                                           19050 :STOP DEPTH
STEP        .FT                                             0.5 :STEP      
NULL        .                                           -999.25 :NULL      
COMP        .                                    EXXON CO U S A :COMPANY   
WELL        .                                OSTERMEYER WILLIAM :WELL      
FLD         .                                         GALVESTON :FIELD     
LOC         .                                                   :LOCATION  
CNTY        .                                         GALVESTON :LOCATION  
STAT        .                                             TEXAS :STATE     
CTRY        .                                     UNITED STATES :COUNTRY   
SRVC        .                                                   :SERVICE COMPANY
DATE        .                             9/13/2023 11:19:11 AM :LOG DATE  
API         .                                    42167019160000 :API NUMBER
UWI         .                                    42167019160000 :UNIQUE WELL ID
XCOORD      .                                  1021218.85435247 :SURFACE X 
YCOORD      .                                  10604853.0341231 :SURFACE Y 
LAT         .                                          29.20756 :LATITUDE  
LON         .                                       -94.9413574 :LONGITUDE 
ELEV        .FT                                              26 :ELEVATION VALUE
ELEV_TYPE   .                                                KB :ELEVATION REFERENCE TYPE
~Curve Information Section
#MNEM       .UNIT                                      API CODE :CURVE DESCRIPTION
#------------------------------------------------------------------------------
DEPT        .FT                                                 :DEPTH     
ASN         .OHMM                                               :          
SP          .MV                                                 :          
SP_NORM     .MV                                                 :SP Normalized
VSH_SP      .V/V                                                :Volume of Shale from SP
~A        DEPTH            ASN             SP        SP_NORM         VSH_SP
# ...
      1372.0000         1.5202       -42.4811      -4.321156      0.9296619
      1372.5000         1.5526       -44.5835      -6.414478      0.8662279
      1373.0000         1.5747       -45.5707      -7.392597       0.836588
      1373.5000          1.593       -46.5701      -8.382915      0.8065783
      1374.0000          1.593        -47.609      -9.412735      0.7753717
      1374.5000         1.5818       -48.5366      -10.33125      0.7475378
      1375.0000         1.5695       -49.3226      -11.10817      0.7239947
      1375.5000         1.5572       -49.7856      -11.56209      0.7102396
      1376.0000         1.5378       -49.1592      -10.92661      0.7294967
      1376.5000          1.523         -48.39      -10.14833      0.7530809
      1377.0000         1.5084       -47.7823      -9.531551      0.7717712
      1377.5000         1.4956       -47.2589      -8.999069       0.787907
      1378.0000         1.4863       -46.7355      -8.466591      0.8040427
      1378.5000         1.4789       -46.2119      -7.933907      0.8201846
      1379.0000         1.4718       -45.6829      -7.395828        0.83649
      1379.5000          1.465       -45.1342      -6.838047      0.8533925
      1380.0000         1.4581       -44.5855      -6.280266       0.870295
      1380.5000         1.4508       -44.2587      -5.944386      0.8804731
      1381.0000         1.4484       -44.2681      -5.944706      0.8804635
      1381.5000         1.4498       -44.2776      -5.945122      0.8804508
      1382.0000         1.4533        -44.287      -5.945442      0.8804411
      1382.5000         1.4584       -44.2671      -5.916462      0.8813193
      1383.0000         1.4636       -44.2273       -5.86758      0.8828006
      1383.5000         1.4673       -44.1876      -5.818798      0.8842788
      1384.0000         1.4701        -44.105      -5.727119       0.887057
      1384.5000           1.47       -43.9573      -5.570335       0.891808
      1385.0000         1.4697        -43.718      -5.321957      0.8993347
      1385.5000         1.4599       -43.3358      -4.930676      0.9111916
      1386.0000         1.4494       -42.9536      -4.539398      0.9230486
      1386.5000         1.4399       -42.4701      -4.046814      0.9379753
      1387.0000          1.431       -41.9114      -3.479034      0.9551808
      1387.5000         1.4232       -41.0754      -2.633957      0.9807892
      1388.0000          1.418       -39.7342      -1.283672              1
      1388.5000         1.4188       -37.8563      0.6033058              1
      1389.0000          1.422       -36.6613       1.807388              1
      1389.5000         1.4252       -35.5732       2.904568              1
      1390.0000         1.4285       -34.5796       3.907249              1
      1390.5000         1.4316       -33.7109        4.78503              1
      1391.0000         1.4348       -33.1345       5.370514              1
      1391.5000         1.4377       -32.6069       5.907192              1
      1392.0000         1.4392       -32.1469       6.376274              1
      1392.5000         1.4408       -31.8599       6.672354              1
      1393.0000         1.4426       -31.8279       6.713436              1
      1393.5000         1.4451       -31.7959       6.754515              1
      1394.0000         1.4476       -31.7639       6.795597              1
      1394.5000         1.4552       -31.8202       6.748377              1
      1395.0000         1.4629       -31.9349       6.642759              1
      1395.5000         1.4727       -32.0496        6.53714              1
      1396.0000         1.4826       -32.2927        6.30312              1
      1396.5000         1.4924        -32.619       5.985901              1
      1397.0000         1.5044       -33.3419       5.272083              1
      1397.5000         1.5164       -34.3798       4.243263              1
      1398.0000         1.5321       -35.7976       2.834541              1
      1398.5000         1.5676       -38.4663      0.1749229              1
      1399.0000         1.6068        -41.337      -2.686699      0.9791909
      1399.5000         1.6289       -43.8001      -5.140713      0.9048269
      1400.0000          1.634       -45.5365      -6.868034      0.8524838
      1400.5000         1.6295       -47.0996      -8.422054      0.8053923
      1401.0000         1.6246       -48.5109      -9.824272      0.7629008
      1401.5000         1.6197        -50.009      -11.31329      0.7177791
      1402.0000         1.6149       -51.3948      -12.69001      0.6760603
      1402.5000         1.6101       -51.8324      -13.11853      0.6630749
      1403.0000         1.6135       -51.2668      -12.54385      0.6804894
      1403.5000         1.6169       -50.7012      -11.96917      0.6979041
      1404.0000         1.6203       -50.0139      -11.27279      0.7190064
      1404.5000         1.6237       -49.1642      -10.41401      0.7450302
      1405.0000          1.627       -48.2598      -9.500526      0.7727113
      1405.5000         1.6196       -47.2772      -8.508842      0.8027623
      1406.0000         1.6123       -46.2688      -7.491364       0.833595
      1406.5000         1.6043       -45.1472      -6.360683      0.8678581
      1407.0000         1.5962       -44.0258      -5.230202      0.9021151
      1407.5000         1.5952       -43.1049       -4.30022      0.9302964
      1408.0000         1.6024       -42.1924      -3.378643      0.9582229
      1408.5000         1.6101       -41.2885      -2.465664       0.985889
      1409.0000         1.6266       -41.4404      -2.608479      0.9815612
      1409.5000         1.6417       -42.7991      -3.958099      0.9406636
      1410.0000         1.6551       -44.6472      -5.797119      0.8849358
      1410.5000          1.664       -52.7723      -13.91314      0.6389958
      1411.0000          1.656       -56.1736      -17.30536      0.5362014
      1411.5000         1.6479       -61.6152      -22.73788      0.3715795
      1412.0000         1.6398       -63.6135      -24.72709      0.3113002
      1412.5000          1.631       -65.1049      -26.20941      0.2663815
      1413.0000         1.6134       -66.4937      -27.58913      0.2245718
      1413.5000         1.5982       -67.7439      -28.83025      0.1869621
      1414.0000         1.5771        -68.467      -29.54427       0.165325
      1414.5000         1.5561       -69.2498      -30.31799       0.141879
      1415.0000          1.534       -69.2096      -30.26871      0.1433724
      1415.5000         1.5214       -68.2384      -29.28843      0.1730778
      1416.0000         1.5128       -67.2672      -28.30814      0.2027835
      1416.5000         1.5047       -66.2961      -27.32796      0.2324859
      1417.0000         1.4977        -65.325      -26.34778      0.2621884
      1417.5000         1.4921       -64.3538       -25.3675      0.2918938
      1418.0000         1.4865       -63.0502      -24.05482       0.331672
      1418.5000         1.4921       -60.5274      -21.52295      0.4083956
      1419.0000         1.5336       -57.8174      -18.80386       0.490792
      1419.5000         1.5923       -55.6596      -16.63698      0.5564551
      1420.0000         1.6443       -53.4686       -14.4369      0.6231241
      1420.5000         1.6951       -50.3461      -11.30532      0.7180206
      1421.0000         1.7655       -44.3246      -5.274742      0.9007654
      1421.5000         1.8018       -42.1084      -3.049458      0.9681982
      1422.0000         1.8231       -41.5206      -2.452579      0.9862854
      1422.5000         1.8191       -41.8391      -2.761997      0.9769092
      1423.0000         1.7882       -42.9254      -3.839218      0.9442661
      1423.5000         1.7468       -43.8712      -4.775936      0.9158807
      1424.0000         1.6758       -44.0404      -4.936058      0.9110286
      1424.5000         1.6253       -44.1157      -5.002274       0.909022
