#------------------------------------------------------------------------------
# Created by    : vladimir.rabinovich
# Created on    : 09/19/2023 17:20:53
#------------------------------------------------------------------------------
~Version Information Section
VERS.           2.0     :   CWLS log ASCII Standard - VERSION 2.0
WRAP.           NO      :   One line per depth step
~Well Information Section
#MNEM       .UNIT                                         VALUE :DESCRIPTION
#------------------------------------------------------------------------------
STRT        .FT                                             100 :START DEPTH
STOP        .FT                                           19050 :STOP DEPTH
STEP        .FT                                             0.5 :STEP      
NULL        .                                           -999.25 :NULL      
COMP        .                                    EXXON CO U S A :COMPANY   
WELL        .                                OSTERMEYER WILLIAM :WELL      
FLD         .                                         GALVESTON :FIELD     
LOC         .                                                   :LOCATION  
CNTY        .                                         GALVESTON :LOCATION  
STAT        .                                             TEXAS :STATE     
CTRY        .                                     UNITED STATES :COUNTRY   
SRVC        .                                                   :SERVICE COMPANY
DATE        .                             9/13/2023 11:19:11 AM :LOG DATE  
API         .                                    42167019160000 :API NUMBER
UWI         .                                    42167019160000 :UNIQUE WELL ID
XCOORD      .                                  1021218.85435247 :SURFACE X 
YCOORD      .                                  10604853.0341231 :SURFACE Y 
LAT         .                                          29.20756 :LATITUDE  
LON         .                                       -94.9413574 :LONGITUDE 
ELEV        .FT                                              26 :ELEVATION VALUE
ELEV_TYPE   .                                                KB :ELEVATION REFERENCE TYPE
~Curve Information Section
#MNEM       .UNIT                                      API CODE :CURVE DESCRIPTION
#------------------------------------------------------------------------------
DEPT        .FT                                                 :DEPTH     
ASN         .OHMM                                               :          
SP          .MV                                                 :          
SP_NORM     .MV                                                 :SP Normalized
VSH_SP      .V/V                                                :Volume of Shale from SP
~A        DEPTH            ASN             SP        SP_NORM         VSH_SP
# ...
     19021.0000         2.0134       -22.6899      -3.177704      0.9755314
     19021.5000         2.0128       -22.6977      -3.185505      0.9754438
     19022.0000         2.0121       -22.7055      -3.193304      0.9753562
     19022.5000         2.0115       -22.7134      -3.201204      0.9752674
     19023.0000         2.0108        -22.758      -3.245804      0.9747663
     19023.5000         2.0101       -22.8259      -3.313704      0.9740033
     19024.0000         2.0093       -22.8937      -3.381504      0.9732415
     19024.5000         2.0085       -22.9616      -3.449404      0.9724786
     19025.0000         2.0077       -22.9873      -3.475105      0.9721898
     19025.5000         2.0069       -22.9952      -3.483004      0.9721011
     19026.0000         2.0061        -23.003      -3.490805      0.9720134
     19026.5000         2.0053       -23.0108      -3.498604      0.9719258
     19027.0000         2.0045       -23.0187      -3.506504       0.971837
     19027.5000         2.0038       -23.0265      -3.514305      0.9717494
     19028.0000         2.0033       -23.0344      -3.522205      0.9716606
     19028.5000         2.0028       -23.0422      -3.530005       0.971573
     19029.0000         2.0023         -23.05      -3.537804      0.9714854
     19029.5000         2.0019       -23.0578      -3.545605      0.9713977
     19030.0000         2.0014       -23.0657      -3.553505      0.9713089
     19030.5000         2.0012       -23.0735      -3.561304      0.9712213
     19031.0000         2.0013       -23.0813      -3.569105      0.9711336
     19031.5000         2.0014       -23.0891      -3.576904       0.971046
     19032.0000         2.0015        -23.097      -3.584805      0.9709573
     19032.5000         2.0017       -23.1048      -3.592604      0.9708696
     19033.0000         2.0023       -23.1126      -3.600405       0.970782
     19033.5000         2.0033       -23.1205      -3.608305      0.9706932
     19034.0000         2.0043       -23.1283      -3.616104      0.9706056
     19034.5000         2.0053       -23.1389      -3.626705      0.9704865
     19035.0000         2.0063       -23.1602      -3.648005      0.9702471
     19035.5000         2.0074       -23.1816      -3.669405      0.9700067
     19036.0000         2.0084       -23.2029      -3.690704      0.9697674
     19036.5000         2.0094       -23.2242      -3.712004       0.969528
     19037.0000         2.0096       -23.2456      -3.733404      0.9692876
     19037.5000         2.0096       -23.2614      -3.749205      0.9691101
     19038.0000         2.0097       -23.2692      -3.757004      0.9690225
     19038.5000         2.0098        -23.277      -3.764805      0.9689348
     19039.0000         2.0098       -23.2849      -3.772705       0.968846
     19039.5000         2.0099       -23.2927      -3.780504      0.9687584
     19040.0000         2.0103       -23.3005      -3.788305      0.9686707
     19040.5000         2.0109       -23.3004      -3.788204      0.9686719
     19041.0000         2.0114       -23.2953      -3.783104      0.9687292
     19041.5000          2.012       -23.2901      -3.777905      0.9687876
     19042.0000         2.0126       -23.2849      -3.772705       0.968846
     19042.5000         2.0131       -23.2797      -3.767504      0.9689044
     19043.0000         2.0134       -23.2745      -3.762304      0.9689628
     19043.5000         2.0134       -23.2769      -3.764704      0.9689359
     19044.0000         2.0135       -23.2848      -3.772604      0.9688472
     19044.5000         2.0135       -23.2926      -3.780405      0.9687595
     19045.0000         2.0136       -23.3004      -3.788204      0.9686719
     19045.5000         2.0136       -23.3083      -3.796104      0.9685831
     19046.0000         2.0145       -23.3161      -3.803904      0.9684955
     19046.5000         2.0161       -23.3239      -3.811705      0.9684078
     19047.0000         2.0176       -23.3318      -3.819605      0.9683191
     19047.5000         2.0192       -23.3396      -3.827404      0.9682314
     19048.0000         2.0208       -23.3474      -3.835205      0.9681438
     19048.5000         2.0223       -23.3579      -3.845705      0.9680258
     19049.0000         2.0238       -23.3784      -3.866205      0.9677954
     19049.5000         2.0253       -23.3988      -3.886604      0.9675663
     19050.0000         2.0268       -23.4193      -3.907104      0.9673359
