#------------------------------------------------------------------------------
# Created by    : vladimir.rabinovich
# Created on    : 09/19/2023 17:20:53
#------------------------------------------------------------------------------
~Version Information Section
VERS.           2.0     :   CWLS log ASCII Standard - VERSION 2.0
WRAP.           NO      :   One line per depth step
~Well Information Section
#MNEM       .UNIT                                         VALUE :DESCRIPTION
#------------------------------------------------------------------------------
STRT        .FT                                             100 :START DEPTH
STOP        .FT                                           19050 :STOP DEPTH
STEP        .FT                                             0.5 :STEP      
NULL        .                                           -999.25 :NULL      
COMP        .                                    EXXON CO U S A :COMPANY   
WELL        .                                OSTERMEYER WILLIAM :WELL      
FLD         .                                         GALVESTON :FIELD     
LOC         .                                                   :LOCATION  
CNTY        .                                         GALVESTON :LOCATION  
STAT        .                                             TEXAS :STATE     
CTRY        .                                     UNITED STATES :COUNTRY   
SRVC        .                                                   :SERVICE COMPANY
DATE        .                             9/13/2023 11:19:11 AM :LOG DATE  
API         .                                    42167019160000 :API NUMBER
UWI         .                                    42167019160000 :UNIQUE WELL ID
XCOORD      .                                  1021218.85435247 :SURFACE X 
YCOORD      .                                  10604853.0341231 :SURFACE Y 
LAT         .                                          29.20756 :LATITUDE  
LON         .                                       -94.9413574 :LONGITUDE 
ELEV        .FT                                              26 :ELEVATION VALUE
ELEV_TYPE   .                                                KB :ELEVATION REFERENCE TYPE
~Curve Information Section
#MNEM       .UNIT                                      API CODE :CURVE DESCRIPTION
#------------------------------------------------------------------------------
DEPT        .FT                                                 :DEPTH     
ASN         .OHMM                                               :          
SP          .MV                                                 :          
SP_NORM     .MV                                                 :SP Normalized
VSH_SP      .V/V                                                :Volume of Shale from SP
~A        DEPTH            ASN             SP        SP_NORM         VSH_SP
# ...
     17749.0000         0.7856       -20.4862     -0.9740047              1
     17749.5000         0.7792       -20.4877     -0.9755039              1
     17750.0000         0.7741       -20.4893     -0.9771042              1
     17750.5000         0.7701       -20.4908     -0.9786053              1
     17751.0000         0.7661       -20.4923     -0.9801044              1
     17751.5000          0.769       -20.4939     -0.9817047              1
     17752.0000         0.7742       -20.4954     -0.9832039              1
     17752.5000         0.7791       -20.4969      -0.984705              1
     17753.0000         0.7839       -20.4977     -0.9855042              1
     17753.5000         0.7887       -20.4983      -0.986105              1
     17754.0000         0.7935        -20.499      -0.986805              1
     17754.5000         0.7981       -20.4996     -0.9874039              1
     17755.0000         0.8017       -20.5002     -0.9880047              1
     17755.5000         0.8053       -20.5008     -0.9886036              1
     17756.0000          0.809       -20.5014     -0.9892044              1
     17756.5000         0.8126       -20.5021     -0.9899044              1
     17757.0000         0.8162       -20.5027     -0.9905052              1
     17757.5000         0.8193       -20.5033     -0.9911041              1
     17758.0000         0.8201       -20.4957     -0.9835052              1
     17758.5000         0.8209       -20.4816     -0.9694042              1
     17759.0000         0.8217       -20.4675     -0.9553051              1
     17759.5000         0.8219       -20.4534     -0.9412041              1
     17760.0000         0.8218       -20.4393     -0.9271049              1
     17760.5000         0.8217       -20.4251     -0.9129047              1
     17761.0000         0.8217        -20.411     -0.8988037              1
     17761.5000         0.8199       -20.3969     -0.8847046              1
     17762.0000          0.818       -20.3828     -0.8706036              1
     17762.5000         0.8161       -20.3687     -0.8565044              1
     17763.0000         0.8147       -20.3555     -0.8433037              1
     17763.5000         0.8139       -20.3637     -0.8515053              1
     17764.0000         0.8131        -20.372     -0.8598042              1
     17764.5000         0.8122       -20.3802     -0.8680038              1
     17765.0000         0.8114       -20.3884     -0.8762035              1
     17765.5000         0.8106       -20.3966     -0.8844051              1
     17766.0000           0.81       -20.4048     -0.8926048              1
     17766.5000         0.8103       -20.4131     -0.9009037              1
     17767.0000         0.8107       -20.4213     -0.9091053              1
     17767.5000          0.811       -20.4295      -0.917305              1
     17768.0000         0.8117       -20.4295      -0.917305              1
     17768.5000         0.8127       -20.4291     -0.9169044              1
     17769.0000         0.8138       -20.4287     -0.9165039              1
     17769.5000         0.8152       -20.4283     -0.9161053              1
     17770.0000         0.8168       -20.4279     -0.9157047              1
     17770.5000         0.8183       -20.4275     -0.9153042              1
     17771.0000         0.8211       -20.4271     -0.9149036              1
     17771.5000         0.8241       -20.4267      -0.914505              1
     17772.0000         0.8271       -20.4264     -0.9142036              1
     17772.5000         0.8363       -20.4125     -0.9003048              1
     17773.0000         0.8458       -20.3965      -0.884304              1
     17773.5000         0.8384       -20.3806     -0.8684044              1
     17774.0000          0.831       -20.3646     -0.8524036              1
     17774.5000         0.8248       -20.3486     -0.8364048              1
     17775.0000         0.8213       -20.3326     -0.8204041              1
     17775.5000         0.8178       -20.3167     -0.8045044              1
     17776.0000         0.8142       -20.3007     -0.7885036              1
     17776.5000         0.8102       -20.2847     -0.7725048              1
     17777.0000         0.8055         -20.27     -0.7578049              1
     17777.5000          0.794       -20.2617     -0.7495041              1
     17778.0000         0.7814       -20.2534     -0.7412052              1
     17778.5000         0.7684       -20.2452     -0.7330036              1
     17779.0000         0.7565       -20.2369     -0.7247047              1
     17779.5000         0.7449       -20.2287     -0.7165051              1
     17780.0000         0.7295       -20.2204     -0.7082043              1
     17780.5000         0.7149       -20.2122     -0.7000046              1
     17781.0000         0.7196       -20.2039     -0.6917038              1
     17781.5000         0.7433       -20.1956     -0.6834049              1
     17782.0000         0.7604       -20.1871     -0.6749039              1
     17782.5000         0.7772       -20.1785     -0.6663036              1
     17783.0000         0.7939       -20.1699     -0.6577053              1
     17783.5000         0.8033       -20.1613     -0.6491051              1
     17784.0000         0.8124       -20.1527     -0.6405048              1
     17784.5000         0.8211       -20.1441     -0.6319046              1
     17785.0000         0.8205       -20.1354     -0.6232052              1
     17785.5000           0.82       -20.1268     -0.6146049              1
     17786.0000         0.8194       -20.1182     -0.6060047              1
     17786.5000         0.8129       -20.1016     -0.5894051              1
     17787.0000         0.8049       -20.0705     -0.5583038              1
     17787.5000         0.7969       -20.0394     -0.5272045              1
     17788.0000         0.7888       -20.0083     -0.4961052              1
     17788.5000         0.7808       -19.9773     -0.4651051              1
     17789.0000         0.7728       -19.9462     -0.4340038              1
     17789.5000         0.7653       -19.9151     -0.4029045              1
     17790.0000          0.759        -19.884     -0.3718052              1
     17790.5000         0.7527       -19.8529      -0.340704              1
     17791.0000         0.7464       -19.8218     -0.3096046              1
     17791.5000         0.7413       -19.7906     -0.2784042              1
     17792.0000         0.7377       -19.7596     -0.2474041              1
     17792.5000         0.7359       -19.7335     -0.2213039              1
     17793.0000         0.7394       -19.7147     -0.2025051              1
     17793.5000         0.7427        -19.696     -0.1838036              1
     17794.0000         0.7459       -19.6772     -0.1650047              1
     17794.5000          0.749       -19.6584      -0.146204              1
     17795.0000         0.7503       -19.6396     -0.1274052              1
     17795.5000         0.7502       -19.6209     -0.1087036              1
     17796.0000         0.7502       -19.6021    -0.08990479              1
     17796.5000         0.7474       -19.5833    -0.07110405              1
     17797.0000         0.7435       -19.5598    -0.04760361              1
     17797.5000         0.7397       -19.5344    -0.02220535              1
     17798.0000         0.7358       -19.5089    0.003295898              1
     17798.5000          0.732       -19.4835     0.02869606              1
     17799.0000         0.7274         -19.46      0.0521965              1
     17799.5000         0.7212       -19.4679     0.04429626              1
     17800.0000          0.715       -19.4758     0.03639603              1
     17800.5000         0.7087       -19.4837     0.02849579              1
     17801.0000         0.7052       -19.4915     0.02069473              1
     17801.5000         0.7028       -19.4994      0.0127964              1
