#------------------------------------------------------------------------------
# Created by    : vladimir.rabinovich
# Created on    : 09/19/2023 17:20:53
#------------------------------------------------------------------------------
~Version Information Section
VERS.           2.0     :   CWLS log ASCII Standard - VERSION 2.0
WRAP.           NO      :   One line per depth step
~Well Information Section
#MNEM       .UNIT                                         VALUE :DESCRIPTION
#------------------------------------------------------------------------------
STRT        .FT                                             100 :START DEPTH
STOP        .FT                                           19050 :STOP DEPTH
STEP        .FT                                             0.5 :STEP      
NULL        .                                           -999.25 :NULL      
COMP        .                                    EXXON CO U S A :COMPANY   
WELL        .                                OSTERMEYER WILLIAM :WELL      
FLD         .                                         GALVESTON :FIELD     
LOC         .                                                   :LOCATION  
CNTY        .                                         GALVESTON :LOCATION  
STAT        .                                             TEXAS :STATE     
CTRY        .                                     UNITED STATES :COUNTRY   
SRVC        .                                                   :SERVICE COMPANY
DATE        .                             9/13/2023 11:19:11 AM :LOG DATE  
API         .                                    42167019160000 :API NUMBER
UWI         .                                    42167019160000 :UNIQUE WELL ID
XCOORD      .                                  1021218.85435247 :SURFACE X 
YCOORD      .                                  10604853.0341231 :SURFACE Y 
LAT         .                                          29.20756 :LATITUDE  
LON         .                                       -94.9413574 :LONGITUDE 
ELEV        .FT                                              26 :ELEVATION VALUE
ELEV_TYPE   .                                                KB :ELEVATION REFERENCE TYPE
~Curve Information Section
#MNEM       .UNIT                                      API CODE :CURVE DESCRIPTION
#------------------------------------------------------------------------------
DEPT        .FT                                                 :DEPTH     
ASN         .OHMM                                               :          
SP          .MV                                                 :          
SP_NORM     .MV                                                 :SP Normalized
VSH_SP      .V/V                                                :Volume of Shale from SP
~A        DEPTH            ASN             SP        SP_NORM         VSH_SP
# ...
      8951.0000         0.4801       -18.0581      -1.111729              1
      8951.5000          0.489       -18.1613      -1.208521              1
      8952.0000         0.5079       -18.2644      -1.305212              1
      8952.5000         0.5163       -18.3675      -1.401903              1
      8953.0000         0.5247       -18.3717      -1.399694              1
      8953.5000         0.5289       -18.3756      -1.397186              1
      8954.0000         0.5289       -18.3796      -1.394777              1
      8954.5000         0.5283       -18.3836      -1.392368              1
      8955.0000          0.527       -18.3208       -1.32316              1
      8955.5000         0.5257       -18.2413      -1.237251              1
      8956.0000         0.5244       -18.1616      -1.151142              1
      8956.5000         0.5185       -18.0821      -1.065231              1
      8957.0000         0.5118       -17.9541     -0.9308224              1
      8957.5000         0.5061       -17.8257     -0.7960148              1
      8958.0000          0.503       -17.6974     -0.6613045              1
      8958.5000         0.4999       -17.5885     -0.5459957              1
      8959.0000         0.4968       -17.5089     -0.4599876              1
      8959.5000         0.4941       -17.4294     -0.3740788              1
      8960.0000         0.4925       -17.3498     -0.2880707              1
      8960.5000          0.491       -17.3466     -0.2784615              1
      8961.0000         0.4897       -17.3946     -0.3214283              1
      8961.5000         0.4894       -17.4427     -0.3695278              1
      8962.0000          0.489       -17.4908     -0.4176292              1
      8962.5000         0.4887       -17.4948      -0.421629              1
      8963.0000         0.4883       -17.4988     -0.4256287              1
      8963.5000         0.4874       -17.5027     -0.4295292              1
      8964.0000         0.4863       -17.5067     -0.4335289              1
      8964.5000         0.4851       -17.6201     -0.5469284              1
      8965.0000         0.4831        -17.807     -0.7338276              1
      8965.5000          0.481       -17.9942     -0.9210281              1
      8966.0000         0.4789       -17.9987     -0.9255276              1
      8966.5000         0.4767       -18.0027     -0.9295292              1
      8967.0000         0.4745       -18.0066     -0.9334278              1
      8967.5000         0.4723       -18.0106     -0.9374275              1
      8968.0000           0.47       -18.0146     -0.9414291              1
      8968.5000         0.4696       -18.0185     -0.9453278              1
      8969.0000         0.4696       -18.0225     -0.9493275              1
      8969.5000         0.4696       -18.0265     -0.9533291              1
      8970.0000         0.4696       -17.9776     -0.9044285              1
      8970.5000         0.4718       -17.9155      -0.842329              1
      8971.0000         0.4746       -17.8534     -0.7802277              1
      8971.5000         0.4774       -17.7913     -0.7181282              1
      8972.0000         0.4806       -17.7291     -0.6559277              1
      8972.5000         0.4839       -17.6449     -0.5717278              1
      8973.0000         0.4869       -17.5607     -0.4875278              1
      8973.5000         0.4897       -17.4764     -0.4032288              1
      8974.0000         0.4926       -17.4559     -0.3827286              1
      8974.5000         0.4943        -17.532      -0.458828              1
      8975.0000         0.4956       -17.6082     -0.5350285              1
      8975.5000         0.4969       -17.6842     -0.6110287              1
      8976.0000         0.4983       -17.7603     -0.6871281              1
      8976.5000         0.4996       -17.7951     -0.7219276              1
      8977.0000         0.5009       -17.8296     -0.7564278              1
      8977.5000         0.5022        -17.864     -0.7908287              1
      8978.0000         0.5041       -17.8986      -0.825428              1
      8978.5000         0.5068        -17.933     -0.8598289              1
      8979.0000         0.5094       -17.9432     -0.8700275              1
      8979.5000          0.512       -17.9471     -0.8739281              1
      8980.0000         0.5091       -17.9511     -0.8779278              1
      8980.5000         0.5052       -17.9495     -0.8763275              1
      8981.0000         0.4992       -17.9251     -0.8519287              1
      8981.5000         0.4905       -17.9007      -0.827528              1
      8982.0000          0.487       -17.8763     -0.8031292              1
      8982.5000         0.4898        -17.852     -0.7788277              1
      8983.0000         0.4926       -17.8276     -0.7544289              1
      8983.5000         0.4955       -17.8202     -0.7470284              1
      8984.0000         0.4983       -17.8242     -0.7510281              1
      8984.5000         0.5016       -17.8281     -0.7549286              1
      8985.0000         0.5055       -17.8321     -0.7589283              1
      8985.5000         0.5094       -17.9549     -0.8817291              1
      8986.0000         0.5131       -18.1074      -1.034229              1
      8986.5000         0.5155       -18.2602      -1.187029              1
      8987.0000          0.518       -18.3716      -1.298428              1
      8987.5000         0.5204       -18.4549      -1.381729              1
      8988.0000         0.5223       -18.5383      -1.465128              1
      8988.5000         0.5242       -18.6216      -1.548428              1
      8989.0000         0.5261       -18.6046      -1.531429              1
      8989.5000          0.528       -18.5204      -1.447227              1
      8990.0000         0.5287       -18.4363      -1.363129              1
      8990.5000         0.5291        -18.352      -1.278828              1
      8991.0000         0.5294       -18.2569      -1.183729              1
      8991.5000         0.5298       -18.1618      -1.088629              1
      8992.0000         0.5301       -18.0666     -0.9934292              1
      8992.5000         0.5301       -18.0503      -0.977129              1
      8993.0000         0.5301       -18.0543     -0.9811287              1
      8993.5000         0.5302       -18.0583     -0.9851284              1
      8994.0000         0.5302       -18.0622     -0.9890289              1
      8994.5000         0.5302       -18.0662     -0.9930286              1
      8995.0000         0.5298       -18.0702     -0.9970284              1
      8995.5000         0.5293       -18.1092      -1.036028              1
      8996.0000         0.5288       -18.1573      -1.084129              1
      8996.5000         0.5282       -18.2053      -1.132128              1
      8997.0000         0.5275       -18.2447      -1.171528              1
      8997.5000         0.5267       -18.2487      -1.175528              1
      8998.0000          0.526       -18.2526      -1.179428              1
      8998.5000          0.525       -18.2566      -1.183428              1
      8999.0000         0.5236       -18.2606      -1.187428              1
      8999.5000         0.5222       -18.2646      -1.191429              1
      9000.0000         0.5208       -18.2128      -1.139627              1
      9000.5000         0.5194       -18.1237      -1.050528              1
      9001.0000         0.5181       -18.0344     -0.9612293              1
      9001.5000         0.5169       -17.9451     -0.8719292              1
      9002.0000         0.5157       -17.9402     -0.8670292              1
      9002.5000         0.5144       -17.9379     -0.8647289              1
      9003.0000         0.5132       -17.9503     -0.8771286              1
      9003.5000         0.5121        -17.986     -0.9128284              1
