#------------------------------------------------------------------------------
# Created by    : vladimir.rabinovich
# Created on    : 09/19/2023 17:20:53
#------------------------------------------------------------------------------
~Version Information Section
VERS.           2.0     :   CWLS log ASCII Standard - VERSION 2.0
WRAP.           NO      :   One line per depth step
~Well Information Section
#MNEM       .UNIT                                         VALUE :DESCRIPTION
#------------------------------------------------------------------------------
STRT        .FT                                             100 :START DEPTH
STOP        .FT                                           19050 :STOP DEPTH
STEP        .FT                                             0.5 :STEP      
NULL        .                                           -999.25 :NULL      
COMP        .                                    EXXON CO U S A :COMPANY   
WELL        .                                OSTERMEYER WILLIAM :WELL      
FLD         .                                         GALVESTON :FIELD     
LOC         .                                                   :LOCATION  
CNTY        .                                         GALVESTON :LOCATION  
STAT        .                                             TEXAS :STATE     
CTRY        .                                     UNITED STATES :COUNTRY   
SRVC        .                                                   :SERVICE COMPANY
DATE        .                             9/13/2023 11:19:11 AM :LOG DATE  
API         .                                    42167019160000 :API NUMBER
UWI         .                                    42167019160000 :UNIQUE WELL ID
XCOORD      .                                  1021218.85435247 :SURFACE X 
YCOORD      .                                  10604853.0341231 :SURFACE Y 
LAT         .                                          29.20756 :LATITUDE  
LON         .                                       -94.9413574 :LONGITUDE 
ELEV        .FT                                              26 :ELEVATION VALUE
ELEV_TYPE   .                                                KB :ELEVATION REFERENCE TYPE
~Curve Information Section
#MNEM       .UNIT                                      API CODE :CURVE DESCRIPTION
#------------------------------------------------------------------------------
DEPT        .FT                                                 :DEPTH     
ASN         .OHMM                                               :          
SP          .MV                                                 :          
SP_NORM     .MV                                                 :SP Normalized
VSH_SP      .V/V                                                :Volume of Shale from SP
~A        DEPTH            ASN             SP        SP_NORM         VSH_SP
# ...
     13986.0000         0.6899       -19.9518     -0.2113018              1
     13986.5000         0.7245       -19.9293     -0.1894817              1
     13987.0000          0.751       -19.9067     -0.1675625              1
     13987.5000         0.7786       -19.8842     -0.1457405              1
     13988.0000         0.8096       -19.8616     -0.1238213              1
     13988.5000         0.8281       -19.8391     -0.1019993              1
     13989.0000         0.8385       -19.8165    -0.08007813              1
     13989.5000         0.8181        -19.794    -0.05825806              1
     13990.0000         0.7814       -19.7715    -0.03643608              1
     13990.5000         0.7583       -19.7489    -0.01451492              1
     13991.0000         0.7647       -19.7263    0.007406235              1
     13991.5000          0.774       -19.7038      0.0292263              1
     13992.0000         0.7839       -19.6839     0.04844666              1
     13992.5000         0.7937       -19.6696     0.06206703              1
     13993.0000         0.8035       -19.6554     0.07558823              1
     13993.5000         0.8128       -19.6411      0.0892086              1
     13994.0000          0.822       -19.6268       0.102829              1
     13994.5000         0.8312       -19.6125      0.1164513              1
     13995.0000         0.8372       -19.5983      0.1299706              1
     13995.5000         0.8399        -19.584      0.1435928              1
     13996.0000         0.8225       -19.5698       0.157114              1
     13996.5000         0.8038       -19.5555      0.1707344              1
     13997.0000         0.7881       -19.5412      0.1843548              1
     13997.5000         0.7784       -19.5269      0.1979771              1
     13998.0000         0.7823       -19.5127      0.2114964              1
     13998.5000         0.7863       -19.4971      0.2264156              1
     13999.0000         0.7905       -19.4809      0.2419376              1
     13999.5000         0.7956       -19.4647      0.2574577              1
     14000.0000         0.8006       -19.4485      0.2729797              1
     14000.5000         0.8057       -19.4324      0.2884007              1
     14001.0000         0.8108       -19.4162      0.3039207              1
     14001.5000         0.8074       -19.4001      0.3193417              1
     14002.0000         0.8022       -19.3839      0.3348637              1
     14002.5000          0.797       -19.3677      0.3503838              1
     14003.0000         0.7889       -19.3515      0.3659058              1
     14003.5000         0.7777       -19.3354      0.3813248              1
     14004.0000         0.7664       -19.3221      0.3939457              1
     14004.5000         0.7502        -19.315      0.4003658              1
     14005.0000         0.7354        -19.308      0.4066868              1
     14005.5000          0.726       -19.3009      0.4131088              1
     14006.0000         0.7165       -19.2939      0.4194298              1
     14006.5000         0.7126       -19.2869      0.4257507              1
     14007.0000         0.7092       -19.2798      0.4321709              1
     14007.5000         0.7058       -19.2728      0.4384918              1
     14008.0000         0.7022       -19.2657      0.4449139              1
     14008.5000         0.6978       -19.2587      0.4512348              1
     14009.0000         0.6934       -19.2516       0.457653              1
     14009.5000         0.6879       -19.2446       0.463974              1
     14010.0000         0.6823       -19.2375       0.470396              1
     14010.5000          0.676       -19.2305       0.476717              1
     14011.0000         0.6687       -19.2273      0.4792366              1
     14011.5000          0.667       -19.2308      0.4750576              1
     14012.0000         0.6717       -19.2344      0.4707794              1
     14012.5000         0.6758       -19.2379      0.4666004              1
     14013.0000         0.6772       -19.2415      0.4623203              1
     14013.5000          0.678        -19.245      0.4581413              1
     14014.0000         0.6763       -19.2485      0.4539623              1
     14014.5000         0.6747       -19.2521      0.4496822              1
     14015.0000         0.6724       -19.2556      0.4455032              1
     14015.5000         0.6675       -19.2592      0.4412251              1
     14016.0000         0.6622       -19.2627      0.4370461              1
     14016.5000         0.6555       -19.2663       0.432766              1
     14017.0000         0.6488       -19.2698       0.428587              1
     14017.5000         0.6555       -19.2735      0.4242077              1
     14018.0000          0.664       -19.2773      0.4197292              1
     14018.5000         0.6726        -19.281        0.41535              1
     14019.0000         0.6811       -19.2847      0.4109707              1
     14019.5000          0.687       -19.2885      0.4064922              1
     14020.0000          0.692       -19.2922      0.4021111              1
     14020.5000          0.697       -19.2959      0.3977318              1
     14021.0000         0.7019       -19.2997      0.3932533              1
     14021.5000         0.7064       -19.3034      0.3888741              1
     14022.0000         0.7108       -19.3071      0.3844948              1
     14022.5000         0.7153       -19.3109      0.3800163              1
     14023.0000         0.7198       -19.3146      0.3756371              1
     14023.5000         0.7242       -19.3183      0.3712578              1
     14024.0000         0.7271       -19.3273      0.3615799              1
     14024.5000         0.7298        -19.337      0.3512001              1
     14025.0000         0.7326       -19.3468      0.3407211              1
     14025.5000         0.7347       -19.3566      0.3302402              1
     14026.0000         0.7365       -19.3664      0.3197613              1
     14026.5000         0.7383       -19.3762      0.3092823              1
     14027.0000         0.7427       -19.3859      0.2989025              1
     14027.5000         0.7497       -19.3957      0.2884235              1
     14028.0000         0.7566       -19.4055      0.2779446              1
     14028.5000         0.7658       -19.4153      0.2674656              1
     14029.0000         0.7779        -19.425      0.2570877              1
     14029.5000           0.79       -19.4348      0.2466087              1
     14030.0000         0.8022       -19.4446      0.2361298              1
     14030.5000         0.8111       -19.4628      0.2172508              1
     14031.0000         0.8195       -19.4817      0.1976681              1
     14031.5000          0.828       -19.5006      0.1780891              1
     14032.0000         0.8311       -19.5195      0.1585102              1
     14032.5000         0.8328       -19.5385      0.1388321              1
     14033.0000         0.8344       -19.5574      0.1192532              1
     14033.5000         0.8368       -19.5763     0.09967422              1
     14034.0000         0.8452       -19.5952     0.08009529              1
     14034.5000         0.8615       -19.6136     0.06101608              1
     14035.0000         0.8788       -19.6313     0.04263687              1
     14035.5000         0.8976        -19.649     0.02425766              1
     14036.0000         0.9155       -19.6666    0.005979538              1
     14036.5000         0.9313       -19.6842     -0.0123024              1
     14037.0000         0.9361       -19.7018    -0.03058052              1
     14037.5000         0.9406       -19.7195    -0.04895973              1
     14038.0000         0.9458       -19.7372    -0.06733894              1
     14038.5000          0.952       -19.7548    -0.08561897              1
