#------------------------------------------------------------------------------
# Created by    : vladimir.rabinovich
# Created on    : 09/19/2023 17:20:53
#------------------------------------------------------------------------------
~Version Information Section
VERS.           2.0     :   CWLS log ASCII Standard - VERSION 2.0
WRAP.           NO      :   One line per depth step
~Well Information Section
#MNEM       .UNIT                                         VALUE :DESCRIPTION
#------------------------------------------------------------------------------
STRT        .FT                                             100 :START DEPTH
STOP        .FT                                           19050 :STOP DEPTH
STEP        .FT                                             0.5 :STEP      
NULL        .                                           -999.25 :NULL      
COMP        .                                    EXXON CO U S A :COMPANY   
WELL        .                                OSTERMEYER WILLIAM :WELL      
FLD         .                                         GALVESTON :FIELD     
LOC         .                                                   :LOCATION  
CNTY        .                                         GALVESTON :LOCATION  
STAT        .                                             TEXAS :STATE     
CTRY        .                                     UNITED STATES :COUNTRY   
SRVC        .                                                   :SERVICE COMPANY
DATE        .                             9/13/2023 11:19:11 AM :LOG DATE  
API         .                                    42167019160000 :API NUMBER
UWI         .                                    42167019160000 :UNIQUE WELL ID
XCOORD      .                                  1021218.85435247 :SURFACE X 
YCOORD      .                                  10604853.0341231 :SURFACE Y 
LAT         .                                          29.20756 :LATITUDE  
LON         .                                       -94.9413574 :LONGITUDE 
ELEV        .FT                                              26 :ELEVATION VALUE
ELEV_TYPE   .                                                KB :ELEVATION REFERENCE TYPE
~Curve Information Section
#MNEM       .UNIT                                      API CODE :CURVE DESCRIPTION
#------------------------------------------------------------------------------
DEPT        .FT                                                 :DEPTH     
ASN         .OHMM                                               :          
SP          .MV                                                 :          
SP_NORM     .MV                                                 :SP Normalized
VSH_SP      .V/V                                                :Volume of Shale from SP
~A        DEPTH            ASN             SP        SP_NORM         VSH_SP
# ...
      3863.0000         0.6806       -75.8201      -42.69065      0.3957877
      3863.5000         0.6834       -75.0443      -41.91782      0.4069881
      3864.0000         0.6862        -74.408       -41.2845      0.4161667
      3864.5000         0.6889        -74.589      -41.46847      0.4135004
      3865.0000         0.6916        -74.449      -41.33145      0.4154863
      3865.5000         0.6943       -73.6316      -40.51702      0.4272895
      3866.0000          0.697       -72.8143       -39.7027      0.4390913
      3866.5000         0.6996       -71.5399      -38.43128      0.4575177
      3867.0000         0.7022        -70.068      -36.96235      0.4788065
      3867.5000         0.7048       -68.6437      -35.54103      0.4994054
      3868.0000         0.7073       -67.1742       -34.0745      0.5206593
      3868.5000         0.7099        -65.668      -32.57128      0.5424452
      3869.0000         0.7124       -64.4016      -31.30786      0.5607557
      3869.5000          0.715        -63.238      -30.14723      0.5775764
      3870.0000         0.7175        -62.078      -28.99021      0.5943448
      3870.5000           0.72        -61.093      -28.00818      0.6085771
      3871.0000          0.724        -60.108      -27.02616      0.6228092
      3871.5000          0.728       -62.1881      -29.10923      0.5926198
      3872.0000         0.7321       -64.3441      -31.26821      0.5613303
      3872.5000         0.7412       -79.6058      -46.53288      0.3401031
      3873.0000         0.7531       -85.2587      -52.18876      0.2581339
      3873.5000         0.7709       -87.6924      -54.62543      0.2228198
      3874.0000         0.7873       -90.1641      -57.10011      0.1869549
      3874.5000         0.8029       -92.6823      -59.62128      0.1504162
      3875.0000         0.8197       -94.5402      -61.48216      0.1234469
      3875.5000         0.8426       -95.7002      -62.64514      0.1065921
      3876.0000         0.8654       -96.8295      -63.77741     0.09018243
      3876.5000         0.8833       -97.8922      -64.84309     0.07473788
      3877.0000         0.8983       -98.9542      -65.90807      0.0593034
      3877.5000         0.9133       -99.5951      -66.55194     0.04997187
      3878.0000         0.9266      -100.2069      -67.16672     0.04106206
      3878.5000         0.9397      -100.7462      -67.70899     0.03320301
      3879.0000         0.9516      -101.1451      -68.11087     0.02737869
      3879.5000         0.9621      -100.5039      -67.47264     0.03662839
      3880.0000         0.9726       -99.4939      -66.46561     0.05122298
      3880.5000         0.9831       -98.4838       -65.4585      0.0658189
      3881.0000          0.993       -97.4603      -64.43797     0.08060919
      3881.5000         1.0027       -96.1559      -63.13654     0.09947038
      3882.0000         1.0124       -94.8516      -61.83522      0.1183301
      3882.5000         1.0195       -93.7205      -60.70709      0.1346798
      3883.0000         1.0265        -92.822      -59.81157      0.1476584
      3883.5000         1.0225       -92.2799      -59.27245      0.1554718
      3884.0000         1.0071       -91.7379      -58.73342      0.1632838
      3884.5000         0.9916       -90.8285        -57.827      0.1764203
      3885.0000         0.9788       -89.5382      -56.53967      0.1950772
      3885.5000         0.9693       -88.2479      -55.25235      0.2137341
      3886.0000         0.9621       -86.9576      -53.96503      0.2323909
      3886.5000         0.9529       -85.6674       -52.6778      0.2510464
      3887.0000         0.9422       -83.5751      -50.58848      0.2813264
      3887.5000         0.9323       -80.8074      -47.82375      0.3213949
      3888.0000         0.9224       -77.0803      -44.09962      0.3753678
      3888.5000         0.9104       -73.1208       -40.1431      0.4327087
      3889.0000         0.9211       -68.7135      -35.73878      0.4965394
      3889.5000         0.9798       -58.1198      -25.14806      0.6500282
      3890.0000         1.0272       -50.8027      -17.83393        0.75603
      3890.5000         1.0719       -46.9166      -13.95081      0.8123072
      3891.0000          1.107       -42.6806      -9.717781      0.8736553
      3891.5000         1.1272       -38.1778      -5.217957      0.9388702
      3892.0000         1.1462       -34.8754      -1.918533      0.9866879
      3892.5000         1.1622       -32.6497      0.3041916              1
      3893.0000         1.1703       -31.0606       1.890316              1
      3893.5000         1.1785       -30.4913        2.45664              1
      3894.0000         1.1851       -30.2778       2.667166              1
      3894.5000         1.1883       -30.4085       2.533489              1
      3895.0000         1.1852       -30.5393       2.399714              1
      3895.5000         1.1811       -30.6701        2.26594              1
      3896.0000         1.1769       -30.7521       2.180964              1
      3896.5000         1.1708       -30.8118       2.118288              1
      3897.0000         1.1647       -30.8714       2.055712              1
      3897.5000         1.1586       -30.6599       2.264236              1
      3898.0000         1.1524       -30.3111       2.610062              1
      3898.5000         1.1461       -29.9648       2.953386              1
      3899.0000         1.1398       -29.6914        3.22381              1
      3899.5000         1.1387       -29.4181       3.494135              1
      3900.0000         1.1379        -29.549        3.36026              1
      3900.5000         1.1403       -29.7815       3.124784              1
      3901.0000         1.1465        -30.023       2.880308              1
      3901.5000         1.1527       -30.5604       2.339933              1
      3902.0000         1.1595       -31.0979       1.799458              1
      3902.5000         1.1686       -31.6353       1.259083              1
      3903.0000         1.1776       -32.1728      0.7186089              1
      3903.5000         1.1821       -32.7103      0.1781311              1
      3904.0000         1.1865       -33.2477     -0.3622437              1
      3904.5000         1.1908       -33.7852     -0.9027176              1
      3905.0000         1.1888       -34.3003      -1.420795      0.9939015
      3905.5000         1.1844       -34.7708      -1.894272      0.9870396
      3906.0000         1.1792       -35.2415      -2.367947      0.9801747
      3906.5000         1.1734       -35.5988      -2.728222      0.9749533
      3907.0000         1.1675       -35.9531      -3.085495      0.9697754
      3907.5000         1.1665       -36.3069      -3.442272      0.9646047
      3908.0000         1.1686       -36.6136      -3.751953      0.9601166
      3908.5000         1.1721       -36.9088      -4.050125      0.9557953
      3909.0000         1.1776       -36.8031      -3.947403       0.957284
      3909.5000         1.1863       -36.4562      -3.603477      0.9622685
      3910.0000         1.1963       -35.9601      -3.110352      0.9694152
      3910.5000         1.2073       -35.2541       -2.40733      0.9796039
      3911.0000         1.2204       -34.5474      -1.703606      0.9898028
      3911.5000         1.2358       -33.7955     -0.9546814              1
      3912.0000         1.2544       -33.0308      -0.192955              1
      3912.5000         1.2731       -32.2661      0.5687675              1
      3913.0000           1.29        -31.663       1.168894              1
      3913.5000         1.3064       -31.3781       1.450819              1
      3914.0000         1.3164       -31.0931       1.732843              1
      3914.5000         1.3193       -30.8452       1.977768              1
      3915.0000         1.3173        -30.853       1.966991              1
      3915.5000         1.3153       -30.8609       1.956116              1
