#------------------------------------------------------------------------------
# Created by    : vladimir.rabinovich
# Created on    : 09/19/2023 17:20:53
#------------------------------------------------------------------------------
~Version Information Section
VERS.           2.0     :   CWLS log ASCII Standard - VERSION 2.0
WRAP.           NO      :   One line per depth step
~Well Information Section
#MNEM       .UNIT                                         VALUE :DESCRIPTION
#------------------------------------------------------------------------------
STRT        .FT                                             100 :START DEPTH
STOP        .FT                                           19050 :STOP DEPTH
STEP        .FT                                             0.5 :STEP      
NULL        .                                           -999.25 :NULL      
COMP        .                                    EXXON CO U S A :COMPANY   
WELL        .                                OSTERMEYER WILLIAM :WELL      
FLD         .                                         GALVESTON :FIELD     
LOC         .                                                   :LOCATION  
CNTY        .                                         GALVESTON :LOCATION  
STAT        .                                             TEXAS :STATE     
CTRY        .                                     UNITED STATES :COUNTRY   
SRVC        .                                                   :SERVICE COMPANY
DATE        .                             9/13/2023 11:19:11 AM :LOG DATE  
API         .                                    42167019160000 :API NUMBER
UWI         .                                    42167019160000 :UNIQUE WELL ID
XCOORD      .                                  1021218.85435247 :SURFACE X 
YCOORD      .                                  10604853.0341231 :SURFACE Y 
LAT         .                                          29.20756 :LATITUDE  
LON         .                                       -94.9413574 :LONGITUDE 
ELEV        .FT                                              26 :ELEVATION VALUE
ELEV_TYPE   .                                                KB :ELEVATION REFERENCE TYPE
~Curve Information Section
#MNEM       .UNIT                                      API CODE :CURVE DESCRIPTION
#------------------------------------------------------------------------------
DEPT        .FT                                                 :DEPTH     
ASN         .OHMM                                               :          
SP          .MV                                                 :          
SP_NORM     .MV                                                 :SP Normalized
VSH_SP      .V/V                                                :Volume of Shale from SP
~A        DEPTH            ASN             SP        SP_NORM         VSH_SP
# ...
      2644.0000         1.0998       -32.9736       1.363235              1
      2644.5000         1.0973       -33.3947      0.9396553              1
      2645.0000         1.0948       -33.8522      0.4796753              1
      2645.5000           1.09       -34.3743     -0.0449028              1
      2646.0000         1.0845       -34.8965     -0.5695839              1
      2646.5000         1.0789       -35.4186      -1.094162              1
      2647.0000         1.0719       -35.9038      -1.581844              1
      2647.5000         1.0638       -36.3886      -2.069122      0.9988083
      2648.0000         1.0564       -36.8633      -2.546303       0.990581
      2648.5000         1.0493       -37.0482      -2.733681      0.9873503
      2649.0000         1.0429       -37.2349      -2.922863      0.9840885
      2649.5000         1.0365       -37.4266      -3.117043      0.9807407
      2650.0000         1.0312       -37.6183      -3.311222      0.9773927
      2650.5000         1.0279       -37.7284      -3.423801      0.9754517
      2651.0000         1.0246       -37.7985       -3.49638      0.9742004
      2651.5000         1.0204       -37.9462      -3.646561       0.971611
      2652.0000         1.0145       -38.8649      -4.567738      0.9557287
      2652.5000          1.008       -40.2775      -5.982819      0.9313307
      2653.0000         0.9987        -42.694      -8.401798      0.8896242
      2653.5000         0.9912       -46.3758      -12.08608      0.8261021
      2654.0000          0.985       -48.8976      -14.61035      0.7825801
      2654.5000         0.9926       -51.3093      -17.02453      0.7409564
      2655.0000         1.0016       -54.2728      -19.99051      0.6898187
      2655.5000         1.0441       -58.2238      -23.94399      0.6216553
      2656.0000         1.0818       -62.0523      -27.77497      0.5556039
      2656.5000         1.1246       -65.0697      -30.79485       0.503537
      2657.0000          1.102       -68.2485      -33.97613      0.4486875
      2657.5000          1.076        -72.985      -38.71511      0.3669809
      2658.0000         1.0393       -76.2507      -41.98329      0.3106329
      2658.5000         0.9961        -79.941      -45.67607      0.2469643
      2659.0000         0.9332       -83.4552      -49.19275      0.1863319
      2659.5000         0.8765       -86.0308      -51.77083      0.1418823
      2660.0000         0.8248       -87.1364      -52.87891      0.1227775
      2660.5000         0.8152       -87.9623      -53.70729       0.108495
      2661.0000          0.812       -88.5205      -54.26797     0.09882815
      2661.5000         0.8069       -89.0787      -54.82864     0.08916131
      2662.0000         0.8012       -89.9377      -55.69012      0.0743082
      2662.5000         0.7955       -90.8151      -56.57001     0.05913781
      2663.0000         0.7901       -91.6351      -57.39249     0.04495713
      2663.5000         0.7851       -92.4393      -58.19917     0.03104887
      2664.0000         0.7801       -93.1741      -58.93645     0.01833712
      2664.5000         0.7805       -93.2653      -59.03012     0.01672212
      2665.0000          0.782       -91.3412       -57.1085     0.04985342
      2665.5000         0.7841       -86.1396      -51.90938      0.1394934
      2666.0000         0.7864       -59.7446      -25.51686       0.594537
      2666.5000         0.7907       -53.0578      -18.83254      0.7097838
      2667.0000          0.801       -50.0527      -15.82992      0.7615532
      2667.5000         0.8114       -46.8579       -12.6376      0.8165932
      2668.0000         0.8242       -44.2333      -10.01548      0.8618022
      2668.5000         0.8371       -40.6605      -6.445156      0.9233594
      2669.0000         0.8546       -38.6563      -4.443436      0.9578718
      2669.5000         0.8712       -37.5317      -3.321316      0.9772187
      2670.0000         0.8848       -36.4067      -2.198795      0.9965725
      2670.5000         0.8963       -35.6829      -1.477474              1
      2671.0000         0.9009       -34.9876     -0.7846527              1
      2671.5000         0.9056       -34.6677     -0.4672356              1
      2672.0000         0.9102       -34.3746     -0.1766129              1
      2672.5000          0.913       -34.1404     0.05510712              1
      2673.0000         0.9147       -34.0186       0.174427              1
      2673.5000         0.9164       -33.8967      0.2938461              1
      2674.0000         0.9181       -33.7814      0.4066696              1
      2674.5000         0.9194       -33.6664      0.5191879              1
      2675.0000         0.9193       -33.5515      0.6316147              1
      2675.5000         0.9192       -33.4697      0.7109337              1
      2676.0000         0.9191       -33.5397      0.6384544              1
      2676.5000         0.9191       -33.6099       0.565773              1
      2677.0000         0.9193       -33.6436      0.5295944              1
      2677.5000         0.9195        -33.653      0.5177155              1
      2678.0000         0.9197       -33.6624      0.5058365              1
      2678.5000         0.9198       -33.6718      0.4939575              1
      2679.0000           0.92        -33.465      0.6982765              1
      2679.5000         0.9202       -33.2122       0.948597              1
      2680.0000         0.9204       -32.6953       1.463017              1
      2680.5000         0.9205       -31.8357       2.320139              1
      2681.0000         0.9207       -31.1716       2.981758              1
      2681.5000         0.9209        -30.737       3.413879              1
      2682.0000         0.9211       -30.6807       3.467699              1
      2682.5000         0.9217       -30.6244       3.520807              1
      2683.0000         0.9222       -31.0027        3.13583              1
      2683.5000         0.9228       -31.4576       2.674255              1
      2684.0000         0.9234       -31.9125       2.212679              1
      2684.5000         0.9241       -32.4897       1.628803              1
      2685.0000         0.9252       -33.1226      0.9892273              1
      2685.5000         0.9262       -33.7555      0.3496513              1
      2686.0000         0.9272       -34.0047      0.0937767              1
      2686.5000         0.9282        -34.222     -0.1301994              1
      2687.0000         0.9292       -34.4394     -0.3542747              1
      2687.5000         0.9305        -34.548     -0.4695511              1
      2688.0000         0.9317       -34.0744   -0.002628326              1
      2688.5000          0.933       -33.6008      0.4642982              1
      2689.0000         0.9342       -32.8494       1.209023              1
      2689.5000         0.9358       -31.8828       2.168947              1
      2690.0000         0.9378       -31.2508       2.794271              1
      2690.5000         0.9399       -30.6332       3.405195              1
      2691.0000         0.9419       -30.9128       3.118919              1
      2691.5000          0.944       -31.2299       2.795143              1
      2692.0000          0.946       -31.5469       2.471464              1
      2692.5000         0.9479       -31.8989       2.112789              1
      2693.0000         0.9497       -32.3041       1.700912              1
      2693.5000         0.9515       -32.7094       1.288937              1
      2694.0000         0.9532       -33.1526      0.8390617              1
      2694.5000         0.9549       -33.7219      0.2630844              1
      2695.0000         0.9562       -34.2908     -0.3124886              1
      2695.5000         0.9576         -34.86     -0.8883667              1
      2696.0000          0.959       -35.3176      -1.352642              1
      2696.5000         0.9604        -35.759      -1.800716              1
