#------------------------------------------------------------------------------
# Created by    : vladimir.rabinovich
# Created on    : 09/19/2023 17:20:53
#------------------------------------------------------------------------------
~Version Information Section
VERS.           2.0     :   CWLS log ASCII Standard - VERSION 2.0
WRAP.           NO      :   One line per depth step
~Well Information Section
#MNEM       .UNIT                                         VALUE :DESCRIPTION
#------------------------------------------------------------------------------
STRT        .FT                                             100 :START DEPTH
STOP        .FT                                           19050 :STOP DEPTH
STEP        .FT                                             0.5 :STEP      
NULL        .                                           -999.25 :NULL      
COMP        .                                    EXXON CO U S A :COMPANY   
WELL        .                                OSTERMEYER WILLIAM :WELL      
FLD         .                                         GALVESTON :FIELD     
LOC         .                                                   :LOCATION  
CNTY        .                                         GALVESTON :LOCATION  
STAT        .                                             TEXAS :STATE     
CTRY        .                                     UNITED STATES :COUNTRY   
SRVC        .                                                   :SERVICE COMPANY
DATE        .                             9/13/2023 11:19:11 AM :LOG DATE  
API         .                                    42167019160000 :API NUMBER
UWI         .                                    42167019160000 :UNIQUE WELL ID
XCOORD      .                                  1021218.85435247 :SURFACE X 
YCOORD      .                                  10604853.0341231 :SURFACE Y 
LAT         .                                          29.20756 :LATITUDE  
LON         .                                       -94.9413574 :LONGITUDE 
ELEV        .FT                                              26 :ELEVATION VALUE
ELEV_TYPE   .                                                KB :ELEVATION REFERENCE TYPE
~Curve Information Section
#MNEM       .UNIT                                      API CODE :CURVE DESCRIPTION
#------------------------------------------------------------------------------
DEPT        .FT                                                 :DEPTH     
ASN         .OHMM                                               :          
SP          .MV                                                 :          
SP_NORM     .MV                                                 :SP Normalized
VSH_SP      .V/V                                                :Volume of Shale from SP
~A        DEPTH            ASN             SP        SP_NORM         VSH_SP
# ...
     15258.0000         1.0941       -20.1233      -0.611105              1
     15258.5000         1.0699       -20.1622     -0.6500053              1
     15259.0000         1.0398       -20.1872      -0.675005              1
     15259.5000         1.0147       -20.2123     -0.7001038              1
     15260.0000         0.9993       -20.2373     -0.7251053              1
     15260.5000          0.984       -20.2622     -0.7500038              1
     15261.0000         0.9706       -20.2873     -0.7751045              1
     15261.5000         0.9594       -20.3075     -0.7953053              1
     15262.0000         0.9547       -20.3176     -0.8054047              1
     15262.5000         0.9503       -20.3276     -0.8154049              1
     15263.0000         0.9472       -20.3377     -0.8255043              1
     15263.5000         0.9441       -20.3478     -0.8356037              1
     15264.0000          0.941       -20.3578     -0.8456039              1
     15264.5000         0.9379       -20.3679     -0.8557053              1
     15265.0000         0.9356        -20.378     -0.8658047              1
     15265.5000         0.9349        -20.359     -0.8468037              1
     15266.0000         0.9402        -20.335     -0.8228035              1
     15266.5000         0.9556       -20.3109     -0.7987041              1
     15267.0000         0.9788       -20.2868     -0.7746048              1
     15267.5000         1.0029       -20.2628     -0.7506046              1
     15268.0000         1.0303       -20.2387     -0.7265053              1
     15268.5000         1.0518       -20.2147     -0.7025051              1
     15269.0000         1.0745       -20.1907     -0.6785049              1
     15269.5000         1.0919       -20.1666     -0.6544037              1
     15270.0000          1.102       -20.1425     -0.6303043              1
     15270.5000         1.0991       -20.1207     -0.6085052              1
     15271.0000         1.0962       -20.0991     -0.5869045              1
     15271.5000         1.0955       -20.0774     -0.5652046              1
     15272.0000         1.0962       -20.0558     -0.5436039              1
     15272.5000         1.0964       -20.0341      -0.521904              1
     15273.0000         1.0943       -20.0124     -0.5002041              1
     15273.5000         1.0916       -19.9908     -0.4786053              1
     15274.0000         1.0685       -19.9692     -0.4570045              1
     15274.5000         1.0369       -19.9475     -0.4353046              1
     15275.0000         1.0181       -19.9259     -0.4137039              1
     15275.5000         1.0178       -19.9043     -0.3921051              1
     15276.0000         1.0196        -19.919      -0.406805              1
     15276.5000         1.0214       -19.9381     -0.4259052              1
     15277.0000         1.0242       -19.9572     -0.4450035              1
     15277.5000         1.0286       -19.9763     -0.4641037              1
     15278.0000         1.0331       -19.9954     -0.4832039              1
     15278.5000         1.0371       -20.0145     -0.5023041              1
     15279.0000         1.0408       -20.0336     -0.5214043              1
     15279.5000         1.0445       -20.0526     -0.5404053              1
     15280.0000         1.0498       -20.0549     -0.5427036              1
     15280.5000         1.0534       -20.0545      -0.542305              1
     15281.0000         1.0379       -20.0541     -0.5419044              1
     15281.5000         1.0157       -20.0537     -0.5415039              1
     15282.0000         0.9958       -20.0533     -0.5411053              1
     15282.5000         0.9871        -20.053     -0.5408039              1
     15283.0000         0.9988       -20.0526     -0.5404053              1
     15283.5000         1.0087       -20.0522     -0.5400047              1
     15284.0000         1.0185       -20.0435     -0.5313053              1
     15284.5000         1.0287       -20.0332     -0.5210037              1
     15285.0000         1.0445       -20.0228     -0.5106049              1
     15285.5000         1.0603       -20.0125     -0.5003052              1
     15286.0000         1.0895       -20.0021     -0.4899044              1
     15286.5000         1.2863       -19.9918     -0.4796047              1
     15287.0000         1.3527       -19.9814     -0.4692039              1
     15287.5000         1.3947       -19.9711     -0.4589043              1
     15288.0000         1.4282       -19.9612     -0.4490051              1
     15288.5000         1.4588       -19.9513     -0.4391041              1
     15289.0000         1.4857       -19.9414     -0.4292049              1
     15289.5000         1.4345       -19.9315     -0.4193039              1
     15290.0000         1.3221       -19.9216     -0.4094048              1
     15290.5000          1.216       -19.9117     -0.3995037              1
     15291.0000         1.1526       -19.9018     -0.3896046              1
     15291.5000          1.119       -19.8919     -0.3797035              1
     15292.0000         1.0947       -19.8891     -0.3769035              1
     15292.5000         1.0804       -19.8887     -0.3765049              1
     15293.0000         1.0725       -19.8883     -0.3761044              1
     15293.5000         1.0682       -19.8879     -0.3757038              1
     15294.0000         1.0651       -19.8875     -0.3753052              1
     15294.5000         1.0627       -19.8871     -0.3749046              1
     15295.0000         1.0611       -19.8867     -0.3745041              1
     15295.5000         1.0602       -19.8863     -0.3741035              1
     15296.0000         1.0363       -19.8859     -0.3737049              1
     15296.5000         1.0158       -19.8856     -0.3734035              1
     15297.0000          1.004       -19.8853     -0.3731041              1
     15297.5000          0.996        -19.885     -0.3728046              1
     15298.0000         0.9894       -19.8847     -0.3725052              1
     15298.5000         0.9833       -19.8844     -0.3722038              1
     15299.0000          0.978       -19.8841     -0.3719044              1
     15299.5000         0.9739       -19.8838     -0.3716049              1
     15300.0000         0.9698       -19.8835     -0.3713036              1
     15300.5000         0.9658       -19.8832     -0.3710041              1
     15301.0000         0.9587        -19.878     -0.3658047              1
     15301.5000         0.9494       -19.8554     -0.3432045              1
     15302.0000         0.9402        -19.833     -0.3208046              1
     15302.5000         0.9332       -19.8105     -0.2983036              1
     15303.0000         0.9275        -19.788     -0.2758045              1
     15303.5000         0.9232       -19.7655     -0.2533035              1
     15304.0000         0.9189        -19.743     -0.2308044              1
     15304.5000         0.9197       -19.7205     -0.2083054              1
     15305.0000         0.9208       -19.6981     -0.1859035              1
     15305.5000         0.9218       -19.6755     -0.1633053              1
     15306.0000         0.9229       -19.6558     -0.1436043              1
     15306.5000         0.9304       -19.6421     -0.1299038              1
     15307.0000         0.9397       -19.6284     -0.1162052              1
     15307.5000         0.9559       -19.6147     -0.1025047              1
     15308.0000         0.9725       -19.6009    -0.08870506              1
     15308.5000         0.9821       -19.5872    -0.07500458              1
     15309.0000         0.9784       -19.5735    -0.06130409              1
     15309.5000         0.9594       -19.5598    -0.04760361              1
     15310.0000         0.9319       -19.5461    -0.03390503              1
     15310.5000         0.9167       -19.5324    -0.02020454              1
