#------------------------------------------------------------------------------
# Created by    : vladimir.rabinovich
# Created on    : 09/19/2023 17:22:02
#------------------------------------------------------------------------------
~Version Information Section
VERS.           2.0     :   CWLS log ASCII Standard - VERSION 2.0
WRAP.           NO      :   One line per depth step
~Well Information Section
#MNEM       .UNIT                                         VALUE :DESCRIPTION
#------------------------------------------------------------------------------
STRT        .FT                                          2944.5 :START DEPTH
STOP        .FT                                           12030 :STOP DEPTH
STEP        .FT                                             0.5 :STEP      
NULL        .                                           -999.25 :NULL      
COMP        .                                  SAMEDAN OIL CORP :COMPANY   
WELL        .                                         ROBERTSON :WELL      
FLD         .                                     HAMSHIRE WEST :FIELD     
LOC         .                                                   :LOCATION  
CNTY        .                                         JEFFERSON :LOCATION  
STAT        .                                             TEXAS :STATE     
CTRY        .                                     UNITED STATES :COUNTRY   
SRVC        .                                                   :SERVICE COMPANY
DATE        .                             9/13/2023 11:18:46 AM :LOG DATE  
API         .                                    42245321120000 :API NUMBER
UWI         .                                    42245321120000 :UNIQUE WELL ID
XCOORD      .                                  1214919.43989532 :SURFACE X 
YCOORD      .                                  10839736.7579652 :SURFACE Y 
LAT         .                                        29.8609813 :LATITUDE  
LON         .                                       -94.3427285 :LONGITUDE 
ELEV        .FT                                              38 :ELEVATION VALUE
ELEV_TYPE   .                                                KB :ELEVATION REFERENCE TYPE
~Curve Information Section
#MNEM       .UNIT                                      API CODE :CURVE DESCRIPTION
#------------------------------------------------------------------------------
DEPT        .FT                                                 :DEPTH     
CALI        .IN                                                 :          
DPSS        .%                                                  :          
DRHO        .G/CM3                                              :          
GR          .GAPI                                               :          
GR_NORM     .GAPI                                               :GammaRay Normalized
ILD         .OHMM                                               :          
ILM         .OHMM                                               :          
NPSS        .%                                                  :Neutron Porosity Sandstone
SGRD        .OHMM                                               :          
SP          .MV                                                 :          
SP_NORM     .MV                                                 :SP Normalized
TENS        .LB                                                 :          
VSH_GR      .V/V                                                :Volume of Shale from GR
VSH_SP      .V/V                                                :Volume of Shale from SP
~A        DEPTH           CALI           DPSS           DRHO             GR        GR_NORM            ILD            ILM           NPSS           SGRD             SP        SP_NORM           TENS         VSH_GR         VSH_SP
# ...
      7192.5000        -999.25        -999.25        -999.25        73.1518       82.75608         0.8919         0.9864        -999.25         1.0713       -70.0452      -4.401077       2905.251              1      0.9638183
      7193.0000        -999.25        -999.25        -999.25        78.4085       89.48897         0.8959         0.9774        -999.25         0.9864       -69.0553      -3.415985       2886.345              1      0.9742981
      7193.5000        -999.25        -999.25        -999.25         83.201        95.6273         0.8838         0.9954        -999.25         1.0046       -70.6653      -5.030792       2966.755              1      0.9571192
      7194.0000        -999.25        -999.25        -999.25        82.4435       94.65708         0.8601         1.0232        -999.25         1.1319       -76.0754       -10.4457       2888.229              1      0.8995138
      7194.5000        -999.25        -999.25        -999.25         68.901       77.31155         0.8073          1.047        -999.25         1.3853       -87.8851      -22.26021       2928.946       0.942799      0.7738276
      7195.0000        -999.25        -999.25        -999.25           51.6       55.15207         0.7782         1.0374        -999.25         1.7032       -94.4955      -28.87541       2969.705      0.4713205      0.7034531
      7195.5000        -999.25        -999.25        -999.25          46.65         48.812         0.7501              1        -999.25         1.9368      -100.5055      -34.89022       2910.969      0.3364255      0.6394657
      7196.0000        -999.25        -999.25        -999.25        43.3569       44.59412         0.7364         0.9379        -999.25         1.9908      -104.1156      -38.50513       2931.842      0.2466835      0.6010093
      7196.5000        -999.25        -999.25        -999.25        44.2528       45.74161         0.7296         0.8919        -999.25         1.7832       -98.9256      -33.31994       2952.736      0.2710981      0.6561708
      7197.0000        -999.25        -999.25        -999.25           56.7       61.68425         0.7263         0.8333        -999.25         1.5115       -90.7355      -25.13464       2973.651      0.6103032      0.7432485
      7197.5000        -999.25        -999.25        -999.25        71.5814       80.74467         0.7196         0.7963        -999.25         1.1529       -74.5457      -8.949654       2994.587              1      0.9154292
      7198.0000        -999.25        -999.25        -999.25        74.8829        84.9733         0.7065         0.7782        -999.25         0.9552       -69.1558       -3.56456       3015.458              1      0.9727175
      7198.5000        -999.25        -999.25        -999.25        73.0723       82.65425         0.6937         0.7782        -999.25         0.9125       -65.9658      -0.379364       2996.589              1              1
      7199.0000        -999.25        -999.25        -999.25        75.1681       85.33858         0.6812         0.7854        -999.25         0.9509       -64.1759       1.405724       2957.637              1              1
      7199.5000        -999.25        -999.25        -999.25        80.5606       92.24542          0.672         0.7854        -999.25         0.9818       -63.5859       1.990921       2978.607              1              1
      7200.0000        -999.25        -999.25        -999.25         83.253       95.69391          0.669         0.7782        -999.25         0.9818        -63.996       1.576015       2999.598              1              1
      7200.5000        -999.25        -999.25        -999.25        79.6652       91.09858         0.6813         0.7782        -999.25         0.9865       -64.3796       1.187607         2996.4              1              1
      7201.0000        -999.25        -999.25        -999.25        72.3457       81.72361         0.7035         0.7927        -999.25         0.9867       -65.7389      -0.176506       2970.385              1              1
      7201.5000        -999.25        -999.25        -999.25        64.4264       71.58038         0.7503         0.8184        -999.25         1.0052       -68.0981      -2.540512       2904.304      0.8208592      0.9836116
      7202.0000        -999.25        -999.25        -999.25        55.1571       59.70808         0.7927         0.8645        -999.25         1.2134       -74.0572      -8.504417       2918.278       0.568257      0.9201658
      7202.5000        -999.25        -999.25        -999.25        47.6878       50.14123         0.8374         0.9176        -999.25         1.5191       -80.0196      -14.47163       2932.265      0.3647071      0.8566848
      7203.0000        -999.25        -999.25        -999.25        45.9153       47.87098         0.8848         0.9741        -999.25         1.7835        -85.978      -20.43483       2906.166      0.3164037      0.7932465
      7203.5000        -999.25        -999.25        -999.25        50.4459       53.67387          0.935         1.0341        -999.25         1.7194       -90.5366      -24.99824       2900.101      0.4398696      0.7446996
      7204.0000        -999.25        -999.25        -999.25        54.8265       59.28463         0.9881         1.0978        -999.25          1.598        -82.697      -17.16344       2894.029      0.5592474      0.8280485
      7204.5000        -999.25        -999.25        -999.25        59.3571       65.08753         1.0489           1.16        -999.25         1.3867       -77.4569      -11.92815       2887.952      0.6827134       0.883743
      7205.0000        -999.25        -999.25        -999.25        61.1876       67.43208         1.0882         1.1925        -999.25         1.3371       -76.2162      -10.69227       2881.869      0.7325974      0.8968908
      7205.5000        -999.25        -999.25        -999.25        58.9653       64.58569         1.0934         1.2203        -999.25         1.3372       -77.9793      -12.46017       2875.779      0.6720361      0.8780832
      7206.0000        -999.25        -999.25        -999.25        57.7959       63.08791         1.0788         1.2039        -999.25         1.2953       -80.1383      -14.62398       2869.684      0.6401682      0.8550641
      7206.5000        -999.25        -999.25        -999.25        59.3265       65.04832         1.0214         1.1877        -999.25         1.2604       -81.4975      -15.98798       2863.582      0.6818792      0.8405533
      7207.0000        -999.25        -999.25        -999.25        62.2068       68.73748         0.9495         1.1664        -999.25         1.2321       -82.2567      -16.75199       2857.474      0.7603719      0.8324257
      7207.5000        -999.25        -999.25        -999.25        62.2374       68.77666         0.8539         1.0943        -999.25         1.2724       -90.8195       -25.3196        2851.36      0.7612056      0.7412808
      7208.0000        -999.25        -999.25        -999.25        61.3651       67.65942         0.7753         1.0409        -999.25         1.3879       -98.7787      -33.28361        2845.24      0.7374344      0.6565574
      7208.5000        -999.25        -999.25        -999.25        59.8959       65.77764         0.7058         0.9589        -999.25          1.473      -112.1381      -46.64781       2839.114      0.6973966       0.514385
      7209.0000        -999.25        -999.25        -999.25        56.0265       60.82162         0.6709         0.8869        -999.25         1.4399      -122.0975      -56.61203       2853.152      0.5919494      0.4083827
      7209.5000        -999.25        -999.25        -999.25        54.7071        59.1317         0.6495         0.8229        -999.25         1.3509      -119.8569      -54.37624       2847.024      0.5559937      0.4321677
      7210.0000        -999.25        -999.25        -999.25        57.7378       61.29065         0.6465         0.7929        -999.25         1.2277      -112.6162      -47.14034       2840.889      0.6019288      0.5091453
