#------------------------------------------------------------------------------
# Created by    : vladimir.rabinovich
# Created on    : 09/19/2023 17:22:56
#------------------------------------------------------------------------------
~Version Information Section
VERS.           2.0     :   CWLS log ASCII Standard - VERSION 2.0
WRAP.           NO      :   One line per depth step
~Well Information Section
#MNEM       .UNIT                                         VALUE :DESCRIPTION
#------------------------------------------------------------------------------
STRT        .FT                                             120 :START DEPTH
STOP        .FT                                           15526 :STOP DEPTH
STEP        .FT                                             0.5 :STEP      
NULL        .                                           -999.25 :NULL      
COMP        .                                    MOBIL OIL CORP :COMPANY   
WELL        .                                MCFADDIN TRUST BLK :WELL      
FLD         .                                           WILDCAT :FIELD     
LOC         .                                                   :LOCATION  
CNTY        .                                         JEFFERSON :LOCATION  
STAT        .                                             TEXAS :STATE     
CTRY        .                                     UNITED STATES :COUNTRY   
SRVC        .                                                   :SERVICE COMPANY
DATE        .                             9/13/2023 11:19:11 AM :LOG DATE  
API         .                                    42245021130000 :API NUMBER
UWI         .                                    42245021130000 :UNIQUE WELL ID
XCOORD      .                                  1317150.22331494 :SURFACE X 
YCOORD      .                                   10814678.490982 :SURFACE Y 
LAT         .                                        29.7949472 :LATITUDE  
LON         .                                       -94.0194715 :LONGITUDE 
ELEV        .FT                                              18 :ELEVATION VALUE
ELEV_TYPE   .                                                DF :ELEVATION REFERENCE TYPE
~Curve Information Section
#MNEM       .UNIT                                      API CODE :CURVE DESCRIPTION
#------------------------------------------------------------------------------
DEPT        .FT                                                 :DEPTH     
SN          .OHMM                                               :          
SP          .MV                                                 :          
SP_NORM     .MV                                                 :SP Normalized
VSH_SP      .V/V                                                :Volume of Shale from SP
~A        DEPTH             SN             SP        SP_NORM         VSH_SP
       120.0000         0.0614       -64.0547      -13.74796      0.3626022
       120.5000         0.1183        -55.086      -4.779251      0.8110374
       121.0000         0.1753       -47.7161       2.590649              1
       121.5000         0.2322       -40.1569       10.14985              1
       122.0000         0.2951       -34.3065       16.00025              1
       122.5000         0.4757       -29.8423       20.46445              1
       123.0000         0.6564       -27.3083       22.99845              1
       123.5000         1.0696       -33.9131       16.39365              1
       124.0000          1.613       -48.6294       1.682274              1
       124.5000         2.0834       -51.1617     -0.7067375              1
       125.0000         2.2575        -52.914       -2.31575      0.9342125
       125.5000         2.3851       -54.2767      -3.535156      0.8732422
       126.0000         2.4906       -54.9366      -4.051769      0.8474115
       126.5000         2.5817       -55.5967      -4.568577      0.8215712
       127.0000          2.659       -56.2169       -5.04549      0.7977255
       127.5000         2.7012       -56.6165        -5.3018        0.78491
       128.0000         2.7434       -57.0161      -5.558113      0.7720944
       128.5000         2.7691       -57.4157      -5.814419      0.7592791
       129.0000         2.7401       -57.8153      -6.070732      0.7464634
       129.5000         2.7111       -58.1981      -6.310242      0.7344879
       130.0000         2.6821       -58.4776      -6.446453      0.7276773
       130.5000         2.6525       -58.7571      -6.582661       0.720867
       131.0000          2.622       -59.0366      -6.718872      0.7140564
       131.5000         2.5914       -59.3162      -6.855183      0.7072409
       132.0000         2.5608       -59.4315      -6.827194      0.7086403
       132.5000         2.5302       -59.1418      -6.394203      0.7302898
       133.0000         2.4996       -58.6539      -5.763016      0.7618492
       133.5000          2.469       -57.6703      -4.636124      0.8181938
       134.0000         2.4384       -56.6867      -3.509235      0.8745382
       134.5000         2.4053       -55.7031      -2.382347      0.9308826
       135.0000         2.3692       -54.7653      -1.301258      0.9849371
       135.5000          2.333       -53.9218     -0.3144684              1
       136.0000         2.2968       -53.0782      0.6724205              1
       136.5000         2.2607       -53.4335      0.4604111              1
       137.0000         2.2245       -54.0051     0.03210068              1
       137.5000         2.1883       -54.5767     -0.3962097              1
       138.0000         2.1522       -55.1484     -0.8246193              1
       138.5000         2.1202       -55.6288      -1.161732      0.9919134
       139.0000         2.0914       -56.0914      -1.481041       0.975948
       139.5000         2.0627       -56.5539      -1.800255      0.9599873
       140.0000         2.0339       -57.0165       -2.11956       0.944022
       140.5000         2.0052        -57.479      -2.438774      0.9280613
       141.0000         1.9765       -57.8077      -2.624184      0.9187908
       141.5000         1.9477       -57.7618      -2.434994      0.9282503
       142.0000          1.919       -57.7158      -2.245705      0.9377148
       142.5000         1.8946       -57.6699      -2.056515      0.9471743
       143.0000         1.8728       -57.6239      -1.867226      0.9566387
       143.5000         1.8509       -57.5087      -1.608738      0.9695631
       144.0000         1.8291       -57.2494      -1.206146      0.9896927
       144.5000         1.8073       -56.9901     -0.8035583              1
       145.0000         1.7854       -56.7308     -0.4009666              1
       145.5000         1.7636       -56.4715    0.001621246              1
       146.0000         1.7418       -56.2122       0.404213              1
       146.5000          1.722       -55.9529      0.8068008              1
       147.0000         1.7034       -55.7899       1.113091              1
       147.5000         1.6848       -55.8242        1.22208              1
       148.0000         1.6661       -56.0782       1.111366              1
       148.5000         1.6475       -56.7209      0.6119576              1
       149.0000         1.6288       -57.3635       0.112648              1
       149.5000         1.6102       -58.0182     -0.3987617              1
       150.0000         1.5925       -58.7558     -0.9930725              1
       150.5000         1.5862       -59.4935      -1.587482      0.9706259
       151.0000         1.5799       -60.2311      -2.181793      0.9409103
       151.5000         1.5736       -60.8021      -2.609505      0.9195248
       152.0000         1.5673       -61.2245      -2.888615      0.9055693
       152.5000          1.561       -61.6468      -3.167625      0.8916187
       153.0000         1.5547       -62.0692      -3.446735      0.8776633
       153.5000         1.5484       -62.3453      -3.579544      0.8710228
       154.0000         1.5421       -62.2679      -3.358856      0.8820572
       154.5000         1.5486       -62.1904      -3.138065      0.8930967
       155.0000         1.5579        -62.113      -2.917377      0.9041311
       155.5000         1.5672       -62.0355      -2.696587      0.9151707
       156.0000         1.5764       -61.9581      -2.475899       0.926205
       156.5000         1.5857       -61.8303      -2.204807      0.9397596
       157.0000          1.595       -61.6618      -1.893021       0.955349
       157.5000         1.6042       -61.4934      -1.581329      0.9709336
       158.0000         1.6135        -61.325      -1.269642      0.9865179
       158.5000         1.6207       -61.1565     -0.9578514              1
       159.0000         1.6256       -60.9881     -0.6461601              1
       159.5000         1.6305       -60.8196     -0.3343697              1
       160.0000         1.6354       -60.7888     -0.1602821              1
       160.5000         1.6403       -61.3296     -0.5577927              1
       161.0000         1.6452       -61.8704     -0.9553032              1
       161.5000         1.6501       -62.4113      -1.352917      0.9823542
       162.0000         1.6551       -62.9521      -1.750423      0.9624788
       162.5000         1.6747       -63.4893      -2.144337      0.9427832
       163.0000         1.6989       -63.8977      -2.409447      0.9295276
       163.5000         1.7232       -64.3062      -2.674656      0.9162672
       164.0000         1.7474       -64.7145      -2.939667      0.9030167
       164.5000         1.7716       -65.1229      -3.204781       0.889761
       165.0000         1.7959       -65.5314       -3.46999      0.8765005
       165.5000         1.8753       -65.8514      -3.646702      0.8676649
       166.0000         1.9744       -65.9015      -3.553505      0.8723248
       166.5000         2.0734       -65.9515       -3.46022       0.876989
       167.0000         2.1689       -66.0016      -3.431503      0.8784248
       167.5000         2.2616       -66.0516       -3.49781      0.8751095
       168.0000         2.3542       -66.1017       -3.56422       0.871789
       168.5000         2.4556       -65.6361      -3.114933      0.8942534
       169.0000         2.5589       -64.9937      -2.488842      0.9255579
       169.5000         2.6623       -64.3511      -1.862549      0.9568726
       170.0000         2.6739       -63.7087      -1.236462      0.9881769
       170.5000         2.6664       -63.0321     -0.5761719              1
       171.0000         2.6345       -62.2533      0.1863174              1
       171.5000         2.5987       -61.4745      0.9488068              1
       172.0000          2.563       -60.6957       1.711296              1
       172.5000         2.5272       -60.6585       1.732185              1
