#------------------------------------------------------------------------------
# Created by    : vladimir.rabinovich
# Created on    : 09/19/2023 17:22:42
#------------------------------------------------------------------------------
~Version Information Section
VERS.           2.0     :   CWLS log ASCII Standard - VERSION 2.0
WRAP.           NO      :   One line per depth step
~Well Information Section
#MNEM       .UNIT                                         VALUE :DESCRIPTION
#------------------------------------------------------------------------------
STRT        .FT                                             932 :START DEPTH
STOP        .FT                                            7546 :STOP DEPTH
STEP        .FT                                             0.5 :STEP      
NULL        .                                           -999.25 :NULL      
COMP        .                   SUN EXPLORATION & PRODUCTION CO :COMPANY   
WELL        .                                BROUSSARD & HEBERT :WELL      
FLD         .                                          LA BELLE :FIELD     
LOC         .                                                   :LOCATION  
CNTY        .                                         JEFFERSON :LOCATION  
STAT        .                                             TEXAS :STATE     
CTRY        .                                     UNITED STATES :COUNTRY   
SRVC        .                                                   :SERVICE COMPANY
DATE        .                             9/13/2023 11:18:46 AM :LOG DATE  
API         .                                    42245319210000 :API NUMBER
UWI         .                                    42245319210000 :UNIQUE WELL ID
XCOORD      .                                  1279394.73540744 :SURFACE X 
YCOORD      .                                  10819915.3695329 :SURFACE Y 
LAT         .                                        29.8083786 :LATITUDE  
LON         .                                       -94.1386839 :LONGITUDE 
ELEV        .FT                                              23 :ELEVATION VALUE
ELEV_TYPE   .                                                KB :ELEVATION REFERENCE TYPE
~Curve Information Section
#MNEM       .UNIT                                      API CODE :CURVE DESCRIPTION
#------------------------------------------------------------------------------
DEPT        .FT                                                 :DEPTH     
DCAL        .IN                                                 :          
DPSS        .V/V                                                :          
DRHO        .G/CM3                                              :          
GR          .GAPI                                               :          
GR_NORM     .GAPI                                               :GammaRay Normalized
ILD         .OHMM                                               :          
ILM         .OHMM                                               :          
NPSS        .V/V                                                :Neutron Porosity Sandstone
SFL         .OHMM                                               :          
SP          .MV                                                 :          
SP_NORM     .MV                                                 :SP Normalized
TENS        .LB                                                 :          
VSH_GR      .V/V                                                :Volume of Shale from GR
VSH_SP      .V/V                                                :Volume of Shale from SP
~A        DEPTH           DCAL           DPSS           DRHO             GR        GR_NORM            ILD            ILM           NPSS            SFL             SP        SP_NORM           TENS         VSH_GR         VSH_SP
# ...
      2750.0000        -999.25        -999.25        -999.25        57.9026       65.25631         0.6165         0.7466        -999.25         1.1476        -39.796      -23.32541       2285.714      0.6863045      0.6456284
      2750.5000        -999.25        -999.25        -999.25        55.0486       62.14482         0.5861         0.6874        -999.25         1.0566       -40.8163      -24.34571        2275.51      0.6201026      0.6294332
      2751.0000        -999.25        -999.25        -999.25         52.344       59.19573         0.5673         0.6393        -999.25         0.9293          -38.6      -22.12941        2275.51      0.5573559      0.6646125
      2751.5000        -999.25        -999.25        -999.25        50.9886        57.7131          0.562         0.6222        -999.25         0.8447          -34.6      -18.12941        2275.51      0.5258107      0.7281046
      2752.0000        -999.25        -999.25        -999.25        53.5387       60.47543         0.5594         0.6335        -999.25         0.8759          -29.2      -12.72941        2275.51      0.5845835      0.8138189
      2752.5000        -999.25        -999.25        -999.25        61.3366       68.94167         0.5594          0.651        -999.25         0.9083          -23.4      -6.929411        2275.51      0.7647164      0.9058824
      2753.0000        -999.25        -999.25        -999.25        67.5743       75.71212         0.5889         0.6751        -999.25         0.9596          -20.2      -3.729412       2265.306      0.9087685       0.956676
      2753.5000        -999.25        -999.25        -999.25        72.1782       80.70676         0.6278            0.7        -999.25         0.9465       -18.8039      -2.333311       2255.102              1      0.9788364
      2754.0000        -999.25        -999.25        -999.25         74.703       83.44159         0.6781         0.7466        -999.25         0.8759       -17.2105      -0.739912       2255.102              1              1
      2754.5000        -999.25        -999.25        -999.25        77.1429       86.08413         0.7364         0.7818        -999.25         0.8409       -16.0169      0.4536896       2265.306              1              1
      2755.0000        -999.25        -999.25        -999.25        79.5918       88.73647         0.7782         0.8183        -999.25         0.8073       -15.0238       1.446789       2265.306              1              1
      2755.5000        -999.25        -999.25        -999.25        80.5102       89.72527          0.822         0.8295        -999.25         0.7782       -14.4294       2.041188        2275.51              1              1
      2756.0000        -999.25        -999.25        -999.25        81.4286       90.71407          0.868          0.868        -999.25         0.7782       -14.0344       2.436189        2275.51              1              1
      2756.5000        -999.25        -999.25        -999.25        83.2653       92.70099         0.9166         0.9041        -999.25         0.8036       -13.2423       3.228289       2285.714              1              1
      2757.0000        -999.25        -999.25        -999.25        84.0306       93.52338         0.9729         0.9379        -999.25         0.8919        -12.451       4.019588       2285.714              1              1
      2757.5000        -999.25        -999.25        -999.25        82.0408       91.35121         1.0279         0.9729        -999.25         0.9509       -12.2564       4.214189       2285.714              1              1
      2758.0000        -999.25        -999.25        -999.25        76.0714       84.85355         1.0762         1.0092        -999.25         0.9954       -12.0617       4.408889        2275.51              1              1
      2758.5000        -999.25        -999.25        -999.25        68.7624       76.89985         1.1165          1.047        -999.25         1.0327       -12.2639       4.206689        2275.51      0.9340394              1
      2759.0000        -999.25        -999.25        -999.25        64.4554       72.20908         1.1582         1.0713        -999.25         1.0812       -12.6645       3.806088        2275.51      0.8342357              1
      2759.5000        -999.25        -999.25        -999.25        63.5644       71.23122         1.2016         1.0911        -999.25         1.1063       -13.0644       3.406189        2275.51      0.8134301              1
      2760.0000        -999.25        -999.25        -999.25        66.8317       74.77309         1.2465         1.1165        -999.25         1.1012       -13.2658       3.204788        2275.51      0.8887891              1
      2760.5000        -999.25        -999.25        -999.25        71.8812       80.25205         1.2754         1.1372        -999.25         1.0911       -12.8713       3.599289       2285.908              1              1
      2761.0000        -999.25        -999.25        -999.25        70.9901       79.27406         1.2872         1.1636        -999.25         1.0861       -13.0693       3.401289       2286.274      0.9845545              1
      2761.5000        -999.25        -999.25        -999.25        66.3861       74.26048         1.2872         1.1906        -999.25         1.0962       -12.8713       3.599289       2276.448      0.8778826              1
      2762.0000        -999.25        -999.25        -999.25        62.6733       70.21555         1.2872         1.1961        -999.25         1.1268       -12.4752       3.995389       2276.818      0.7918203              1
      2762.5000        -999.25        -999.25        -999.25        63.1188       70.69036         1.2813         1.1961        -999.25         1.1268       -11.6832       4.787389       2287.369      0.8019226              1
      2763.0000        -999.25        -999.25        -999.25        65.6436       73.42519         1.2696         1.1961        -999.25         1.1165       -11.2871       5.183489       2277.558      0.8601103              1
      2763.5000        -999.25        -999.25        -999.25        68.0198        75.9985         1.2351         1.1582        -999.25         1.1012       -11.2871       5.183489       2267.757      0.9148616              1
      2764.0000        -999.25        -999.25        -999.25        70.8416       79.05614         1.1961         1.1216        -999.25         1.0713       -11.4851       4.985489       2278.296      0.9799178              1
      2764.5000        -999.25        -999.25        -999.25        73.9604        82.4366         1.1529         1.0812        -999.25         1.0374       -12.0792       4.391389       2278.665              1              1
      2765.0000        -999.25        -999.25        -999.25        75.3061       83.88984         1.1114         1.0422        -999.25         0.9909       -12.8713       3.599289       2289.188              1              1
      2765.5000        -999.25        -999.25        -999.25             75       83.54772         1.0812              1        -999.25         0.9422       -13.6634       2.807189        2289.55              1              1
      2766.0000        -999.25        -999.25        -999.25        74.4059       82.89256          1.047          0.964        -999.25            0.9       -14.2574       2.213189       2300.057              1              1
      2766.5000        -999.25        -999.25        -999.25        73.8119        82.2375         1.0139         0.9293        -999.25          0.868       -14.6535       1.817089       2300.413              1              1
      2767.0000        -999.25        -999.25        -999.25        71.8812       80.12957         0.9818         0.9251        -999.25         0.8601       -14.2574       2.213189       2310.904              1              1
      2767.5000        -999.25        -999.25        -999.25        69.0594       77.05309         0.9596         0.9251        -999.25         0.8601       -14.2574       2.213189        2301.09      0.9372997              1
