#------------------------------------------------------------------------------
# Created by    : vladimir.rabinovich
# Created on    : 09/19/2023 17:20:58
#------------------------------------------------------------------------------
~Version Information Section
VERS.           2.0     :   CWLS log ASCII Standard - VERSION 2.0
WRAP.           NO      :   One line per depth step
~Well Information Section
#MNEM       .UNIT                                         VALUE :DESCRIPTION
#------------------------------------------------------------------------------
STRT        .FT                                            1876 :START DEPTH
STOP        .FT                                            8575 :STOP DEPTH
STEP        .FT                                             0.5 :STEP      
NULL        .                                           -999.25 :NULL      
COMP        .                                      L G D C CORP :COMPANY   
WELL        .                                          GARTH CO :WELL      
FLD         .                                       CHEEK SOUTH :FIELD     
LOC         .                                                   :LOCATION  
CNTY        .                                         JEFFERSON :LOCATION  
STAT        .                                             TEXAS :STATE     
CTRY        .                                     UNITED STATES :COUNTRY   
SRVC        .                                                   :SERVICE COMPANY
DATE        .                             9/13/2023 11:18:46 AM :LOG DATE  
API         .                                    42245322600000 :API NUMBER
UWI         .                                    42245322600000 :UNIQUE WELL ID
XCOORD      .                                  1261779.14844878 :SURFACE X 
YCOORD      .                                  10885364.2183051 :SURFACE Y 
LAT         .                                        29.9878888 :LATITUDE  
LON         .                                       -94.1963831 :LONGITUDE 
ELEV        .FT                                            39.9 :ELEVATION VALUE
ELEV_TYPE   .                                                KB :ELEVATION REFERENCE TYPE
~Curve Information Section
#MNEM       .UNIT                                      API CODE :CURVE DESCRIPTION
#------------------------------------------------------------------------------
DEPT        .FT                                                 :DEPTH     
AT10        .OHMM                                               :          
AT30        .OHMM                                               :          
AT60        .OHMM                                               :          
AT90        .OHMM                                               :          
DCAL        .IN                                                 :          
DPSS        .V/V                                                :          
DRHO        .G/CM3                                              :          
GR          .GAPI                                               :          
GR_NORM     .GAPI                                               :GammaRay Normalized
NPSS        .V/V                                                :Neutron Porosity Sandstone
SP          .MV                                                 :          
SP_NORM     .MV                                                 :SP Normalized
TENS        .LB                                                 :          
VSH_GR      .V/V                                                :Volume of Shale from GR
VSH_SP      .V/V                                                :Volume of Shale from SP
~A        DEPTH           AT10           AT30           AT60           AT90           DCAL           DPSS           DRHO             GR        GR_NORM           NPSS             SP        SP_NORM           TENS         VSH_GR         VSH_SP
# ...
      5973.0000         0.6637         0.6547         0.6488         0.6314           0.84         0.2496         -0.001           83.7       85.50694         0.3804          -35.4       3.231262       2974.832              1              1
      5973.5000         0.6433          0.626         0.6317         0.6147           0.86         0.2556         -0.001           85.2       87.96472         0.3852          -35.2        3.43227       2972.881              1              1
      5974.0000         0.6348          0.615         0.6234         0.6067           0.82         0.2604         -0.001           84.6       86.97746         0.3918          -35.2       3.433281        2970.93              1              1
      5974.5000         0.6352         0.6438         0.6409         0.6237           0.76         0.2586          0.001           83.1       84.51375          0.393            -37       1.634289       2928.982              1              1
      5975.0000         0.6926          0.674         0.6679           0.65           0.78         0.2592          0.003           80.7       80.57355         0.3876          -40.4      -1.764702       2926.836              1      0.9892296
      5975.5000         0.7631         0.7089         0.6929         0.6743           0.98         0.2904          0.003          81.15       81.30881         0.3834          -42.6      -3.963692       2924.885              1      0.9582579
      5976.0000         0.7958         0.7359         0.7191         0.6995           1.04         0.3528              0           82.5       83.52051         0.4278          -41.4      -2.762688        2962.93              1      0.9751734
      5976.5000         0.7961         0.7568         0.7396         0.7194           1.02         0.4194         -0.006           83.4         84.994         0.5562          -40.4      -1.761677       2960.979              1      0.9892722
      5977.0000          0.804         0.7677         0.7607           0.74           1.06         0.4386         -0.014           82.5       83.51457         0.5688          -41.8      -3.160667       2918.837              1      0.9695681
      5977.5000         0.8158         0.7645          0.761         0.7403            1.2         0.4092         -0.017           76.8       74.16073         0.4998          -44.6      -5.959656       2916.886      0.8757602      0.9301457
      5978.0000          0.801         0.7579          0.744         0.7238            1.2         0.3486         -0.012          73.95       69.48234          0.405            -46       -7.35865       2914.935        0.77622      0.9104415
      5978.5000         0.7903         0.7548         0.7376         0.7175            1.2         0.2916         -0.008           71.4       65.29607          0.357          -46.2       -7.55764       2912.984      0.6871504      0.9076388
      5979.0000         0.7763         0.7621         0.7551         0.7345           1.22          0.255         -0.003           68.7       60.86372          0.333            -46      -7.356632       2870.842      0.5928451      0.9104699
      5979.5000         0.7659         0.7115         0.7554         0.7349           1.22           0.24         -0.002          66.45       57.16962         0.3174          -47.2      -8.555626       2868.891      0.5142472      0.8935828
      5980.0000         0.7663         0.6989          0.742         0.7218           1.12         0.2328         -0.001           67.2       58.39703         0.3288          -49.4      -10.75462       2906.936      0.5403622      0.8626111
      5980.5000         0.7845         0.6774         0.7221         0.7024           1.02         0.2376         -0.002          69.45       62.08518          0.342          -51.6      -12.95361       2904.985      0.6188336      0.8316393
      5981.0000         0.7885         0.6685          0.706          0.687           1.02         0.2442         -0.003           73.2        68.2341         0.3516          -51.6      -12.95259       2902.839      0.7496617      0.8316536
      5981.5000         0.7852         0.6719         0.6904         0.6719           1.06         0.2508         -0.003          76.95       74.38301         0.3444          -49.2      -10.55159       2920.886      0.8804896      0.8654706
      5982.0000         0.7963         0.6905          0.669          0.651            1.2         0.2484         -0.003          79.05        77.8251          0.333            -47      -8.350578         2941.1      0.9537256      0.8964707
      5982.5000         0.8268         0.7032         0.6451         0.6278           1.26         0.2467         -0.002          79.65       78.80643         0.3462          -45.8       -7.14957        2943.11      0.9746048      0.9133863
      5983.0000         0.8586         0.7032         0.6193         0.6027           1.26         0.2485         -0.001             78       76.09663         0.3588          -46.2      -7.548565        2945.12      0.9169495      0.9077667
      5983.5000         0.8708         0.6968         0.6138         0.5973            1.2          0.251         -0.001          75.75       72.40252         0.3678          -47.8      -9.147552       2907.126      0.8383515      0.8852457
      5984.0000         0.8749          0.651         0.5681         0.5527           1.02          0.251         -0.001          75.15       71.93034         0.3744          -51.4      -12.74655       2909.137       0.828305      0.8345557
      5984.5000         0.7535         0.5785         0.5069         0.4931           0.86         0.2547         -0.002           74.7        71.2336         0.3822          -57.6      -18.94553       2911.147      0.8134808       0.747246
      5985.0000         0.6027         0.4329         0.4075         0.3964            0.8          0.266         -0.001           74.1       70.30556         0.3846          -70.4      -31.74453       2913.157      0.7937353      0.5669785
      5985.5000         0.4642         0.3332         0.3183         0.3097           0.66         0.2821         -0.003          68.55       61.74427         0.3756          -81.8      -43.14352       2915.167      0.6115801      0.4064293
      5986.0000          0.314         0.2774         0.2449         0.2383           0.52         0.3036         -0.005          60.75       49.71329         0.3636          -94.2      -55.54251       2917.177       0.355602      0.2317957
      5986.5000         0.2461         0.2104         0.2104         0.2047           0.38           0.33         -0.007          52.35        36.7571         0.3558      -104.3564      -65.69791       2919.188      0.0799382     0.08876188
      5987.0000         0.2255         0.2047         0.1991         0.1937           0.36         0.3558         -0.013           50.4       33.74725          0.375      -105.9406      -67.28109       2921.198     0.01589893     0.06646352
      5987.5000         0.2507         0.2153         0.2104            0.2           0.38          0.372         -0.018          52.35        36.7515         0.3978      -105.9406      -67.28008       2923.007     0.07981905     0.06647771
      5988.0000         0.2761         0.2318         0.2224         0.2037           0.42         0.3738         -0.022          56.55        43.2254         0.3768       -100.396      -61.73448       2925.018      0.2175618      0.1445848
      5988.5000         0.2986         0.2438         0.2296         0.2133           0.42         0.3576         -0.023          61.35       50.62457         0.3678          -91.2      -52.53746       2927.028      0.3749908      0.2741202
      5989.0000         0.3735         0.2723         0.2484          0.235           0.46         0.3348         -0.019           66.6       58.71766         0.3642          -79.2      -40.53645       2929.038      0.5471842      0.4431486
      5989.5000         0.4862          0.314         0.2749         0.2589           0.44         0.3102         -0.019          66.75       58.94619          0.366            -81      -42.33545       2931.048      0.5520466      0.4178106
