#------------------------------------------------------------------------------
# Created by    : vladimir.rabinovich
# Created on    : 09/19/2023 17:22:56
#------------------------------------------------------------------------------
~Version Information Section
VERS.           2.0     :   CWLS log ASCII Standard - VERSION 2.0
WRAP.           NO      :   One line per depth step
~Well Information Section
#MNEM       .UNIT                                         VALUE :DESCRIPTION
#------------------------------------------------------------------------------
STRT        .FT                                             120 :START DEPTH
STOP        .FT                                           15526 :STOP DEPTH
STEP        .FT                                             0.5 :STEP      
NULL        .                                           -999.25 :NULL      
COMP        .                                    MOBIL OIL CORP :COMPANY   
WELL        .                                MCFADDIN TRUST BLK :WELL      
FLD         .                                           WILDCAT :FIELD     
LOC         .                                                   :LOCATION  
CNTY        .                                         JEFFERSON :LOCATION  
STAT        .                                             TEXAS :STATE     
CTRY        .                                     UNITED STATES :COUNTRY   
SRVC        .                                                   :SERVICE COMPANY
DATE        .                             9/13/2023 11:19:11 AM :LOG DATE  
API         .                                    42245021130000 :API NUMBER
UWI         .                                    42245021130000 :UNIQUE WELL ID
XCOORD      .                                  1317150.22331494 :SURFACE X 
YCOORD      .                                   10814678.490982 :SURFACE Y 
LAT         .                                        29.7949472 :LATITUDE  
LON         .                                       -94.0194715 :LONGITUDE 
ELEV        .FT                                              18 :ELEVATION VALUE
ELEV_TYPE   .                                                DF :ELEVATION REFERENCE TYPE
~Curve Information Section
#MNEM       .UNIT                                      API CODE :CURVE DESCRIPTION
#------------------------------------------------------------------------------
DEPT        .FT                                                 :DEPTH     
SN          .OHMM                                               :          
SP          .MV                                                 :          
SP_NORM     .MV                                                 :SP Normalized
VSH_SP      .V/V                                                :Volume of Shale from SP
~A        DEPTH             SN             SP        SP_NORM         VSH_SP
# ...
     14483.0000         0.8073       -34.4313      0.1137733              1
     14483.5000         0.8014       -34.4941     0.04852295              1
     14484.0000         0.7955       -34.5571    -0.01692963              1
     14484.5000         0.7897       -34.6199    -0.08218384              1
     14485.0000         0.7822       -34.6828     -0.1475372              1
     14485.5000         0.7724       -34.7296     -0.1967888              1
     14486.0000         0.7627       -34.7651     -0.2347412              1
     14486.5000          0.753       -34.8005     -0.2725906              1
     14487.0000         0.7476       -34.8359     -0.3104439              1
     14487.5000         0.7423       -34.8714     -0.3483963              1
     14488.0000          0.737       -34.9068     -0.3862495              1
     14488.5000         0.7316       -34.9421     -0.4240036              1
     14489.0000         0.7273       -34.9567     -0.4410553              1
     14489.5000         0.7231       -34.9713      -0.458107              1
     14490.0000         0.7189        -34.986     -0.4752579              1
     14490.5000         0.7158       -35.0005     -0.4922104              1
     14491.0000         0.7157       -35.0151     -0.5092621              1
     14491.5000         0.7155       -35.0285      -0.525116              1
     14492.0000         0.7162       -34.9407     -0.4397697              1
     14492.5000          0.717       -34.8531     -0.3546219              1
     14493.0000         0.7178       -34.7653     -0.2692757              1
     14493.5000         0.7184       -34.6774     -0.1838226              1
     14494.0000         0.7183       -34.5896    -0.09847641              1
     14494.5000         0.7181       -34.5018    -0.01313019              1
     14495.0000          0.718       -34.4349     0.05131912              1
     14495.5000         0.7178       -34.3819      0.1018639              1
     14496.0000         0.7176        -34.329      0.1523132              1
     14496.5000         0.7175       -34.3057      0.1731606              1
     14497.0000         0.7182       -34.2825      0.1939087              1
     14497.5000         0.7189       -34.2723      0.2016563              1
     14498.0000         0.7196       -34.3124      0.1591034              1
     14498.5000         0.7203       -34.3524      0.1166496              1
     14499.0000         0.7194       -34.3924     0.07419968              1
     14499.5000         0.7181       -34.4324     0.03174591              1
     14500.0000         0.7168       -34.4724    -0.01070786              1
     14500.5000         0.7155       -34.5455    -0.08626175              1
     14501.0000         0.7142       -34.6644     -0.2076073              1
     14501.5000         0.7129       -34.7836     -0.3292618              1
     14502.0000         0.7101       -34.9028     -0.4509163              1
     14502.5000         0.7069        -35.022      -0.572567              1
     14503.0000         0.7037       -35.1223     -0.6753197              1
     14503.5000         0.7005       -35.2106     -0.7660751              1
     14504.0000         0.6949        -35.299      -0.856926              1
     14504.5000         0.6832       -35.3877     -0.9480743              1
     14505.0000         0.6719       -35.4761      -1.038929      0.9994358
     14505.5000         0.6627       -35.5645       -1.12978      0.9981191
     14506.0000         0.6535       -35.6529      -1.220634      0.9968024
     14506.5000         0.6443       -35.7416      -1.311787      0.9954814
     14507.0000         0.6363         -35.83      -1.402641      0.9941646
     14507.5000         0.6332       -35.8705      -1.445591      0.9935421
     14508.0000         0.6302       -35.8978      -1.475342       0.993111
     14508.5000         0.6326       -35.9253      -1.505295      0.9926769
     14509.0000          0.636       -35.9527      -1.535149      0.9922442
     14509.5000         0.6395       -35.9801      -1.564999      0.9918116
     14510.0000          0.643       -36.0076      -1.594952      0.9913775
     14510.5000         0.6472        -36.035      -1.624805      0.9909449
     14511.0000         0.6518       -36.0624      -1.654659      0.9905122
     14511.5000         0.6564       -36.0898      -1.684509      0.9900796
     14512.0000         0.6609       -36.1172      -1.714359       0.989647
     14512.5000         0.6655       -36.1307      -1.730312      0.9894158
     14513.0000         0.6701       -36.1397      -1.741768      0.9892498
     14513.5000         0.6746       -36.1488      -1.753319      0.9890823
     14514.0000         0.6792       -36.1578      -1.764771      0.9889164
     14514.5000         0.6837       -36.1669      -1.776325      0.9887489
     14515.0000         0.6883        -36.176      -1.787872      0.9885815
     14515.5000         0.6928       -36.1851      -1.799427      0.9884141
     14516.0000         0.6974       -36.1922      -1.808979      0.9882756
     14516.5000         0.7042       -36.1992      -1.818432      0.9881387
     14517.0000         0.7111       -36.2061      -1.827785      0.9880031
     14517.5000         0.7181        -36.213      -1.837139      0.9878675
     14518.0000          0.725       -36.2199      -1.846489      0.9877321
     14518.5000          0.732       -36.2268      -1.855839      0.9875965
     14519.0000          0.739       -36.2337      -1.865192       0.987461
     14519.5000         0.7459       -36.2407      -1.874645       0.987324
     14520.0000         0.7529       -36.2405        -1.8769      0.9872913
     14520.5000         0.7616        -36.218       -1.85685      0.9875819
     14521.0000         0.7711       -36.1955      -1.836803      0.9878724
     14521.5000         0.7807        -36.173      -1.816757      0.9881629
     14522.0000         0.7902       -36.1506      -1.796806      0.9884521
     14522.5000         0.7998       -36.1281       -1.77676      0.9887426
     14523.0000         0.8093       -36.1056       -1.75671      0.9890332
     14523.5000         0.8189       -36.0847      -1.738266      0.9893005
     14524.0000         0.8284       -36.0665      -1.722519      0.9895287
     14524.5000          0.838       -36.0483      -1.706772      0.9897569
     14525.0000         0.8492       -36.0302      -1.691124      0.9899837
     14525.5000         0.8605       -36.0127      -1.676075      0.9902018
     14526.0000         0.8717       -36.0113      -1.677124      0.9901866
     14526.5000          0.883       -36.0098      -1.678078      0.9901728
     14527.0000         0.8942       -36.0084      -1.679131      0.9901575
     14527.5000         0.9055        -36.007      -1.680183      0.9901423
     14528.0000         0.9167       -36.0016      -1.677235       0.990185
     14528.5000          0.929       -35.9883      -1.666389      0.9903422
     14529.0000         0.9433        -35.975       -1.65554      0.9904994
     14529.5000         0.9545       -35.9617      -1.644691      0.9906567
     14530.0000         0.9636       -35.9484      -1.633842      0.9908139
     14530.5000         0.9596        -35.935      -1.622898      0.9909725
     14531.0000         0.9556       -35.9209      -1.611248      0.9911413
     14531.5000         0.9516       -35.9041      -1.596901      0.9913493
     14532.0000         0.9476       -35.8873      -1.582554      0.9915572
     14532.5000         0.9436       -35.8705      -1.568207      0.9917651
     14533.0000         0.9396       -35.8538      -1.553959      0.9919716
     14533.5000         0.9356       -35.8346      -1.537209      0.9922144
     14534.0000         0.9316       -35.8132      -1.518265      0.9924889
     14534.5000         0.9276       -35.7919      -1.499416      0.9927621
     14535.0000         0.9243       -35.7706      -1.480568      0.9930353
     14535.5000         0.9209       -35.7492       -1.46162      0.9933099
