#------------------------------------------------------------------------------
# Created by    : vladimir.rabinovich
# Created on    : 09/19/2023 17:22:24
#------------------------------------------------------------------------------
~Version Information Section
VERS.           2.0     :   CWLS log ASCII Standard - VERSION 2.0
WRAP.           NO      :   One line per depth step
~Well Information Section
#MNEM       .UNIT                                         VALUE :DESCRIPTION
#------------------------------------------------------------------------------
STRT        .FT                                            1850 :START DEPTH
STOP        .FT                                            8215 :STOP DEPTH
STEP        .FT                                             0.5 :STEP      
NULL        .                                           -999.25 :NULL      
COMP        .                                  NOBLE ENERGY INC :COMPANY   
WELL        .                                           MEADOWS :WELL      
FLD         .                                          BINDWEED :FIELD     
LOC         .                                                   :LOCATION  
CNTY        .                                         JEFFERSON :LOCATION  
STAT        .                                             TEXAS :STATE     
CTRY        .                                     UNITED STATES :COUNTRY   
SRVC        .                                                   :SERVICE COMPANY
DATE        .                             9/13/2023 11:18:46 AM :LOG DATE  
API         .                                    42245325230000 :API NUMBER
UWI         .                                    42245325230000 :UNIQUE WELL ID
XCOORD      .                                  1273245.27472043 :SURFACE X 
YCOORD      .                                  10899721.9019567 :SURFACE Y 
LAT         .                                           30.0277 :LATITUDE  
LON         .                                       -94.1606194 :LONGITUDE 
ELEV        .FT                                              29 :ELEVATION VALUE
ELEV_TYPE   .                                                KB :ELEVATION REFERENCE TYPE
~Curve Information Section
#MNEM       .UNIT                                      API CODE :CURVE DESCRIPTION
#------------------------------------------------------------------------------
DEPT        .FT                                                 :DEPTH     
CALX        .IN                                                 :          
DPSS        .%                                                  :          
DRHO        .G/CM3                                              :          
DT24        .US/FT                                              :          
GR          .GAPI                                               :          
GR_NORM     .GAPI                                               :GammaRay Normalized
M2R1        .OHMM                                               :          
M2R2        .OHMM                                               :          
M2R3        .OHMM                                               :          
M2R6        .OHMM                                               :          
M2R9        .OHMM                                               :          
M2RX        .OHMM                                               :          
NPSS        .%                                                  :Neutron Porosity Sandstone
SP          .MV                                                 :          
SP_NORM     .MV                                                 :SP Normalized
TENS        .LB                                                 :          
VSH_GR      .V/V                                                :Volume of Shale from GR
VSH_SP      .V/V                                                :Volume of Shale from SP
~A        DEPTH           CALX           DPSS           DRHO           DT24             GR        GR_NORM           M2R1           M2R2           M2R3           M2R6           M2R9           M2RX           NPSS             SP        SP_NORM           TENS         VSH_GR         VSH_SP
# ...
      2004.0000         11.675          55.68        -0.0082       131.8136         65.221       73.55555              1          0.772            0.6         0.5233         0.4685          0.419        48.7254            -48      -38.12346       -47.5248       0.862884      0.2423784
      2004.5000        13.1811          59.75        -0.0204       133.8332        66.1011       74.75819         0.9717          0.822         0.6481         0.5428         0.4817         0.4269        49.2105          -46.8      -36.92345       -28.5149      0.8884722      0.2668683
      2005.0000        15.5613         62.625        -0.0347       135.8565        67.5768       76.77239         0.9262         0.8295         0.6671         0.5578         0.4908         0.4309        50.6657            -44      -34.12346        -29.505      0.9313275      0.3240111
      2005.5000        15.9974          64.75        -0.0449       135.8624        69.6499       79.60062         0.9174         0.8371         0.7126         0.5733         0.5329         0.4472        52.9728            -40      -30.12346       -30.6931      0.9915025      0.4056437
      2006.0000        15.6789         61.875        -0.0408       134.2495        72.0247        82.8399         0.9442         0.8838         0.7789         0.6543         0.5946         0.5046        54.1912          -34.8      -24.92346       -31.6832              1      0.5117662
      2006.5000        12.1199        53.7551        -0.0204            161           56.7       61.96229          0.981         0.9442         0.8524         0.7319         0.6607         0.5946        53.2259            -28      -18.12346           -100       0.616219      0.6505417
      2007.0000         10.555        43.2941           0.01       151.0417           64.5       72.59383         1.0187              1         0.9352         0.8295         0.7384         0.6607        51.4064          -23.2      -13.32346           -100       0.842422      0.7485009
      2007.5000         10.275        35.2653          0.044          146.8           69.6       79.54642         1.0377         1.0187         1.0281         0.9174         0.8295         0.7319        51.5316       -17.9592      -8.082657           -100      0.9903493       0.855456
      2008.0000         10.155        30.2449          0.066          144.2           73.8        85.2727         0.9905         1.0187         1.0767         1.0093         0.9087          0.822        52.8761        -15.102      -5.225457           -100              1      0.9137662
      2008.5000         10.075        29.2653          0.068        149.375           75.9       88.13754         0.9624         1.0093         1.0767         1.0668              1         0.9262        54.4612       -13.4694      -3.592857           -100              1      0.9470845
      2009.0000         10.155        30.3673          0.068       151.0417           76.5       88.95854         0.9442         1.0093         1.0867          1.107         1.0767         1.0187        54.7073       -12.6531      -2.776557       -79.1667              1      0.9637437
      2009.5000         10.195        31.8367          0.064       153.9583           76.2        88.5532         0.9352         1.0093          1.107         1.1594         1.1381         1.1381        53.0133       -11.4286      -1.552057       -79.1667              1      0.9887335
      2010.0000         10.235        32.8163          0.064            155           73.5       84.87771         0.9352         1.0093          1.107          1.192          1.203         1.2834        51.5496       -10.6122     -0.7356567       -79.1667              1              1
      2010.5000         10.275        33.3061          0.062            155           71.1       81.61098         0.9353         1.0093          1.107         1.2255         1.2716         1.3819        52.0408        -9.7899     0.08664322       -79.1667              1              1
      2011.0000         10.355        33.3061         0.0621       154.7917             69       78.75302         0.9356         1.0093         1.0968         1.2368         1.2953         1.4607         52.898        -9.7798     0.09674263       -79.1667      0.9734685              1
      2011.5000         10.395        33.1837         0.0642       154.5833           68.1       77.53015         0.9271         1.0093         1.0867         1.2368         1.3195          1.544        52.2857        -9.3627      0.5138426       -79.1667        0.94745              1
      2012.0000         10.395        33.3061         0.0622         153.75           67.8       77.12483         0.9187         1.0093         1.0767         1.2368         1.3195         1.5728        50.5714        -9.7597      0.1168432       -79.1667      0.9388262              1
      2012.5000         10.395         33.551         0.0623       152.9167           70.2       80.39848         0.9105         1.0093         1.0767         1.2368         1.3318          1.617        49.8367        -9.7497      0.1268435       -79.1667              1              1
      2013.0000         10.435        33.1837         0.0644       151.4583           68.7       78.35804         0.9544         1.0377         1.1173         1.2599         1.3692         1.6779        49.9592        -9.3339      0.5426426       -79.1667      0.9650647              1
      2013.5000         10.475        32.2041         0.0664       149.7917           66.3       75.09132              1         1.0867         1.1701         1.3195          1.434         1.7573        49.7143        -8.9189      0.9576435       -79.1667      0.8955601              1
      2014.0000         10.515        30.9796         0.0705          148.8           62.7        70.1895         1.0473         1.1487         1.2142         1.3692          1.488         1.8067        48.6122        -8.5048       1.371743       -79.1667      0.7912659              1
      2014.5000         10.555        29.5102         0.0726          147.4             60       66.51399         1.0867         1.1701         1.2368         1.3819         1.5018         1.7736        46.7059        -8.0915       1.785043       -79.1667      0.7130637              1
      2015.0000         10.635        28.7755         0.0727          145.8           60.6       67.33498         1.0767         1.1594         1.2368         1.3819         1.4743         1.7251        43.1765         -7.275       2.601543       -79.1667      0.7305314              1
      2015.5000         10.675         28.898         0.0707          144.6           63.6       71.42616          1.057         1.1487         1.2255         1.3441          1.434         1.6472        40.2857        -6.8652       3.011343       -79.1667       0.817578              1
      2016.0000         10.675        29.3878         0.0688            144           67.2       76.33488         1.0377         1.1277          1.192         1.3195         1.3819         1.5728        37.5918        -7.2616       2.614943       -79.1667      0.9220188              1
      2016.5000         10.675        29.8776         0.0689          143.4           69.6       79.60852         1.0187          1.107         1.1701         1.2834         1.3441          1.488         37.102        -7.2542       2.620707       -79.1667      0.9916707              1
      2017.0000         10.675        29.8776          0.073          143.2           70.8       81.24706              1         1.0867         1.1594         1.2599         1.3074          1.434        40.1633        -7.6495       2.223345       -79.1667              1              1
      2017.5000         10.675        29.6327         0.0731          144.8           71.4       82.06805         0.9911         1.0668         1.1381         1.2483         1.2834         1.3947        43.1765        -8.0439       1.826884       -79.1667              1              1
