#------------------------------------------------------------------------------
# Created by    : vladimir.rabinovich
# Created on    : 09/19/2023 17:22:42
#------------------------------------------------------------------------------
~Version Information Section
VERS.           2.0     :   CWLS log ASCII Standard - VERSION 2.0
WRAP.           NO      :   One line per depth step
~Well Information Section
#MNEM       .UNIT                                         VALUE :DESCRIPTION
#------------------------------------------------------------------------------
STRT        .FT                                             932 :START DEPTH
STOP        .FT                                            7546 :STOP DEPTH
STEP        .FT                                             0.5 :STEP      
NULL        .                                           -999.25 :NULL      
COMP        .                   SUN EXPLORATION & PRODUCTION CO :COMPANY   
WELL        .                                BROUSSARD & HEBERT :WELL      
FLD         .                                          LA BELLE :FIELD     
LOC         .                                                   :LOCATION  
CNTY        .                                         JEFFERSON :LOCATION  
STAT        .                                             TEXAS :STATE     
CTRY        .                                     UNITED STATES :COUNTRY   
SRVC        .                                                   :SERVICE COMPANY
DATE        .                             9/13/2023 11:18:46 AM :LOG DATE  
API         .                                    42245319210000 :API NUMBER
UWI         .                                    42245319210000 :UNIQUE WELL ID
XCOORD      .                                  1279394.73540744 :SURFACE X 
YCOORD      .                                  10819915.3695329 :SURFACE Y 
LAT         .                                        29.8083786 :LATITUDE  
LON         .                                       -94.1386839 :LONGITUDE 
ELEV        .FT                                              23 :ELEVATION VALUE
ELEV_TYPE   .                                                KB :ELEVATION REFERENCE TYPE
~Curve Information Section
#MNEM       .UNIT                                      API CODE :CURVE DESCRIPTION
#------------------------------------------------------------------------------
DEPT        .FT                                                 :DEPTH     
DCAL        .IN                                                 :          
DPSS        .V/V                                                :          
DRHO        .G/CM3                                              :          
GR          .GAPI                                               :          
GR_NORM     .GAPI                                               :GammaRay Normalized
ILD         .OHMM                                               :          
ILM         .OHMM                                               :          
NPSS        .V/V                                                :Neutron Porosity Sandstone
SFL         .OHMM                                               :          
SP          .MV                                                 :          
SP_NORM     .MV                                                 :SP Normalized
TENS        .LB                                                 :          
VSH_GR      .V/V                                                :Volume of Shale from GR
VSH_SP      .V/V                                                :Volume of Shale from SP
~A        DEPTH           DCAL           DPSS           DRHO             GR        GR_NORM            ILD            ILM           NPSS            SFL             SP        SP_NORM           TENS         VSH_GR         VSH_SP
# ...
      6638.0000        -3.1774         0.3162         0.0541        90.7442       85.35171          0.733          0.611         0.5015         0.5865        -3.9912      -2.450358        3795.73              1      0.9816411
      6638.5000        -3.1979         0.3223         0.0462        90.4463       84.99114          0.713         0.6055         0.4865         0.5655        -4.7917      -3.252023       3796.228              1      0.9714934
      6639.0000        -3.1786          0.326         0.0433        89.5313       83.88731         0.6843         0.6027          0.466         0.5655        -5.3934      -3.854889       3796.726              1      0.9638622
      6639.5000        -3.1192         0.3284         0.0462        87.3438       81.25079          0.651         0.5973         0.4527         0.5812         -6.795      -5.257655       3797.223              1      0.9461057
      6640.0000        -3.0998         0.3382         0.0598        83.5938       76.73227          0.611         0.5919         0.4551         0.5946        -9.9975      -8.461321       3797.771      0.9304738      0.9055529
      6640.5000          -3.06         0.3515         0.0716        81.0945       73.72017         0.5378         0.5403         0.4552         0.5681            -19      -17.46498        3797.98      0.8663866      0.7915825
      6641.0000          -3.06         0.3594         0.0725        79.3799       71.65324         0.4642         0.4751         0.4437         0.5023       -29.7102      -28.17635       3787.879      0.8224093      0.6559955
      6641.5000          -3.06         0.3636         0.0598        76.4221        68.0889         0.4021         0.4134         0.4219         0.4686       -42.9351      -41.40242       3787.879      0.7465723       0.488577
      6642.0000          -3.06         0.3636         0.0412        72.3955       63.23722         0.3243         0.3703         0.4027         0.5329       -52.0758      -50.54428       3777.778      0.6433451      0.3728572
      6642.5000          -3.06          0.363         0.0275         69.621       59.89367         0.2906         0.3333         0.3997         0.6055       -58.7092      -57.17885       3777.778      0.5722058      0.2888753
      6643.0000          -3.06           0.36         0.0167        70.3551       60.77613         0.2581         0.3014         0.4069         0.5973       -60.3358      -58.80661       3777.778      0.5909814      0.2682707
      6643.5000          -3.06          0.357         0.0118        75.0512       66.43072         0.2367         0.2776         0.4064         0.5092       -60.3264      -58.79838       3777.778      0.7112918      0.2683749
      6644.0000          -3.06         0.3545         0.0078        77.8488       69.79861         0.2161         0.2689         0.3955         0.4518       -60.1213      -58.59444       3777.778      0.7829491      0.2709564
      6644.5000          -3.06         0.3552          0.002        77.8536       69.80264         0.2112         0.2677         0.3853         0.4797       -58.6732      -57.14751       3767.677      0.7830348      0.2892721
      6645.0000          -3.06         0.3527         -0.003        77.0848       68.87489         0.2171         0.2726         0.3926         0.5115       -55.7762      -54.25167       3767.677      0.7632956      0.3259282
      6645.5000          -3.06         0.3461          0.001        75.8539       67.39055         0.2272          0.284         0.4173          0.471       -52.8851      -51.36174       3767.677      0.7317138      0.3625096
      6646.0000          -3.06         0.3376         0.0069        75.2432       66.65326         0.2422         0.2986         0.4384         0.4218       -50.4117      -48.88951       3787.879      0.7160268      0.3938037
      6646.5000          -3.06         0.3339         0.0098        75.0964       66.47468         0.2581         0.3127         0.4396         0.4689       -50.2057      -48.68467       3787.879      0.7122272      0.3963965
      6647.0000          -3.06          0.337         0.0088        73.4769       64.52229         0.2726         0.3245         0.4083         0.5578       -51.0272      -49.50734       3787.879      0.6706869      0.3859831
      6647.5000          -3.06         0.3424         0.0078        72.0055       62.74829         0.2893         0.3336         0.3824         0.6393       -51.2314       -49.7127       3787.879      0.6329423      0.3833835
      6648.0000          -3.08         0.3388         0.0049        73.0451        63.9987         0.3084         0.3399         0.3648         0.6781       -48.7699      -47.25237       3787.879      0.6595469       0.414527
      6648.5000          -3.06         0.3224         0.0127        75.2803        66.6892         0.3337         0.3677         0.3612         0.6481        -43.446      -41.92963       3787.879      0.7167915      0.4819034
      6649.0000          -3.06          0.303         0.0167        77.2826       69.09917         0.3627         0.3998         0.3673         0.5973       -37.1785       -35.6633       3787.879      0.7680675       0.561224
      6649.5000          -3.06         0.2897         0.0206         75.755       67.25749          0.398         0.4321         0.3776         0.5502       -32.1909      -30.67686        3797.98      0.7288828      0.6243435
      6650.0000          -3.06         0.2903         0.0245        74.9962        66.3418         0.4322         0.4649         0.3861         0.5681       -30.1975      -28.68463        3797.98      0.7093999      0.6495616
      6650.5000        -3.0803         0.2988         0.0255        75.3061        66.7133         0.4691         0.4865         0.3903         0.6222            -30       -28.4883        3797.98      0.7173043      0.6520469
      6651.0000        -3.0607         0.3048         0.0265        77.7551       69.66132         0.5115         0.5139         0.3927         0.6968          -29.8      -28.28946       3787.879       0.780028      0.6545638
      6651.5000        -3.0612         0.3024         0.0275        79.7449       72.05624         0.5378         0.5502         0.4006         0.7432          -28.8      -27.29063       3787.879      0.8309838      0.6672072
      6652.0000        -3.0616         0.2976         0.0216        78.6735       69.54733         0.5655         0.5865         0.4121         0.7398            -27      -25.49179       3787.879      0.7776027      0.6899773
      6652.5000        -3.0422          0.297         0.0127        76.0714       65.99831         0.5838         0.6055         0.4121            0.7          -25.6      -24.09296       3787.879      0.7020918      0.7076841
      6653.0000        -3.0626         0.2994         0.0049        75.6122       65.37038         0.5838         0.5973         0.4012         0.7163          -24.2      -22.69412       3787.879      0.6887316      0.7253909
      6653.5000        -3.0631         0.3018         0.0069        77.2959       67.66354         0.5629         0.5838          0.383         0.8075          -24.4      -22.89529       3787.879      0.7375221      0.7228444
      6654.0000        -3.0436         0.3012         0.0186        79.5918        70.7912         0.5329         0.5629         0.3721         0.8577            -27      -25.49645       3787.879       0.804068      0.6899183
      6654.5000        -3.0441         0.3018         0.0186         79.898       71.20661         0.5023         0.5329         0.3709         0.7097            -33      -31.49762       3787.879      0.8129066      0.6139542
      6655.0000        -3.0446         0.3109         0.0127        75.7653       65.57117         0.4603         0.4931         0.3739         0.5707       -42.0408      -40.53959       3787.879      0.6930037      0.4994989
      6655.5000         -3.045         0.3248         0.0049        69.9505       57.64279         0.4178         0.4456         0.3776         0.5477       -50.2041      -48.70405       3787.879      0.5243147      0.3961512
