#------------------------------------------------------------------------------
# Created by    : vladimir.rabinovich
# Created on    : 09/19/2023 17:22:24
#------------------------------------------------------------------------------
~Version Information Section
VERS.           2.0     :   CWLS log ASCII Standard - VERSION 2.0
WRAP.           NO      :   One line per depth step
~Well Information Section
#MNEM       .UNIT                                         VALUE :DESCRIPTION
#------------------------------------------------------------------------------
STRT        .FT                                            1850 :START DEPTH
STOP        .FT                                            8215 :STOP DEPTH
STEP        .FT                                             0.5 :STEP      
NULL        .                                           -999.25 :NULL      
COMP        .                                  NOBLE ENERGY INC :COMPANY   
WELL        .                                           MEADOWS :WELL      
FLD         .                                          BINDWEED :FIELD     
LOC         .                                                   :LOCATION  
CNTY        .                                         JEFFERSON :LOCATION  
STAT        .                                             TEXAS :STATE     
CTRY        .                                     UNITED STATES :COUNTRY   
SRVC        .                                                   :SERVICE COMPANY
DATE        .                             9/13/2023 11:18:46 AM :LOG DATE  
API         .                                    42245325230000 :API NUMBER
UWI         .                                    42245325230000 :UNIQUE WELL ID
XCOORD      .                                  1273245.27472043 :SURFACE X 
YCOORD      .                                  10899721.9019567 :SURFACE Y 
LAT         .                                           30.0277 :LATITUDE  
LON         .                                       -94.1606194 :LONGITUDE 
ELEV        .FT                                              29 :ELEVATION VALUE
ELEV_TYPE   .                                                KB :ELEVATION REFERENCE TYPE
~Curve Information Section
#MNEM       .UNIT                                      API CODE :CURVE DESCRIPTION
#------------------------------------------------------------------------------
DEPT        .FT                                                 :DEPTH     
CALX        .IN                                                 :          
DPSS        .%                                                  :          
DRHO        .G/CM3                                              :          
DT24        .US/FT                                              :          
GR          .GAPI                                               :          
GR_NORM     .GAPI                                               :GammaRay Normalized
M2R1        .OHMM                                               :          
M2R2        .OHMM                                               :          
M2R3        .OHMM                                               :          
M2R6        .OHMM                                               :          
M2R9        .OHMM                                               :          
M2RX        .OHMM                                               :          
NPSS        .%                                                  :Neutron Porosity Sandstone
SP          .MV                                                 :          
SP_NORM     .MV                                                 :SP Normalized
TENS        .LB                                                 :          
VSH_GR      .V/V                                                :Volume of Shale from GR
VSH_SP      .V/V                                                :Volume of Shale from SP
~A        DEPTH           CALX           DPSS           DRHO           DT24             GR        GR_NORM           M2R1           M2R2           M2R3           M2R6           M2R9           M2RX           NPSS             SP        SP_NORM           TENS         VSH_GR         VSH_SP
# ...
      4062.0000          9.435        -999.25          0.066          139.4        65.5102       72.75599         0.8825         0.9487         1.0093         1.1173         1.1487          1.181        -999.25           -4.8      -2.717263       -59.1837      0.8458721      0.9723022
      4062.5000          9.435        -999.25          0.066            140        65.2041       72.32805         0.8825         0.9487         1.0187         1.1173         1.1381          1.181        -999.25             -4      -1.924953       -59.1837       0.836767      0.9850814
      4063.0000          9.435        -999.25          0.066          140.4         62.449       68.56316            0.9          0.957         1.0281         1.1173         1.1381          1.192        -999.25           -3.6      -1.532644       -59.1837      0.7566631      0.9914089
      4063.5000          9.435        -999.25          0.062          141.4        60.3061       65.63244         0.9079          0.974         1.0377         1.1277         1.1487          1.203        -999.25           -3.2      -1.140335       -38.7755      0.6943072      0.9977365
      4064.0000          9.435        -999.25          0.064          141.8           59.1       63.97819          0.924         0.9826         1.0473         1.1381         1.1701         1.2255        -999.25           -2.8     -0.7480252       -38.7755      0.6591104              1
      4064.5000          9.435        -999.25          0.068            140           58.2       62.74104          0.924         0.9913          1.057         1.1594          1.181         1.2368        -999.25           -2.8     -0.7557156       -18.3673       0.632788              1
      4065.0000          9.435        -999.25           0.07          137.8           57.3       61.50387         0.9404              1         1.0767         1.1701          1.203         1.2599        -999.25           -3.2      -1.163406         2.0408      0.6064653      0.9973644
      4065.5000          9.435        -999.25          0.074          135.4           56.7       60.67546         0.9487         1.0093         1.0867          1.181         1.2142         1.2716        -999.25           -3.2      -1.171097         2.0408      0.5888395      0.9972404
      4066.0000          9.435        -999.25          0.076          133.8           57.6       61.89093          0.957         1.0281         1.0968          1.192         1.2368         1.2716        -999.25             -4      -1.978787       -59.1837      0.6147006      0.9842131
      4066.5000          9.435        -999.25          0.074          133.6           58.5        63.1064          0.974         1.0377         1.1173          1.192         1.2368         1.2834        -999.25             -4      -1.986478       -59.1837      0.6405616      0.9840891
      4067.0000          9.435        -999.25           0.07          133.2           57.6       61.86922          0.974         1.0473         1.1173          1.203         1.2368         1.2834        -999.25             -4      -1.994169       -59.1837      0.6142388       0.983965
      4067.5000          9.435        -999.25          0.068          133.4           56.7       60.63205          0.974         1.0473         1.1173          1.203         1.2368         1.2834        -999.25           -4.8      -2.801859       -59.1837       0.587916      0.9709377
      4068.0000          9.395        -999.25          0.066          133.8           56.4       60.21243         0.9913          1.057         1.1277         1.2142         1.2368         1.2834        -999.25           -4.8       -2.80955       -59.1837      0.5789878      0.9708137
      4068.5000          9.395        -999.25          0.066          134.2           55.8       59.38403              1         1.0668         1.1381         1.2142         1.2483         1.2953        -999.25           -4.8       -2.81724       -59.1837      0.5613624      0.9706897
      4069.0000          9.395        -999.25          0.066            134           55.2       58.55563         1.0093         1.0668         1.1381         1.2142         1.2483         1.3074        -999.25           -5.2      -3.224931       -59.1837      0.5437368       0.964114
      4069.5000          9.395        -999.25          0.066            133           53.4       56.09215              1         1.0668         1.1277         1.2255         1.2599         1.3074        -999.25           -5.2      -3.232621       -59.1837      0.4913224        0.96399
      4070.0000          9.435        -999.25          0.066            132           52.8       55.26375         0.9913         1.0668         1.1277         1.2142         1.2599         1.2953        -999.25           -5.6      -3.640312       -59.1837      0.4736969      0.9574143
      4070.5000         9.4738        -999.25          0.066        130.806           53.7       56.47922         0.9825         1.0668         1.1173          1.203         1.2368         1.2599        -999.25             -6      -4.048003       -59.1837      0.4995578      0.9508387
      4071.0000         9.5518        -999.25          0.072        130.816           55.2       58.51224         0.9738          1.057          1.107          1.181         1.2142         1.2255        -999.25             -6      -4.055693       -59.1837      0.5428135      0.9507146
      4071.5000         9.5498        -999.25          0.072        131.026             57         60.954         0.9651         1.0377         1.0968         1.1701          1.192         1.2142        -999.25             -6      -4.063384       -59.1837       0.594766      0.9505906
      4072.0000         9.5478        -999.25          0.074        131.036           57.6        61.7607         0.9564         1.0281         1.0867         1.1701          1.192         1.2142        -999.25           -5.6      -3.671074       -59.1837      0.6119298      0.9569182
      4072.5000         9.5058        -999.25          0.078        130.646           58.5       62.97617         0.9477         1.0093         1.0867         1.1701          1.192         1.2142        -999.25             -6      -4.078765       -59.1837      0.6377909      0.9503425
      4073.0000         9.4638        -999.25          0.078       129.6609           59.1       63.78286         0.9475         1.0093         1.0767         1.1594          1.192         1.2142        -999.25             -6      -4.086455       -59.1837      0.6549545      0.9502184
      4073.5000         9.4618        -999.25          0.074       128.4865           59.7       64.58955         0.9473         1.0093         1.0767         1.1381          1.181         1.2142        -999.25           -6.8      -4.894146       -59.1837      0.6721182      0.9371912
      4074.0000         9.4998        -999.25          0.074       126.9147        60.3061       65.40457         0.9471         1.0093         1.0767         1.1381         1.1701          1.203        -999.25           -6.8      -4.901837       -59.1837       0.689459      0.9370672
      4074.5000         9.5378        -999.25           0.07       125.9328        61.2245        66.6451         0.9468         1.0093         1.0767         1.1381         1.1701          1.203        -999.25           -6.4      -4.509527       -59.1837      0.7158533      0.9433947
      4075.0000         9.5358        -999.25           0.07        125.147        61.5306       67.05135         0.9466         1.0093         1.0767         1.1381         1.1701          1.192        -999.25           -6.4      -4.517218       -59.1837      0.7244967      0.9432707
      4075.5000         9.5338        -999.25           0.07        124.953        61.5306       67.04048         0.9464         1.0093         1.0767         1.1381         1.1701          1.192        -999.25           -6.4      -4.524909       -59.1837      0.7242656      0.9431466
