#------------------------------------------------------------------------------
# Created by    : vladimir.rabinovich
# Created on    : 09/19/2023 17:22:24
#------------------------------------------------------------------------------
~Version Information Section
VERS.           2.0     :   CWLS log ASCII Standard - VERSION 2.0
WRAP.           NO      :   One line per depth step
~Well Information Section
#MNEM       .UNIT                                         VALUE :DESCRIPTION
#------------------------------------------------------------------------------
STRT        .FT                                            1850 :START DEPTH
STOP        .FT                                            8215 :STOP DEPTH
STEP        .FT                                             0.5 :STEP      
NULL        .                                           -999.25 :NULL      
COMP        .                                  NOBLE ENERGY INC :COMPANY   
WELL        .                                           MEADOWS :WELL      
FLD         .                                          BINDWEED :FIELD     
LOC         .                                                   :LOCATION  
CNTY        .                                         JEFFERSON :LOCATION  
STAT        .                                             TEXAS :STATE     
CTRY        .                                     UNITED STATES :COUNTRY   
SRVC        .                                                   :SERVICE COMPANY
DATE        .                             9/13/2023 11:18:46 AM :LOG DATE  
API         .                                    42245325230000 :API NUMBER
UWI         .                                    42245325230000 :UNIQUE WELL ID
XCOORD      .                                  1273245.27472043 :SURFACE X 
YCOORD      .                                  10899721.9019567 :SURFACE Y 
LAT         .                                           30.0277 :LATITUDE  
LON         .                                       -94.1606194 :LONGITUDE 
ELEV        .FT                                              29 :ELEVATION VALUE
ELEV_TYPE   .                                                KB :ELEVATION REFERENCE TYPE
~Curve Information Section
#MNEM       .UNIT                                      API CODE :CURVE DESCRIPTION
#------------------------------------------------------------------------------
DEPT        .FT                                                 :DEPTH     
CALX        .IN                                                 :          
DPSS        .%                                                  :          
DRHO        .G/CM3                                              :          
DT24        .US/FT                                              :          
GR          .GAPI                                               :          
GR_NORM     .GAPI                                               :GammaRay Normalized
M2R1        .OHMM                                               :          
M2R2        .OHMM                                               :          
M2R3        .OHMM                                               :          
M2R6        .OHMM                                               :          
M2R9        .OHMM                                               :          
M2RX        .OHMM                                               :          
NPSS        .%                                                  :Neutron Porosity Sandstone
SP          .MV                                                 :          
SP_NORM     .MV                                                 :SP Normalized
TENS        .LB                                                 :          
VSH_GR      .V/V                                                :Volume of Shale from GR
VSH_SP      .V/V                                                :Volume of Shale from SP
~A        DEPTH           CALX           DPSS           DRHO           DT24             GR        GR_NORM           M2R1           M2R2           M2R3           M2R6           M2R9           M2RX           NPSS             SP        SP_NORM           TENS         VSH_GR         VSH_SP
# ...
      2830.0000         14.075        -999.25          0.116          136.6        43.1633       34.48334         0.3448         0.2891         0.2661         0.2589         0.2565         0.2541        -999.25          -67.2      -57.32346       -59.1837     0.03156037              0
      2830.5000         13.995        -999.25          0.116          137.2        42.2449       32.87299          0.348         0.2918         0.2686         0.2589         0.2565         0.2541        -999.25          -66.8      -56.92346       -59.1837              0              0
      2831.0000         14.035        -999.25          0.116          138.4        41.0204       30.72844         0.3545         0.2945         0.2736         0.2637         0.2613         0.2589        -999.25          -66.8      -56.92346       -59.1837              0              0
      2831.5000         14.075        -999.25          0.116          139.6        41.0204       30.72091         0.3612            0.3         0.2761         0.2661         0.2637         0.2613        -999.25          -66.8      -56.92346       -59.1837              0              0
      2832.0000         14.115        -999.25          0.118            141        41.0204       30.71337         0.3646         0.3056         0.2813         0.2711         0.2686         0.2661        -999.25          -66.4      -56.52346       -59.1837              0              0
      2832.5000         14.075        -999.25           0.12          139.2        41.9388       32.30864         0.3714         0.3113         0.2839         0.2736         0.2711         0.2686        -999.25          -66.4      -56.52346       -59.1837              0              0
      2833.0000         13.995        -999.25          0.124          136.8        42.8571       33.90373         0.3783         0.3142         0.2891         0.2787         0.2761         0.2736        -999.25          -65.6      -55.72346       -59.1837     0.01922827              0
      2833.5000         13.875        -999.25          0.124          134.6        43.7755       35.49901         0.3854         0.3201         0.2945         0.2839         0.2813         0.2787        -999.25          -64.8      -54.92346       -59.1837     0.05317047    0.001417372
      2834.0000         13.715        -999.25          0.124          133.8        44.0816       36.02567         0.3963         0.3261            0.3         0.2865         0.2839         0.2813        -999.25          -64.8      -54.92346       -59.1837     0.06437594    0.001417372
      2834.5000         13.315        -999.25          0.124          133.8        44.0816       36.01812         0.4037         0.3353         0.3056         0.2972         0.2945         0.2918        -999.25          -63.6      -53.72346       -59.1837      0.0642154     0.02363968
      2835.0000         12.675        -999.25          0.116          134.6             45       37.61339         0.4229          0.348         0.3201         0.3085         0.3056         0.3028        -999.25          -61.2      -51.32346       -59.1837     0.09815727     0.06808415
      2835.5000         11.995        -999.25          0.104          135.2           46.2       39.70013         0.4514         0.3646         0.3353         0.3201         0.3172         0.3142        -999.25          -59.6      -49.72346       -59.1837       0.142556     0.09771375
      2836.0000         11.275        -999.25          0.096          132.6             48       42.83398         0.4773         0.3963         0.3513         0.3416         0.3385         0.3353        -999.25          -56.8      -46.92345       -59.1837      0.2092336      0.1495657
      2836.5000         11.115        -999.25          0.092          132.2           48.9       44.39715         0.4954         0.4075         0.3714         0.3513          0.348         0.3448        -999.25          -56.8      -46.92345       -59.1837      0.2424926      0.1495657
      2837.0000         11.755        -999.25          0.086            133             48       42.81891         0.4908         0.4152         0.3646         0.3513          0.348         0.3448        -999.25          -57.6      -47.72346       -59.1837       0.208913      0.1347508
      2837.5000         12.435        -999.25          0.086          134.8           45.9       39.14642         0.4642          0.389         0.3416         0.3322         0.3292         0.3261        -999.25          -59.2      -49.32346       -59.1837       0.130775      0.1051212
      2838.0000         12.915        -999.25           0.09          136.4        44.0816       35.96536         0.4309         0.3646         0.3231         0.3085         0.3056         0.3028        -999.25          -60.4      -50.52346       -59.1837     0.06309274     0.08289889
      2838.5000         13.315        -999.25            0.1          132.2        42.2449       32.75239         0.4152         0.3513         0.3142            0.3         0.2972         0.2945        -999.25          -62.4      -52.52346       -59.1837              0     0.04586184
      2839.0000         13.475        -999.25          0.114            129        41.9388       32.21064          0.419         0.3578         0.3172         0.2972         0.2945         0.2918        -999.25          -63.2      -53.32346       -59.1837              0     0.03104712
      2839.5000         13.675        -999.25          0.114          125.8        41.6327        31.6689         0.4472         0.3646         0.3292         0.3085         0.3056         0.3028        -999.25          -63.2      -53.32346       -59.1837              0     0.03104712
      2840.0000         13.675        -999.25          0.108          122.8        43.1633       34.33259         0.4729         0.3819         0.3416         0.3231         0.3172         0.3142        -999.25          -62.4      -52.52346       -59.1837     0.02835294     0.04586184
      2840.5000        13.5548        -999.25          0.106       124.2035        45.5913       38.56243         0.4954         0.4037         0.3513         0.3385         0.3231         0.3201        -999.25            -62      -52.12346       -59.1837      0.1183496     0.05326928
      2841.0000        13.4343        -999.25          0.106       127.8036        45.8772       39.05386         0.5046         0.4075         0.3612         0.3385         0.3292         0.3261        -999.25            -62      -52.12346       -59.1837      0.1288056     0.05326928
      2841.5000        13.5542        -999.25          0.106       132.4063        43.4331       34.78083         0.4862          0.389         0.3513         0.3322         0.3231         0.3201        -999.25          -62.4      -52.52346       -59.1837     0.03789001     0.04586184
      2842.0000        13.7947        -999.25           0.11       137.2263        41.8942       32.08757         0.4685         0.3783         0.3385         0.3231         0.3142         0.3113        -999.25          -63.2      -53.32346       -59.1837              0     0.03104712
      2842.5000        14.0343        -999.25          0.114       141.2465        41.5773       31.52698         0.4472         0.3679         0.3292         0.3113         0.3085         0.3028        -999.25            -64      -54.12346       -59.1837              0     0.01623224
      2843.0000        13.9943        -999.25          0.116       139.0512        44.0007       35.74881         0.4431         0.3679         0.3292         0.3113         0.3085            0.3        -999.25          -64.4      -54.52346       -59.1837     0.05848523    0.008824808
      2843.5000        13.7139        -999.25          0.116       134.4295        45.2013       37.83657         0.4431         0.3679         0.3292         0.3113         0.3085            0.3        -999.25          -64.4      -54.52346       -59.1837      0.1029058    0.008824808
