#------------------------------------------------------------------------------
# Created by    : vladimir.rabinovich
# Created on    : 09/19/2023 17:22:56
#------------------------------------------------------------------------------
~Version Information Section
VERS.           2.0     :   CWLS log ASCII Standard - VERSION 2.0
WRAP.           NO      :   One line per depth step
~Well Information Section
#MNEM       .UNIT                                         VALUE :DESCRIPTION
#------------------------------------------------------------------------------
STRT        .FT                                             120 :START DEPTH
STOP        .FT                                           15526 :STOP DEPTH
STEP        .FT                                             0.5 :STEP      
NULL        .                                           -999.25 :NULL      
COMP        .                                    MOBIL OIL CORP :COMPANY   
WELL        .                                MCFADDIN TRUST BLK :WELL      
FLD         .                                           WILDCAT :FIELD     
LOC         .                                                   :LOCATION  
CNTY        .                                         JEFFERSON :LOCATION  
STAT        .                                             TEXAS :STATE     
CTRY        .                                     UNITED STATES :COUNTRY   
SRVC        .                                                   :SERVICE COMPANY
DATE        .                             9/13/2023 11:19:11 AM :LOG DATE  
API         .                                    42245021130000 :API NUMBER
UWI         .                                    42245021130000 :UNIQUE WELL ID
XCOORD      .                                  1317150.22331494 :SURFACE X 
YCOORD      .                                   10814678.490982 :SURFACE Y 
LAT         .                                        29.7949472 :LATITUDE  
LON         .                                       -94.0194715 :LONGITUDE 
ELEV        .FT                                              18 :ELEVATION VALUE
ELEV_TYPE   .                                                DF :ELEVATION REFERENCE TYPE
~Curve Information Section
#MNEM       .UNIT                                      API CODE :CURVE DESCRIPTION
#------------------------------------------------------------------------------
DEPT        .FT                                                 :DEPTH     
SN          .OHMM                                               :          
SP          .MV                                                 :          
SP_NORM     .MV                                                 :SP Normalized
VSH_SP      .V/V                                                :Volume of Shale from SP
~A        DEPTH             SN             SP        SP_NORM         VSH_SP
# ...
      3194.0000         1.1262        -56.542      -19.06075        0.73825
      3194.5000         1.1247        -59.572      -22.08887      0.6943642
      3195.0000         1.1233       -61.4117      -23.92669      0.6677291
      3195.5000         1.1218       -62.6166      -25.12971      0.6502941
      3196.0000         1.1203       -62.7357      -25.24693      0.6485952
      3196.5000         1.1188       -60.3936      -22.90295      0.6825659
      3197.0000         1.1173       -57.4316      -19.93907      0.7255207
      3197.5000         1.1139       -55.2142      -17.71979      0.7576842
      3198.0000         1.1104       -53.1487      -15.65241      0.7876462
      3198.5000         1.1069       -51.4464      -13.94823      0.8123446
      3199.0000         1.1034        -50.574      -13.07395      0.8250152
      3199.5000         1.0999       -51.7079      -14.20597      0.8086092
      3200.0000         1.0964        -57.758      -20.25418      0.7209538
      3200.5000          1.093       -62.2109       -24.7052      0.6564463
      3201.0000         1.0895       -67.8149      -30.30733      0.5752561
      3201.5000          1.086       -69.4253      -31.91584      0.5519443
      3202.0000         1.0825       -68.2039      -30.69257      0.5696729
      3202.5000          1.079       -64.9067      -27.39348      0.6174858
      3203.0000          1.074       -61.7862       -24.2711      0.6627377
      3203.5000         1.0687        -59.553      -22.03602      0.6951301
      3204.0000         1.0635       -57.4048      -19.88594      0.7262907
      3204.5000         1.0583       -55.1862      -17.66546      0.7584716
      3205.0000         1.0531       -52.9631      -15.44048      0.7907177
      3205.5000         1.0479       -49.2524      -11.72789      0.8445233
      3206.0000         1.0427       -46.1575      -8.631115      0.8894041
      3206.5000         1.0375       -43.8975      -6.369232      0.9221851
      3207.0000         1.0312       -41.8644      -4.334251      0.9516775
      3207.5000         1.0246       -40.0851       -2.55307      0.9774917
      3208.0000          1.018       -38.6243      -1.090389        0.99869
      3208.5000         1.0114       -37.4803     0.05548859              1
      3209.0000         1.0047       -36.3799       1.157768              1
      3209.5000         0.9976       -35.8055       1.734051              1
      3210.0000         0.9896       -36.6368      0.9046326              1
      3210.5000         0.9816       -37.3149      0.2284126              1
      3211.0000         0.9735        -37.993     -0.4478073              1
      3211.5000         0.9655       -38.6712      -1.124126      0.9982011
      3212.0000         0.9575       -39.3497      -1.800747       0.988395
      3212.5000         0.9495       -39.7094      -2.158566      0.9832092
      3213.0000         0.9415       -40.0367      -2.483986       0.978493
      3213.5000         0.9345        -40.364      -2.809402      0.9737768
      3214.0000         0.9278       -40.6913      -3.134823      0.9690605
      3214.5000         0.9211       -40.9881      -3.429741      0.9647864
      3215.0000         0.9144       -41.0091      -3.448864      0.9645092
      3215.5000         0.9077       -41.0302      -3.468082      0.9642307
      3216.0000          0.901       -41.0512      -3.487202      0.9639536
      3216.5000         0.8938       -40.8148       -3.24892      0.9674069
      3217.0000         0.8859       -40.4696       -2.90184      0.9724371
      3217.5000         0.8781       -40.1245      -2.554859      0.9774658
      3218.0000         0.8703       -39.7793      -2.207779       0.982496
      3218.5000         0.8624       -39.4341      -1.860695      0.9875262
      3219.0000         0.8546       -39.0941      -1.518814      0.9924809
      3219.5000         0.8467       -38.7591      -1.181934      0.9973633
      3220.0000         0.8377       -38.4241     -0.8450508              1
      3220.5000         0.8287       -38.0891     -0.5081711              1
      3221.0000         0.8199        -37.754     -0.1711922              1
      3221.5000         0.8116       -37.4191      0.1655884              1
      3222.0000         0.8034       -37.0897      0.4968719              1
      3222.5000         0.7991       -36.7649      0.8235512              1
      3223.0000         0.7966       -36.4401        1.15023              1
      3223.5000         0.7941       -36.1154       1.476814              1
      3224.0000         0.7966       -35.8557       1.738392              1
      3224.5000         0.7998       -35.7123       1.883675              1
      3225.0000         0.8029        -35.569       2.028854              1
      3225.5000         0.8061       -35.5527       2.047035              1
      3226.0000         0.8099        -35.757       1.844616              1
      3226.5000         0.8185       -36.1771       1.426395              1
      3227.0000         0.8271       -36.8027      0.8026772              1
      3227.5000         0.8357       -37.4971       0.110157              1
      3228.0000         0.8443       -38.5226     -0.9134598              1
      3228.5000         0.8529       -40.3287      -2.717682      0.9751061
      3229.0000         0.8613       -44.1512        -6.5383      0.9197348
      3229.5000         0.8688       -51.7784      -14.16362      0.8092229
      3230.0000         0.8763       -59.7744      -22.15774      0.6933661
      3230.5000         0.8838       -64.3501      -26.73156      0.6270789
      3231.0000         0.8913       -68.0989      -30.47848      0.5727757
      3231.5000         0.8988       -71.6934      -34.07109      0.5207088
      3232.0000         0.9063       -74.7334      -37.10921      0.4766781
      3232.5000         0.9088       -76.9565      -39.33043      0.4444865
      3233.0000         0.9101       -75.3414      -37.71345       0.467921
      3233.5000         0.9113       -70.6941      -33.06427      0.5353004
      3234.0000         0.9069       -62.4277      -24.79599      0.6551306
      3234.5000         0.8988        -56.352      -18.71841      0.7432114
      3235.0000         0.8908       -46.7387       -9.10323      0.8825619
      3235.5000         0.8827       -43.9948      -6.357449      0.9223558
      3236.0000         0.8705       -42.6849      -5.045666      0.9413671
      3236.5000         0.8558       -46.4582      -8.817085      0.8867089
      3237.0000         0.8411       -52.6301      -14.98711      0.7972883
      3237.5000         0.8264       -56.6336      -18.98872      0.7392939
      3238.0000         0.8117       -60.4807      -22.83395       0.683566
      3238.5000         0.7979       -67.0237      -29.37506      0.5887672
      3239.0000         0.7868       -75.0754      -37.42488      0.4721031
      3239.5000         0.7757        -80.655       -43.0026      0.3912666
      3240.0000         0.7645       -85.5281      -47.87382      0.3206693
      3240.5000         0.7536       -89.6837      -52.02754      0.2604704
      3241.0000         0.7467       -93.3676      -55.70956      0.2071078
      3241.5000         0.7397       -96.4357      -58.77578      0.1626699
      3242.0000         0.7328       -98.5089       -60.8471      0.1326507
      3242.5000         0.7287      -100.3588      -62.69512      0.1058678
      3243.0000         0.7278       -101.957      -64.29144     0.08273271
      3243.5000         0.7269      -103.3229      -65.65546     0.06296439
      3244.0000          0.726      -104.2823      -66.61298      0.0490873
      3244.5000         0.7278      -105.0295       -67.3583     0.03828552
      3245.0000           0.73       -105.022      -67.34892     0.03842141
      3245.5000         0.7321      -103.6548      -65.97983     0.05826337
      3246.0000         0.7342      -101.1389      -63.46205     0.09475288
      3246.5000         0.7363       -97.5544      -59.87567      0.1467295
