#------------------------------------------------------------------------------
# Created by    : vladimir.rabinovich
# Created on    : 09/19/2023 17:22:42
#------------------------------------------------------------------------------
~Version Information Section
VERS.           2.0     :   CWLS log ASCII Standard - VERSION 2.0
WRAP.           NO      :   One line per depth step
~Well Information Section
#MNEM       .UNIT                                         VALUE :DESCRIPTION
#------------------------------------------------------------------------------
STRT        .FT                                             932 :START DEPTH
STOP        .FT                                            7546 :STOP DEPTH
STEP        .FT                                             0.5 :STEP      
NULL        .                                           -999.25 :NULL      
COMP        .                   SUN EXPLORATION & PRODUCTION CO :COMPANY   
WELL        .                                BROUSSARD & HEBERT :WELL      
FLD         .                                          LA BELLE :FIELD     
LOC         .                                                   :LOCATION  
CNTY        .                                         JEFFERSON :LOCATION  
STAT        .                                             TEXAS :STATE     
CTRY        .                                     UNITED STATES :COUNTRY   
SRVC        .                                                   :SERVICE COMPANY
DATE        .                             9/13/2023 11:18:46 AM :LOG DATE  
API         .                                    42245319210000 :API NUMBER
UWI         .                                    42245319210000 :UNIQUE WELL ID
XCOORD      .                                  1279394.73540744 :SURFACE X 
YCOORD      .                                  10819915.3695329 :SURFACE Y 
LAT         .                                        29.8083786 :LATITUDE  
LON         .                                       -94.1386839 :LONGITUDE 
ELEV        .FT                                              23 :ELEVATION VALUE
ELEV_TYPE   .                                                KB :ELEVATION REFERENCE TYPE
~Curve Information Section
#MNEM       .UNIT                                      API CODE :CURVE DESCRIPTION
#------------------------------------------------------------------------------
DEPT        .FT                                                 :DEPTH     
DCAL        .IN                                                 :          
DPSS        .V/V                                                :          
DRHO        .G/CM3                                              :          
GR          .GAPI                                               :          
GR_NORM     .GAPI                                               :GammaRay Normalized
ILD         .OHMM                                               :          
ILM         .OHMM                                               :          
NPSS        .V/V                                                :Neutron Porosity Sandstone
SFL         .OHMM                                               :          
SP          .MV                                                 :          
SP_NORM     .MV                                                 :SP Normalized
TENS        .LB                                                 :          
VSH_GR      .V/V                                                :Volume of Shale from GR
VSH_SP      .V/V                                                :Volume of Shale from SP
~A        DEPTH           DCAL           DPSS           DRHO             GR        GR_NORM            ILD            ILM           NPSS            SFL             SP        SP_NORM           TENS         VSH_GR         VSH_SP
# ...
      4478.0000        -999.25        -999.25        -999.25          42.45       41.54641         0.2303         0.2702        -999.25         0.6222       -59.5918      -52.71683       3010.204      0.1818384      0.3453566
      4478.5000        -999.25        -999.25        -999.25        46.0606       45.47083         0.2346         0.2677        -999.25         0.5527       -57.1429      -50.26934       3010.204      0.2653368      0.3763375
      4479.0000        -999.25        -999.25        -999.25        48.9394       48.59985         0.2346         0.2702        -999.25         0.4756        -55.102      -48.22986           3000      0.3319116      0.4021537
      4479.5000        -999.25        -999.25        -999.25        48.6364       48.27051         0.2324         0.2764        -999.25         0.4225       -55.3061      -48.43537       2989.899      0.3249044      0.3995523
      4480.0000        -999.25        -999.25        -999.25        46.0606       45.47083         0.2356         0.2827        -999.25          0.413       -56.1224      -49.25308           3000      0.2653368      0.3892015
      4480.5000        -999.25        -999.25        -999.25          43.05       42.19855         0.2478         0.2932        -999.25         0.4565       -56.9388       -50.0709           3000      0.1957139      0.3788494
      4481.0000        -999.25        -999.25        -999.25           42.3       41.38337         0.2593         0.3028        -999.25         0.5186       -58.1633      -51.29681       2989.899      0.1783695      0.3633315
      4481.5000        -999.25        -999.25        -999.25          43.65        42.8507         0.2677         0.3113        -999.25         0.5629       -59.5918      -52.72672           3000      0.2095895      0.3452314
      4482.0000        -999.25        -999.25        -999.25          44.85       44.15501         0.2605         0.3085        -999.25         0.5838       -62.1782      -55.31454           3000      0.2373406      0.3124742
      4482.5000        -999.25        -999.25        -999.25        45.9091       45.30616         0.2478         0.2866        -999.25         0.6165       -65.5446      -58.68235           3000      0.2618332      0.2698436
      4483.0000        -999.25        -999.25        -999.25        45.4545       44.81205         0.2389         0.2714        -999.25            0.7       -66.7327      -59.87186           3000      0.2513201      0.2547866
      4483.5000        -999.25        -999.25        -999.25           43.8       43.01374         0.2356          0.257        -999.25         0.8183       -63.7624      -56.90298       2989.899      0.2130584      0.2923673
      4484.0000        -999.25        -999.25        -999.25          41.85       40.89425         0.2335         0.2535        -999.25         0.8485       -58.5714      -51.71339       2979.798      0.1679628      0.3580584
      4484.5000        -999.25        -999.25        -999.25           41.1       40.07907         0.2367         0.2546        -999.25         0.6193       -52.8571      -46.00051       2989.899      0.1506184      0.4303733
      4485.0000        -999.25        -999.25        -999.25           42.3       41.38337         0.2411         0.2677        -999.25         0.4843       -48.5714      -41.71622       2979.798      0.1783695      0.4846048
      4485.5000        -999.25        -999.25        -999.25          44.55       43.82893         0.2593         0.2893        -999.25         0.3578       -46.7347      -39.88093       2979.798      0.2304028      0.5078363
      4486.0000        -999.25        -999.25        -999.25        45.9091       45.30616         0.2764         0.3201        -999.25          0.307       -48.5714      -41.71905       2979.798      0.2618332       0.484569
      4486.5000        -999.25        -999.25        -999.25        46.6667       46.12961         0.2919         0.3464        -999.25         0.3231       -52.6531      -45.80216       2969.697      0.2793534      0.4328841
      4487.0000        -999.25        -999.25        -999.25             45       44.31805         0.3014         0.3662        -999.25         0.3926       -58.7755      -51.92598       2979.798      0.2408095      0.3553674
      4487.5000        -999.25        -999.25        -999.25          41.85       40.89425         0.2946         0.3529        -999.25         0.4887       -65.3465      -58.49838       2979.798      0.1679628      0.2721724
      4488.0000        -999.25        -999.25        -999.25          38.25       36.98135         0.2764         0.3276        -999.25         0.6138       -72.2772       -65.4305       2979.798     0.08470965      0.1844241
      4488.5000        -999.25        -999.25        -999.25           35.4       33.88364         0.2581         0.2973        -999.25          0.757       -77.8218      -70.97652       2989.899     0.01880086      0.1142213
      4489.0000        -999.25        -999.25        -999.25          34.65       33.06845         0.2367         0.2726        -999.25         0.8485       -80.8081      -73.96423           3000    0.001456484      0.0764022
      4489.5000        -999.25        -999.25        -999.25             36       34.53579         0.2141         0.2558        -999.25            0.9       -82.6263      -75.78384           3000     0.03267637     0.05336916
      4490.0000        -999.25        -999.25        -999.25           36.9       35.51402         0.2028         0.2444        -999.25         0.9125       -83.8384      -76.99736           3000     0.05348977      0.0380081
      4490.5000        -999.25        -999.25        -999.25           36.6       35.18794            0.2         0.2378        -999.25         0.9251       -83.8384      -76.99877       3010.204     0.04655189     0.03799023
      4491.0000        -999.25        -999.25        -999.25           34.8       33.23149            0.2         0.2367        -999.25         0.9336       -83.0303      -76.19208       3010.204    0.004925261     0.04820155
      4491.5000        -999.25        -999.25        -999.25           32.4       30.62289            0.2         0.2378        -999.25         0.9293       -81.4141       -74.5773           3000              0     0.06864176
      4492.0000        -999.25        -999.25        -999.25          30.15       28.17733            0.2         0.2389        -999.25         0.9125            -80      -73.16461           3000              0      0.0865239
      4492.5000        -999.25        -999.25        -999.25        27.5758       25.37938         0.2009         0.2411        -999.25          0.864       -78.8119      -71.97792       2989.899              0      0.1015453
      4493.0000        -999.25        -999.25        -999.25        27.5758       25.37938         0.2009         0.2422        -999.25         0.8109       -78.0198      -71.18723       2989.899              0       0.111554
      4493.5000        -999.25        -999.25        -999.25           30.3       28.34036         0.2018         0.2422        -999.25         0.7196       -77.6238      -70.79266       2989.899              0      0.1165487
      4494.0000        -999.25        -999.25        -999.25           35.4       33.88364         0.2018         0.2367        -999.25         0.6278       -78.4158      -71.58607       2989.899     0.01880086      0.1065055
      4494.5000        -999.25        -999.25        -999.25          39.75       38.61173         0.2028         0.2303        -999.25         0.5892       -78.2178      -71.38947       2989.899      0.1193985       0.108994
      4495.0000        -999.25        -999.25        -999.25          39.15       37.95958         0.2028         0.2262        -999.25         0.6193       -76.2376      -69.41069       2989.899       0.105523      0.1340419
      4495.5000        -999.25        -999.25        -999.25             36       34.53579         0.2037         0.2272        -999.25         0.6937       -73.0693       -66.2438       2989.899     0.03267637      0.1741291
