#------------------------------------------------------------------------------
# Created by    : vladimir.rabinovich
# Created on    : 09/19/2023 17:22:56
#------------------------------------------------------------------------------
~Version Information Section
VERS.           2.0     :   CWLS log ASCII Standard - VERSION 2.0
WRAP.           NO      :   One line per depth step
~Well Information Section
#MNEM       .UNIT                                         VALUE :DESCRIPTION
#------------------------------------------------------------------------------
STRT        .FT                                             120 :START DEPTH
STOP        .FT                                           15526 :STOP DEPTH
STEP        .FT                                             0.5 :STEP      
NULL        .                                           -999.25 :NULL      
COMP        .                                    MOBIL OIL CORP :COMPANY   
WELL        .                                MCFADDIN TRUST BLK :WELL      
FLD         .                                           WILDCAT :FIELD     
LOC         .                                                   :LOCATION  
CNTY        .                                         JEFFERSON :LOCATION  
STAT        .                                             TEXAS :STATE     
CTRY        .                                     UNITED STATES :COUNTRY   
SRVC        .                                                   :SERVICE COMPANY
DATE        .                             9/13/2023 11:19:11 AM :LOG DATE  
API         .                                    42245021130000 :API NUMBER
UWI         .                                    42245021130000 :UNIQUE WELL ID
XCOORD      .                                  1317150.22331494 :SURFACE X 
YCOORD      .                                   10814678.490982 :SURFACE Y 
LAT         .                                        29.7949472 :LATITUDE  
LON         .                                       -94.0194715 :LONGITUDE 
ELEV        .FT                                              18 :ELEVATION VALUE
ELEV_TYPE   .                                                DF :ELEVATION REFERENCE TYPE
~Curve Information Section
#MNEM       .UNIT                                      API CODE :CURVE DESCRIPTION
#------------------------------------------------------------------------------
DEPT        .FT                                                 :DEPTH     
SN          .OHMM                                               :          
SP          .MV                                                 :          
SP_NORM     .MV                                                 :SP Normalized
VSH_SP      .V/V                                                :Volume of Shale from SP
~A        DEPTH             SN             SP        SP_NORM         VSH_SP
# ...
     10349.0000         0.7247       -35.0932      0.9603882              1
     10349.5000         0.7318       -35.0571      0.9977722              1
     10350.0000         0.7389       -35.0209       1.035252              1
     10350.5000         0.7459       -34.9847       1.072735              1
     10351.0000          0.753       -34.9899       1.068813              1
     10351.5000         0.7601       -35.0198       1.040195              1
     10352.0000         0.7645       -35.0497       1.011574              1
     10352.5000         0.7668       -35.0797      0.9828568              1
     10353.0000          0.769       -35.1096      0.9542389              1
     10353.5000         0.7676       -35.1395      0.9256172              1
     10354.0000         0.7632       -35.1694      0.8969994              1
     10354.5000         0.7588       -35.1993      0.8683815              1
     10355.0000         0.7544       -35.2292      0.8397636              1
     10355.5000         0.7485       -35.2577       0.812542              1
     10356.0000         0.7399       -35.2833      0.7882233              1
     10356.5000         0.7313        -35.309      0.7638054              1
     10357.0000         0.7227       -35.3345      0.7395859              1
     10357.5000         0.7058       -35.3602       0.715168              1
     10358.0000         0.6884       -35.3858      0.6908493              1
     10358.5000          0.671       -35.4114      0.6665268              1
     10359.0000         0.6536        -35.437      0.6422081              1
     10359.5000          0.635       -35.4595      0.6209908              1
     10360.0000         0.6143       -35.4701      0.6116714              1
     10360.5000         0.5936       -35.4806      0.6024551              1
     10361.0000          0.573       -35.4911      0.5932312              1
     10361.5000         0.5524       -35.5016      0.5840149              1
     10362.0000         0.5388       -35.5122      0.5746956              1
     10362.5000         0.5251       -35.5227      0.5654755              1
     10363.0000         0.5115       -35.5234      0.5660591              1
     10363.5000         0.4978       -35.5228      0.5679359              1
     10364.0000         0.4842        -35.522      0.5700188              1
     10364.5000         0.4742       -35.5213      0.5719986              1
     10365.0000         0.4689       -35.5192      0.5753822              1
     10365.5000         0.4635        -35.506      0.5898628              1
     10366.0000         0.4581       -35.4929      0.6042404              1
     10366.5000         0.4527       -35.4798      0.6186218              1
     10367.0000         0.4546       -35.4667      0.6330032              1
     10367.5000         0.4604       -35.4536      0.6473846              1
     10368.0000         0.4662       -35.4558      0.6464691              1
     10368.5000         0.4719       -35.4835      0.6200447              1
     10369.0000         0.4579       -35.5112      0.5936279              1
     10369.5000         0.4319       -35.5389      0.5672112              1
     10370.0000          0.445       -35.5665      0.5408897              1
     10370.5000         0.4582       -35.5942       0.514473              1
     10371.0000         0.4637       -35.6219      0.4880524              1
     10371.5000         0.4678       -35.6497      0.4615326              1
     10372.0000         0.4719       -35.6674      0.4451141              1
     10372.5000          0.476       -35.6833      0.4304962              1
     10373.0000         0.4756       -35.6994      0.4156761              1
     10373.5000         0.4726       -35.7154      0.4009552              1
     10374.0000         0.4697       -35.7314      0.3862381              1
     10374.5000         0.4667       -35.7475       0.371418              1
     10375.0000         0.4637       -35.7635      0.3567009              1
     10375.5000         0.4607       -35.7795      0.3419838              1
     10376.0000         0.4577       -35.7876      0.3351593              1
     10376.5000         0.4547       -35.7802      0.3438416              1
     10377.0000         0.4512       -35.7728      0.3525238              1
     10377.5000         0.4478       -35.7655      0.3611069              1
     10378.0000         0.4443       -35.7581      0.3697891              1
     10378.5000         0.4408       -35.7507      0.3784637              1
     10379.0000         0.4373       -35.7433       0.387146              1
     10379.5000         0.4477        -35.736      0.3957291              1
     10380.0000         0.4662       -35.7286      0.4044113              1
     10380.5000         0.4846       -35.7213      0.4129944              1
     10381.0000         0.5031       -35.7139       0.421669              1
     10381.5000         0.5195       -35.7198      0.4170532              1
     10382.0000         0.5346       -35.7333      0.4048347              1
     10382.5000         0.5496       -35.7466      0.3928146              1
     10383.0000         0.5646       -35.7601      0.3805962              1
     10383.5000         0.5754       -35.7734       0.368576              1
     10384.0000         0.5785       -35.7869      0.3563576              1
     10384.5000         0.5816       -35.8002      0.3443375              1
     10385.0000         0.5846       -35.8137       0.332119              1
     10385.5000         0.5877        -35.827      0.3201027              1
     10386.0000         0.5865       -35.8405      0.3078804              1
     10386.5000         0.5851       -35.8414      0.3082619              1
     10387.0000         0.5836       -35.8322      0.3187447              1
     10387.5000         0.5822       -35.8229      0.3293266              1
     10388.0000         0.5807       -35.8136      0.3399086              1
     10388.5000         0.5799       -35.8043      0.3504868              1
     10389.0000         0.5802        -35.795      0.3610687              1
     10389.5000         0.5804       -35.7858      0.3715477              1
     10390.0000         0.5807       -35.7765      0.3821297              1
     10390.5000         0.5809       -35.7744      0.3855133              1
     10391.0000         0.5812       -35.7961      0.3650894              1
     10391.5000         0.5814       -35.8179      0.3445702              1
     10392.0000         0.5817       -35.8397      0.3240547              1
     10392.5000         0.5819       -35.8615      0.3035355              1
     10393.0000         0.5771       -35.8832      0.2831154              1
     10393.5000         0.5704        -35.905      0.2625961              1
     10394.0000         0.5637       -35.9406      0.2282753              1
     10394.5000          0.557       -35.9777      0.1924591              1
     10395.0000         0.5503       -36.0149      0.1565399              1
     10395.5000         0.5437       -36.0439      0.1288185              1
     10396.0000         0.5363       -36.0208      0.1531982              1
     10396.5000         0.5247       -35.9976       0.177681              1
     10397.0000         0.5132       -35.9744      0.2021637              1
     10397.5000         0.5016       -35.9296      0.2482452              1
     10398.0000         0.4901       -35.8839      0.2952232              1
     10398.5000         0.4786       -35.8383      0.3421059              1
     10399.0000         0.4682        -35.796       0.385685              1
     10399.5000         0.4631       -35.7546      0.4283676              1
     10400.0000          0.458       -35.7133      0.4709511              1
     10400.5000          0.456       -35.6678      0.5177269              1
     10401.0000         0.4623       -35.6168      0.5700111              1
     10401.5000         0.4692       -35.5659      0.6221924              1
