#------------------------------------------------------------------------------
# Created by    : vladimir.rabinovich
# Created on    : 09/19/2023 17:22:02
#------------------------------------------------------------------------------
~Version Information Section
VERS.           2.0     :   CWLS log ASCII Standard - VERSION 2.0
WRAP.           NO      :   One line per depth step
~Well Information Section
#MNEM       .UNIT                                         VALUE :DESCRIPTION
#------------------------------------------------------------------------------
STRT        .FT                                          2944.5 :START DEPTH
STOP        .FT                                           12030 :STOP DEPTH
STEP        .FT                                             0.5 :STEP      
NULL        .                                           -999.25 :NULL      
COMP        .                                  SAMEDAN OIL CORP :COMPANY   
WELL        .                                         ROBERTSON :WELL      
FLD         .                                     HAMSHIRE WEST :FIELD     
LOC         .                                                   :LOCATION  
CNTY        .                                         JEFFERSON :LOCATION  
STAT        .                                             TEXAS :STATE     
CTRY        .                                     UNITED STATES :COUNTRY   
SRVC        .                                                   :SERVICE COMPANY
DATE        .                             9/13/2023 11:18:46 AM :LOG DATE  
API         .                                    42245321120000 :API NUMBER
UWI         .                                    42245321120000 :UNIQUE WELL ID
XCOORD      .                                  1214919.43989532 :SURFACE X 
YCOORD      .                                  10839736.7579652 :SURFACE Y 
LAT         .                                        29.8609813 :LATITUDE  
LON         .                                       -94.3427285 :LONGITUDE 
ELEV        .FT                                              38 :ELEVATION VALUE
ELEV_TYPE   .                                                KB :ELEVATION REFERENCE TYPE
~Curve Information Section
#MNEM       .UNIT                                      API CODE :CURVE DESCRIPTION
#------------------------------------------------------------------------------
DEPT        .FT                                                 :DEPTH     
CALI        .IN                                                 :          
DPSS        .%                                                  :          
DRHO        .G/CM3                                              :          
GR          .GAPI                                               :          
GR_NORM     .GAPI                                               :GammaRay Normalized
ILD         .OHMM                                               :          
ILM         .OHMM                                               :          
NPSS        .%                                                  :Neutron Porosity Sandstone
SGRD        .OHMM                                               :          
SP          .MV                                                 :          
SP_NORM     .MV                                                 :SP Normalized
TENS        .LB                                                 :          
VSH_GR      .V/V                                                :Volume of Shale from GR
VSH_SP      .V/V                                                :Volume of Shale from SP
~A        DEPTH           CALI           DPSS           DRHO             GR        GR_NORM            ILD            ILM           NPSS           SGRD             SP        SP_NORM           TENS         VSH_GR         VSH_SP
# ...
      2998.5000        -999.25        -999.25        -999.25        42.6041       50.78347        -999.25        -999.25        49.1389        -999.25        -999.25        -999.25        -999.25      0.3783718        -999.25
      2999.0000        -999.25        -999.25        -999.25        40.6552       46.32688        -999.25        -999.25        50.0864        -999.25        -999.25        -999.25        -999.25      0.2835507        -999.25
      2999.5000        -999.25        -999.25        -999.25        39.1541       42.89431        -999.25        -999.25        50.7962        -999.25        -999.25        -999.25        -999.25      0.2105172        -999.25
      3000.0000        -999.25        -999.25        -999.25        41.5507       48.37467        -999.25        -999.25        51.3873        -999.25        -999.25        -999.25        -999.25      0.3271206        -999.25
      3000.5000        -999.25        -999.25        -999.25        44.8463       55.91074        -999.25        -999.25        51.6238        -999.25        -999.25        -999.25        -999.25      0.4874626        -999.25
      3001.0000        -999.25        -999.25        -999.25        46.7723       60.31497        -999.25        -999.25        50.9703        -999.25        -999.25        -999.25        -999.25      0.5811695        -999.25
      3001.5000        -999.25        -999.25        -999.25        43.0336       51.76564        -999.25        -999.25        50.7327        -999.25        -999.25        -999.25        -999.25       0.399269        -999.25
      3002.0000        -999.25        -999.25        -999.25        40.9307       46.95687        -999.25        -999.25        49.7822        -999.25        -999.25        -999.25        -999.25      0.2969547        -999.25
      3002.5000        -999.25        -999.25        -999.25        39.1293        42.8376        -999.25        -999.25          46.62        -999.25        -999.25        -999.25        -999.25      0.2093107        -999.25
      3003.0000        -999.25        -999.25        -999.25        37.3297       38.72242        -999.25        -999.25           44.4        -999.25        -999.25        -999.25        -999.25      0.1217535        -999.25
      3003.5000        -999.25        -999.25        -999.25        36.2794       36.32069        -999.25        -999.25             45        -999.25        -999.25        -999.25        -999.25     0.07065298        -999.25
      3004.0000        -999.25        -999.25        -999.25        36.4257       36.65522        -999.25        -999.25          46.62        -999.25        -999.25        -999.25           1620     0.07777064        -999.25
      3004.5000        -999.25        -999.25        -999.25        38.8123       42.11271        -999.25        -999.25          46.62        -999.25        -999.25        -999.25           1620      0.1938873        -999.25
      3005.0000        -999.25        -999.25        -999.25        40.7486       46.54049        -999.25        -999.25           46.2        -999.25        -999.25        -999.25           1620      0.2880954        -999.25
      3005.5000        -999.25        -999.25        -999.25        38.9527       42.43376        -999.25        -999.25          47.28        -999.25        -999.25        -999.25           1620      0.2007183        -999.25
      3006.0000           9.75          59.94        -999.25        32.9828       28.78228        -999.25        -999.25         49.901         0.2018         -110.4      -27.43121           1620              0      0.5520133
      3006.5000          10.35          57.42         -0.799        30.5963       23.32503        -999.25        -999.25         50.495         0.3649         -110.8      -27.87964           1620              0      0.5444129
      3007.0000        11.1262          43.92        -0.5652        32.6819        28.0942        -999.25        -999.25        48.1188         0.6674      -116.5842      -33.71225           1620              0      0.4455551
      3007.5000        11.3837          33.78         -0.118        35.6589       34.90176        -999.25        -999.25          43.92         1.2323      -123.5149      -40.69137           1620     0.04046306      0.3272649
      3008.0000        11.6213          32.34          0.022        35.9538       35.57612         0.2009         0.2009          42.06         1.5629      -128.4653      -45.69019           1620     0.05481103      0.2425392
      3008.5000        12.2946             33           0.06        35.5045       34.54871         3.3305         6.4464        40.5743         1.7203      -132.2277      -49.50101           1620     0.03295119       0.177949
      3009.0000        12.5322          34.92          0.058        35.6504       34.88233         0.7929         1.7282         39.505         1.5349       -134.604      -51.92573           1620     0.04004953      0.1368521
      3009.5000        12.5322        37.0693           0.03        36.0935       35.89558         0.4628         1.0321        39.6238         1.3265      -134.2079      -51.57804           1600     0.06160801      0.1427451
      3010.0000        12.0569        38.0198          0.013        36.5361       36.90767         0.3769         0.8191        40.3366         1.1361      -131.0396      -48.45815           1580     0.08314189      0.1956245
      3010.5000        11.7005          35.94          0.012        37.7228       39.62133         0.3821         0.7063         39.802         1.0277      -128.8614      -46.32838           1580      0.1408794      0.2317224
      3011.0000         12.354           33.3          0.017        39.9505       44.71544         0.4756         0.6376        38.3762         0.9909      -127.8713      -45.38669           1620      0.2492647      0.2476833
      3011.5000        11.9975          33.54          0.022        38.3168       40.97965         0.5477         0.6056         37.604         0.9509      -126.8812      -44.44501           1620      0.1697798      0.2636438
      3012.0000        12.2351           34.5          0.024        35.6436       34.86678         0.5892         0.5973        37.4257         0.9209       -124.505      -42.11723           1620     0.03971879      0.3030979
      3012.5000        12.5124          34.98          0.018        35.6436       34.86678         0.5403         0.5946        39.0297         0.9379      -121.5347      -39.19534           1620     0.03971879      0.3526213
      3013.0000         12.552          35.94          0.009        35.6436       34.86678         0.4865         0.5919        40.7525         0.9864      -123.3168      -41.02586           1620     0.03971879      0.3215955
      3013.5000        12.6906        38.7327          0.001        36.6832       37.24406         0.4503         0.5655        41.2871         1.0092      -126.4851      -44.24258           1620     0.09029924       0.267075
      3014.0000        12.7104        40.5149              0        37.5743       39.28174         0.4342         0.5403        40.6337         0.9954      -126.6832       -44.4891           1620      0.1336541      0.2628967
      3014.5000          12.83        40.6931          0.007        36.2376        36.2251         0.4302         0.5186        40.7525         0.9465      -126.2871      -44.14142           1620      0.0686191      0.2687895
      3015.0000          13.55        39.8614          0.019         34.901       33.16867         0.4342         0.4977        40.9901         0.8958       -124.703      -42.60574           1640    0.003588656       0.294818
      3015.5000          13.95        39.0891          0.031        36.5347       36.90447         0.4225         0.4955        40.6337         0.8708      -122.3267      -40.27785           1640      0.0830738      0.3342738
      3016.0000          14.17        38.2574          0.049        37.8713       39.96091         0.4111         0.4932         40.396         0.8832      -121.1386      -39.13817           1640      0.1481045      0.3535904
