#------------------------------------------------------------------------------
# Created by    : vladimir.rabinovich
# Created on    : 09/19/2023 17:22:42
#------------------------------------------------------------------------------
~Version Information Section
VERS.           2.0     :   CWLS log ASCII Standard - VERSION 2.0
WRAP.           NO      :   One line per depth step
~Well Information Section
#MNEM       .UNIT                                         VALUE :DESCRIPTION
#------------------------------------------------------------------------------
STRT        .FT                                             932 :START DEPTH
STOP        .FT                                            7546 :STOP DEPTH
STEP        .FT                                             0.5 :STEP      
NULL        .                                           -999.25 :NULL      
COMP        .                   SUN EXPLORATION & PRODUCTION CO :COMPANY   
WELL        .                                BROUSSARD & HEBERT :WELL      
FLD         .                                          LA BELLE :FIELD     
LOC         .                                                   :LOCATION  
CNTY        .                                         JEFFERSON :LOCATION  
STAT        .                                             TEXAS :STATE     
CTRY        .                                     UNITED STATES :COUNTRY   
SRVC        .                                                   :SERVICE COMPANY
DATE        .                             9/13/2023 11:18:46 AM :LOG DATE  
API         .                                    42245319210000 :API NUMBER
UWI         .                                    42245319210000 :UNIQUE WELL ID
XCOORD      .                                  1279394.73540744 :SURFACE X 
YCOORD      .                                  10819915.3695329 :SURFACE Y 
LAT         .                                        29.8083786 :LATITUDE  
LON         .                                       -94.1386839 :LONGITUDE 
ELEV        .FT                                              23 :ELEVATION VALUE
ELEV_TYPE   .                                                KB :ELEVATION REFERENCE TYPE
~Curve Information Section
#MNEM       .UNIT                                      API CODE :CURVE DESCRIPTION
#------------------------------------------------------------------------------
DEPT        .FT                                                 :DEPTH     
DCAL        .IN                                                 :          
DPSS        .V/V                                                :          
DRHO        .G/CM3                                              :          
GR          .GAPI                                               :          
GR_NORM     .GAPI                                               :GammaRay Normalized
ILD         .OHMM                                               :          
ILM         .OHMM                                               :          
NPSS        .V/V                                                :Neutron Porosity Sandstone
SFL         .OHMM                                               :          
SP          .MV                                                 :          
SP_NORM     .MV                                                 :SP Normalized
TENS        .LB                                                 :          
VSH_GR      .V/V                                                :Volume of Shale from GR
VSH_SP      .V/V                                                :Volume of Shale from SP
~A        DEPTH           DCAL           DPSS           DRHO             GR        GR_NORM            ILD            ILM           NPSS            SFL             SP        SP_NORM           TENS         VSH_GR         VSH_SP
# ...
      5342.0000        -999.25        -999.25        -999.25        38.7879       39.55666         0.2416         0.2839        -999.25         0.8036          -87.6      -83.62996       3346.303      0.1395033              0
      5342.5000        -999.25        -999.25        -999.25        36.3636       37.02721         0.2361         0.2749        -999.25         0.8371          -88.6      -84.63377       3346.128     0.08568525              0
      5343.0000        -999.25        -999.25        -999.25        36.0606       36.70744         0.2339         0.2711        -999.25         0.8485          -88.8      -84.83757       3325.604     0.07888169              0
      5343.5000        -999.25        -999.25        -999.25        37.4242       38.12371         0.2328         0.2698        -999.25         0.8485          -88.2      -84.24136        3325.44      0.1090151              0
      5344.0000        -999.25        -999.25        -999.25        38.6364       39.38229         0.2318         0.2698        -999.25         0.8447          -87.6      -83.64516       3335.441      0.1357933              0
      5344.5000        -999.25        -999.25        -999.25        39.3939       40.16721         0.2307         0.2711        -999.25         0.8258          -86.8      -82.84898       3345.432      0.1524939              0
      5345.0000        -999.25        -999.25        -999.25         40.303       41.11005         0.2275         0.2749        -999.25         0.8109          -86.2      -82.25277       3355.413      0.1725543              0
      5345.5000        -999.25        -999.25        -999.25        41.0606       41.89508         0.2255         0.2749        -999.25          0.822          -85.8      -81.85658       3375.533       0.189257    0.001770679
      5346.0000        -999.25        -999.25        -999.25         40.303       41.10178         0.2183         0.2711        -999.25         0.8798          -85.8      -81.86037       3375.344      0.1723783    0.001723772
      5346.5000        -999.25        -999.25        -999.25        35.4545       36.04712         0.2075         0.2613        -999.25         0.9509          -85.8      -81.86418       3365.017     0.06483224    0.001676771
      5347.0000        -999.25        -999.25        -999.25        32.2727        32.7286         0.1991          0.253        -999.25              1          -85.6      -81.66798       3364.834              0    0.004099057
      5347.5000        -999.25        -999.25        -999.25          29.25       29.57581         0.1991         0.2438        -999.25              1            -85      -81.07178       3344.375              0     0.01145954
      5348.0000        -999.25        -999.25        -999.25          29.85       30.19668         0.1991         0.2372        -999.25         0.9552          -84.2      -80.27557       3344.203              0     0.02128921
      5348.5000        -999.25        -999.25        -999.25        33.6364        34.1367         0.1991          0.235        -999.25         0.8759            -84      -80.07938       3333.912     0.02418518     0.02371131
      5349.0000        -999.25        -999.25        -999.25         35.303       35.86861         0.1991         0.2339        -999.25         0.7963          -83.6      -79.68318       3323.632     0.06103426      0.0286027
      5349.5000        -999.25        -999.25        -999.25             35       35.54884         0.1991         0.2427        -999.25         0.7097            -83      -79.08698        3323.47     0.05423071     0.03596318
      5350.0000        -999.25        -999.25        -999.25        33.0303       33.49294         0.1991         0.2507        -999.25         0.6775          -82.2      -78.29078       3333.411     0.01048806     0.04579285
      5350.5000        -999.25        -999.25        -999.25        31.8182       32.22619         0.1991         0.2686        -999.25         0.6903          -81.4      -77.49458       3343.434              0     0.05562243
      5351.0000        -999.25        -999.25        -999.25        32.2727       32.69549         0.2028         0.2878        -999.25         0.7196            -81      -77.09839       3343.434              0     0.06051372
      5351.5000        -999.25        -999.25        -999.25        33.1818       33.63833         0.2066         0.2986        -999.25          0.757          -80.8      -76.90219       3363.636     0.01358154     0.06293591
      5352.0000        -999.25        -999.25        -999.25        33.1818        33.6342         0.2094         0.3055        -999.25         0.8036          -80.6      -76.70599       3363.636     0.01349356      0.0653582
      5352.5000        -999.25        -999.25        -999.25        32.8788       33.31443         0.2114         0.3055        -999.25         0.8798        -79.604      -75.71378       3353.535    0.006690005     0.07760762
      5353.0000        -999.25        -999.25        -999.25        33.7879       34.25727         0.2114         0.3041        -999.25         0.9422       -77.4257      -73.53929       3343.434     0.02675044      0.1044532
      5353.5000        -999.25        -999.25        -999.25             35       35.51574         0.2104         0.3055        -999.25         0.9818       -73.0693      -69.18669       3333.333     0.05352629       0.158189
      5354.0000        -999.25        -999.25        -999.25        36.2121       36.77421         0.2173         0.3083        -999.25         0.9818       -67.3267      -63.44789       3333.333      0.0803023      0.2290384
      5354.5000        -999.25        -999.25        -999.25        37.1212       37.71704         0.2405         0.3287        -999.25         0.9596       -58.5714       -54.6964       3323.232      0.1003627      0.3370815
      5355.0000        -999.25        -999.25        -999.25        38.6364       39.29124         0.2905         0.3651        -999.25         0.9422       -49.1837       -45.3125       3323.232      0.1338561      0.4529321
      5355.5000        -999.25        -999.25        -999.25        42.8788       43.70626         0.3568         0.4381        -999.25          0.964          -37.8       -33.9326       3323.232      0.2277929      0.5934247
      5356.0000        -999.25        -999.25        -999.25           48.6       49.66171         0.4442         0.5305        -999.25         1.0277          -27.4       -23.5364       3323.232      0.3545045      0.7217728
      5356.5000        -999.25        -999.25        -999.25           53.7       54.97007         0.5681         0.6618        -999.25         1.1946       -19.4022       -15.5424       3323.232      0.4674484      0.8204642
      5357.0000        -999.25        -999.25        -999.25           57.9       59.34093         0.7065         0.7675        -999.25         1.3698       -13.8199      -9.963902       3323.232      0.5604454      0.8893346
      5357.5000        -999.25        -999.25        -999.25        61.6337       63.89702         0.9465            0.9        -999.25         1.4337       -10.6255      -6.773303       3323.232      0.6573834      0.9287246
      5358.0000        -999.25        -999.25        -999.25        65.3465       67.60585          1.173         1.0467        -999.25         1.2561        -9.0243      -5.175904       3323.232      0.7362947      0.9484456
      5358.5000        -999.25        -999.25        -999.25        66.6832       68.93858         1.4078         1.1466        -999.25         1.0757        -8.4199      -4.575306       3333.333      0.7646505      0.9558604
      5359.0000        -999.25        -999.25        -999.25        66.3861        68.6375         1.4938         1.1677        -999.25         1.0184        -8.0146      -4.173807       3343.434      0.7582448      0.9608172
      5359.5000        -999.25        -999.25        -999.25        64.0099       66.25733         1.4938         1.1892        -999.25         1.0419        -7.8088      -3.971809       3343.434      0.7076028       0.963311
