#------------------------------------------------------------------------------
# Created by    : vladimir.rabinovich
# Created on    : 09/19/2023 17:22:24
#------------------------------------------------------------------------------
~Version Information Section
VERS.           2.0     :   CWLS log ASCII Standard - VERSION 2.0
WRAP.           NO      :   One line per depth step
~Well Information Section
#MNEM       .UNIT                                         VALUE :DESCRIPTION
#------------------------------------------------------------------------------
STRT        .FT                                            1850 :START DEPTH
STOP        .FT                                            8215 :STOP DEPTH
STEP        .FT                                             0.5 :STEP      
NULL        .                                           -999.25 :NULL      
COMP        .                                  NOBLE ENERGY INC :COMPANY   
WELL        .                                           MEADOWS :WELL      
FLD         .                                          BINDWEED :FIELD     
LOC         .                                                   :LOCATION  
CNTY        .                                         JEFFERSON :LOCATION  
STAT        .                                             TEXAS :STATE     
CTRY        .                                     UNITED STATES :COUNTRY   
SRVC        .                                                   :SERVICE COMPANY
DATE        .                             9/13/2023 11:18:46 AM :LOG DATE  
API         .                                    42245325230000 :API NUMBER
UWI         .                                    42245325230000 :UNIQUE WELL ID
XCOORD      .                                  1273245.27472043 :SURFACE X 
YCOORD      .                                  10899721.9019567 :SURFACE Y 
LAT         .                                           30.0277 :LATITUDE  
LON         .                                       -94.1606194 :LONGITUDE 
ELEV        .FT                                              29 :ELEVATION VALUE
ELEV_TYPE   .                                                KB :ELEVATION REFERENCE TYPE
~Curve Information Section
#MNEM       .UNIT                                      API CODE :CURVE DESCRIPTION
#------------------------------------------------------------------------------
DEPT        .FT                                                 :DEPTH     
CALX        .IN                                                 :          
DPSS        .%                                                  :          
DRHO        .G/CM3                                              :          
DT24        .US/FT                                              :          
GR          .GAPI                                               :          
GR_NORM     .GAPI                                               :GammaRay Normalized
M2R1        .OHMM                                               :          
M2R2        .OHMM                                               :          
M2R3        .OHMM                                               :          
M2R6        .OHMM                                               :          
M2R9        .OHMM                                               :          
M2RX        .OHMM                                               :          
NPSS        .%                                                  :Neutron Porosity Sandstone
SP          .MV                                                 :          
SP_NORM     .MV                                                 :SP Normalized
TENS        .LB                                                 :          
VSH_GR      .V/V                                                :Volume of Shale from GR
VSH_SP      .V/V                                                :Volume of Shale from SP
~A        DEPTH           CALX           DPSS           DRHO           DT24             GR        GR_NORM           M2R1           M2R2           M2R3           M2R6           M2R9           M2RX           NPSS             SP        SP_NORM           TENS         VSH_GR         VSH_SP
# ...
      5714.0000         10.435        -999.25          0.056          122.6           75.9       64.21188         0.7319         0.7063         0.7063         0.7063            0.7         0.6866        -999.25              6      -3.053024       -18.3673      0.6640825      0.9688936
      5714.5000         10.435        -999.25           0.05          125.8             78       67.42913         0.6671         0.6543         0.6543         0.6543         0.6481         0.6236        -999.25            6.4      -2.659967       -18.3673      0.7325347       0.974849
      5715.0000         10.435        -999.25           0.05          128.2           81.3       72.49689         0.6058         0.5946         0.5946         0.5946         0.5892         0.5785        -999.25            7.2      -1.866909         2.0408      0.8403594       0.986865
      5715.5000         10.435        -999.25          0.052          129.4           83.4       75.71416         0.5838         0.5681         0.5681         0.5681         0.5629         0.5527        -999.25              8      -1.073852         2.0408      0.9088119       0.998881
      5716.0000         10.435        -999.25          0.052          128.8           85.2       78.46877         0.5578         0.5477         0.5477         0.5477         0.5428         0.5329        -999.25              8      -1.080794         2.0408      0.9674207      0.9987758
      5716.5000         10.435        -999.25          0.052          128.8           84.3       77.05981         0.5477         0.5378         0.5378         0.5378         0.5186         0.5092        -999.25              8      -1.087736         2.0408      0.9374428      0.9986706
      5717.0000         10.435        -999.25          0.052          128.8           83.7       76.11346         0.5378         0.5233         0.5233         0.5233         0.5186         0.5092        -999.25              8      -1.094679         2.0408      0.9173077      0.9985655
      5717.5000         10.435        -999.25          0.054          128.8           84.6       77.48027         0.5329         0.5233         0.5233         0.5233         0.5233         0.5139        -999.25              8      -1.101621       -18.3673      0.9463887      0.9984603
      5718.0000         10.435        -999.25          0.054            129           85.8       79.30967         0.5281         0.5428         0.5428         0.5428         0.5428         0.5281        -999.25              8      -1.108563       -59.1837      0.9853121      0.9983551
      5718.5000         10.435        -999.25           0.06          129.4             87       81.13905         0.5428         0.5629         0.5629         0.5629         0.5629         0.5578        -999.25            7.2      -1.915505       -59.1837              1      0.9861287
      5719.0000         10.435        -999.25          0.066          130.2           90.3       86.20681         0.5733         0.5892         0.5892         0.5892         0.5946         0.6058        -999.25            6.8      -2.322448       -59.1837              1      0.9799629
      5719.5000         10.435        -999.25           0.07            130           94.5       92.66241         0.6176         0.6357         0.6357         0.6357         0.6419         0.6481        -999.25            6.8       -2.32939       -59.1837              1      0.9798577
      5720.0000         10.435        -999.25          0.076            129           96.9        96.3423         0.6543         0.6801         0.6801         0.6801         0.6866            0.7        -999.25            7.6      -1.536333       -59.1837              1      0.9918737
      5720.5000         10.315        -999.25           0.08          126.8             93       90.30711            0.7         0.7384         0.7384         0.7384          0.745         0.7584        -999.25            7.2      -1.943274       -38.7755              1      0.9857079
      5721.0000         10.355        -999.25          0.084            124             87       81.03357          0.745         0.7789         0.7789         0.7789         0.7859            0.8        -999.25            7.6      -1.550217       -18.3673              1      0.9916634
      5721.5000         10.475        -999.25          0.082          120.2             81       71.76004         0.7929          0.822          0.822          0.822         0.8295         0.8447        -999.25              8       -1.15716         2.0408      0.8246817      0.9976188
      5722.0000         10.595        -999.25          0.074          115.6           76.8       65.26225         0.8447          0.868          0.868          0.868         0.8759         0.8919        -999.25            8.4      -0.764102       -18.3673      0.6864309              1
      5722.5000         10.755        -999.25          0.074          112.6           74.7        62.0028         0.8759         0.9087         0.8919         0.8919            0.9         0.9174        -999.25            8.4     -0.7710447       -18.3673      0.6170807              1
      5723.0000         10.875        -999.25          0.072          110.6           73.5       60.13121         0.8838         0.9087         0.9087         0.9087         0.9174         0.9352        -999.25            8.8      -0.377986       -18.3673      0.5772599              1
      5723.5000         10.835        -999.25           0.07          110.8             72       57.79702          0.868         0.9087         0.9174         0.9174         0.9262         0.9442        -999.25            8.4     -0.7849293       -38.7755      0.5275961              1
      5724.0000         10.795        -999.25           0.07            112           71.1       56.38804         0.8524         0.8919         0.9174         0.9174         0.9262         0.9442        -999.25              8      -1.191871       -38.7755      0.4976179      0.9970928
      5724.5000         10.595        -999.25          0.068          113.2           71.4       56.82958         0.8295         0.8919         0.9174         0.9174         0.9262         0.9442        -999.25            7.6      -1.598814       -38.7755      0.5070124       0.990927
      5725.0000         10.515        -999.25          0.066          114.4           72.3       58.19635         0.8295         0.8919         0.9262         0.9352         0.9442         0.9624        -999.25            6.8      -2.405755       -38.7755      0.5360926      0.9787007
      5725.5000         10.515        -999.25          0.066            115           73.5       60.02576         0.8371            0.9         0.9442         0.9532         0.9624          0.981        -999.25            6.8      -2.412698       -38.7755      0.5750162      0.9785955
      5726.0000         10.515        -999.25          0.072          115.8           74.1        60.9299         0.8601         0.9087         0.9532         0.9717          0.981              1        -999.25            6.8       -2.41964       -38.7755      0.5942532      0.9784903
      5726.5000         10.515        -999.25           0.07            117           75.3        62.7593         0.8447         0.9174         0.9624         0.9717          0.981              1        -999.25            6.8      -2.426582       -38.7755      0.6331767      0.9783851
      5727.0000         10.515        -999.25          0.066          119.6           75.9       63.66345         0.8295         0.9174         0.9717         0.9532         0.9717         0.9905        -999.25              6      -3.233525       -38.7755      0.6524139      0.9661587
      5727.5000         10.515        -999.25           0.06            122           76.2       64.10497         0.8295         0.9087         0.9174         0.9174         0.9532         0.9624        -999.25              6      -3.240467       -38.7755       0.661808      0.9660535
