#------------------------------------------------------------------------------
# Created by    : vladimir.rabinovich
# Created on    : 09/19/2023 17:20:51
#------------------------------------------------------------------------------
~Version Information Section
VERS.           2.0     :   CWLS log ASCII Standard - VERSION 2.0
WRAP.           NO      :   One line per depth step
~Well Information Section
#MNEM       .UNIT                                         VALUE :DESCRIPTION
#------------------------------------------------------------------------------
STRT        .FT                                             126 :START DEPTH
STOP        .FT                                           15000 :STOP DEPTH
STEP        .FT                                             0.5 :STEP      
NULL        .                                           -999.25 :NULL      
COMP        .                                    MOBIL OIL CORP :COMPANY   
WELL        .                                MCFADDIN TRUST BLK :WELL      
FLD         .                                           WILDCAT :FIELD     
LOC         .                                                   :LOCATION  
CNTY        .                                         JEFFERSON :LOCATION  
STAT        .                                             TEXAS :STATE     
CTRY        .                                     UNITED STATES :COUNTRY   
SRVC        .                                                   :SERVICE COMPANY
DATE        .                             9/13/2023 11:19:11 AM :LOG DATE  
API         .                                    42245029210000 :API NUMBER
UWI         .                                    42245029210000 :UNIQUE WELL ID
XCOORD      .                                  1288949.71304085 :SURFACE X 
YCOORD      .                                  10768198.0929689 :SURFACE Y 
LAT         .                                        29.6663916 :LATITUDE  
LON         .                                       -94.1069885 :LONGITUDE 
ELEV        .FT                                              20 :ELEVATION VALUE
ELEV_TYPE   .                                                DF :ELEVATION REFERENCE TYPE
~Curve Information Section
#MNEM       .UNIT                                      API CODE :CURVE DESCRIPTION
#------------------------------------------------------------------------------
DEPT        .FT                                                 :DEPTH     
ASN         .OHMM                                               :          
LAT         .OHMM                                               :          
LN          .OHMM                                               :          
SN          .OHMM                                               :          
SP          .MV                                                 :          
SP_NORM     .MV                                                 :SP Normalized
VSH_SP      .V/V                                                :Volume of Shale from SP
~A        DEPTH            ASN            LAT             LN             SN             SP        SP_NORM         VSH_SP
# ...
     13961.5000          0.659          0.711         0.6381         0.6417       -31.7702      -4.609707      0.9331536
     13962.0000         0.6498         0.7121         0.6361         0.6402        -31.673      -4.512506      0.9349536
     13962.5000         0.6306         0.7104         0.6331         0.6386       -31.6138      -4.453306      0.9360499
     13963.0000         0.6168         0.7086         0.6274         0.6377       -31.5652      -4.404707      0.9369498
     13963.5000         0.6053         0.7069         0.6216         0.6368        -31.597      -4.436506       0.936361
     13964.0000         0.5999          0.704         0.6159          0.636       -31.6313      -4.470806      0.9357258
     13964.5000         0.5976         0.7011         0.6102         0.6407       -31.6657      -4.505207      0.9350888
     13965.0000         0.5952         0.6982         0.6044         0.6465       -31.6234      -4.462906      0.9358721
     13965.5000         0.5928         0.6952         0.5987         0.6523       -31.5483      -4.387806      0.9372628
     13966.0000         0.5918         0.6923         0.5929         0.6569       -31.4734      -4.312906      0.9386499
     13966.5000         0.5922         0.6894         0.5886         0.6605        -31.308      -4.147507      0.9417129
     13967.0000         0.5926         0.6865         0.5874         0.6641       -31.0327      -3.872206       0.946811
     13967.5000          0.593         0.6853         0.5863         0.6679       -30.7581      -3.597607      0.9518962
     13968.0000         0.5933         0.6842         0.5851         0.6724       -30.4828      -3.322306      0.9569944
     13968.5000         0.5937          0.683          0.584         0.6769       -30.2363      -3.075806      0.9615592
     13969.0000         0.5945         0.6819         0.5828         0.6813       -30.1421      -2.981606      0.9633036
     13969.5000         0.5959         0.6808         0.5817         0.6858       -30.0482      -2.887707      0.9650425
     13970.0000         0.5974         0.6796         0.5805         0.6903       -30.0074      -2.846907       0.965798
     13970.5000         0.5988         0.6785         0.5794         0.6947       -29.9982      -2.837706      0.9659684
     13971.0000         0.6002         0.6773         0.5809         0.6998       -30.0025      -2.842007      0.9658887
     13971.5000         0.6017         0.6761         0.5844         0.7063       -30.1435      -2.983006      0.9632777
     13972.0000         0.6035         0.6748         0.5879         0.7129       -30.2842      -3.123707      0.9606721
     13972.5000         0.6055         0.6735         0.5914         0.7194       -30.3178      -3.157307      0.9600499
     13973.0000         0.6074         0.6722         0.5949         0.7256       -30.3085      -3.148006      0.9602221
     13973.5000         0.6093         0.6709         0.5984         0.7306       -30.1563      -2.995806      0.9630406
     13974.0000         0.6107         0.6685         0.6019         0.7355       -29.9479      -2.787407      0.9668999
     13974.5000         0.6121         0.6656         0.6055         0.7396       -29.7835      -2.623007      0.9699443
     13975.0000         0.6173         0.6628          0.609         0.7377       -29.6526      -2.492105      0.9723684
     13975.5000         0.6258         0.6596          0.613         0.7359       -29.5924      -2.431906      0.9734832
     13976.0000         0.6343         0.6551         0.6183          0.734        -29.778      -2.617506      0.9700462
     13976.5000         0.6456         0.6505         0.6236          0.731       -29.9635      -2.803005       0.966611
     13977.0000          0.657         0.6459          0.629          0.728        -30.134      -2.973507      0.9634536
     13977.5000         0.6683         0.6433         0.6343          0.725       -30.3051      -3.144606      0.9602851
     13978.0000         0.6743         0.6434         0.6396          0.722       -30.5525      -3.392006      0.9557036
     13978.5000         0.6781         0.6436          0.645          0.719       -30.8416      -3.681107      0.9503499
     13979.0000         0.6729         0.6437         0.6503          0.716        -31.123      -3.962505      0.9451388
     13979.5000         0.6678         0.6477         0.6553         0.7091       -31.3849      -4.224405      0.9402888
     13980.0000         0.6664         0.6565         0.6584         0.7008       -31.5523      -4.391806      0.9371888
     13980.5000         0.6687         0.6652         0.6616          0.696       -31.5867      -4.426207      0.9365517
     13981.0000         0.6766         0.6739         0.6647         0.6929       -31.5869      -4.426407       0.936548
     13981.5000         0.6845         0.6813         0.6678         0.6912       -31.5776      -4.417107      0.9367203
     13982.0000         0.6924         0.6856          0.671         0.6902       -31.5544      -4.393906      0.9371499
     13982.5000          0.697           0.69         0.6741         0.6886       -31.4888      -4.328306      0.9383647
     13983.0000         0.6985         0.6944         0.6772         0.6783       -31.4232      -4.262707      0.9395795
     13983.5000            0.7         0.6911         0.6802         0.6664       -31.3108      -4.150307       0.941661
     13984.0000         0.7006         0.6874         0.6791         0.6521       -31.1798      -4.019306      0.9440869
     13984.5000          0.696         0.6838         0.6781         0.6378       -30.9715      -3.811007      0.9479443
     13985.0000         0.6915         0.6789         0.6771         0.6278       -30.6349      -3.474405      0.9541777
     13985.5000         0.6869         0.6686         0.6761         0.6179       -30.3413      -3.180805      0.9596147
     13986.0000           0.68         0.6583         0.6751         0.6092       -30.1084      -2.947906      0.9639277
     13986.5000         0.6724         0.6481         0.6741         0.6014       -29.8749      -2.714407      0.9682517
     13987.0000         0.6653         0.6378         0.6645         0.5936       -29.6559      -2.495405      0.9723073
     13987.5000         0.6591         0.6288         0.6468         0.5929       -29.4481      -2.287605      0.9761555
     13988.0000         0.6529         0.6217         0.6292         0.5923       -29.2403      -2.079805      0.9800036
     13988.5000         0.6483         0.6145         0.6114         0.5917       -29.0893      -1.928806      0.9827999
     13989.0000         0.6444         0.6073         0.5937         0.5914        -28.967      -1.806505      0.9850647
     13989.5000         0.6426         0.6007          0.576         0.5918       -28.8324      -1.671906      0.9875573
     13990.0000         0.6416         0.6029         0.5583         0.5922        -28.624      -1.463507      0.9914165
     13990.5000         0.6406         0.6051         0.5441         0.5926       -28.4162      -1.255707      0.9952647
     13991.0000         0.6371         0.6073         0.5378         0.5945       -28.2385      -1.078007      0.9985554
     13991.5000         0.6291         0.6095         0.5315         0.5972       -28.1415     -0.9810066              1
     13992.0000         0.6285         0.6117         0.5252         0.5999       -28.0443     -0.8838062              1
     13992.5000         0.6283         0.6233         0.5189         0.6026       -27.9473     -0.7868061              1
     13993.0000         0.6281         0.6358         0.5126         0.6053       -27.8548     -0.6943054              1
     13993.5000         0.6265         0.6482         0.5102         0.6076       -27.7623     -0.6018066              1
     13994.0000         0.6141         0.6607         0.5091         0.6099       -27.6698      -0.509306              1
     13994.5000          0.588         0.6778         0.5081         0.6123       -27.5975      -0.437006              1
