#------------------------------------------------------------------------------
# Created by    : vladimir.rabinovich
# Created on    : 09/19/2023 17:22:24
#------------------------------------------------------------------------------
~Version Information Section
VERS.           2.0     :   CWLS log ASCII Standard - VERSION 2.0
WRAP.           NO      :   One line per depth step
~Well Information Section
#MNEM       .UNIT                                         VALUE :DESCRIPTION
#------------------------------------------------------------------------------
STRT        .FT                                            1850 :START DEPTH
STOP        .FT                                            8215 :STOP DEPTH
STEP        .FT                                             0.5 :STEP      
NULL        .                                           -999.25 :NULL      
COMP        .                                  NOBLE ENERGY INC :COMPANY   
WELL        .                                           MEADOWS :WELL      
FLD         .                                          BINDWEED :FIELD     
LOC         .                                                   :LOCATION  
CNTY        .                                         JEFFERSON :LOCATION  
STAT        .                                             TEXAS :STATE     
CTRY        .                                     UNITED STATES :COUNTRY   
SRVC        .                                                   :SERVICE COMPANY
DATE        .                             9/13/2023 11:18:46 AM :LOG DATE  
API         .                                    42245325230000 :API NUMBER
UWI         .                                    42245325230000 :UNIQUE WELL ID
XCOORD      .                                  1273245.27472043 :SURFACE X 
YCOORD      .                                  10899721.9019567 :SURFACE Y 
LAT         .                                           30.0277 :LATITUDE  
LON         .                                       -94.1606194 :LONGITUDE 
ELEV        .FT                                              29 :ELEVATION VALUE
ELEV_TYPE   .                                                KB :ELEVATION REFERENCE TYPE
~Curve Information Section
#MNEM       .UNIT                                      API CODE :CURVE DESCRIPTION
#------------------------------------------------------------------------------
DEPT        .FT                                                 :DEPTH     
CALX        .IN                                                 :          
DPSS        .%                                                  :          
DRHO        .G/CM3                                              :          
DT24        .US/FT                                              :          
GR          .GAPI                                               :          
GR_NORM     .GAPI                                               :GammaRay Normalized
M2R1        .OHMM                                               :          
M2R2        .OHMM                                               :          
M2R3        .OHMM                                               :          
M2R6        .OHMM                                               :          
M2R9        .OHMM                                               :          
M2RX        .OHMM                                               :          
NPSS        .%                                                  :Neutron Porosity Sandstone
SP          .MV                                                 :          
SP_NORM     .MV                                                 :SP Normalized
TENS        .LB                                                 :          
VSH_GR      .V/V                                                :Volume of Shale from GR
VSH_SP      .V/V                                                :Volume of Shale from SP
~A        DEPTH           CALX           DPSS           DRHO           DT24             GR        GR_NORM           M2R1           M2R2           M2R3           M2R6           M2R9           M2RX           NPSS             SP        SP_NORM           TENS         VSH_GR         VSH_SP
# ...
      6134.0000         10.035             24          0.056       118.9796           85.2       77.67338         0.6671         0.6543         0.6671         0.6607         0.6481         0.6176        38.6939        -4.4898        -2.7719      -120.4082      0.9504974       0.973153
      6134.5000          9.995           23.4          0.056       113.8776           83.7         76.159         0.7189         0.6866         0.7126         0.7063         0.6933         0.6607        35.8776        -4.4898      -2.736596      -120.4082      0.9182767      0.9736879
      6135.0000          9.955          21.72          0.056       107.7551           78.3       70.74464         0.7517         0.7063         0.7584         0.7517         0.7254         0.7126         33.551         -4.898      -3.109491      -120.4082      0.8030774       0.968038
      6135.5000          9.875          20.76          0.056       103.2653           75.3       67.73026         0.7859          0.745         0.7384          0.745         0.7319         0.7319        34.2857        -7.7551      -5.931287      -120.4082      0.7389418      0.9252836
      6136.0000          9.835           20.4          0.054        104.898        74.4118       66.82769         0.7584         0.7319         0.7126         0.7126         0.7126         0.7126             36       -10.6122      -8.753082      -120.4082      0.7197381      0.8825291
      6136.5000          9.755          20.88          0.048       108.9796           75.6       68.00152         0.7126            0.7         0.6933         0.6866         0.6607         0.6735        38.0816       -12.2449      -10.35048      -120.4082      0.7447131      0.8583261
      6137.0000          9.755          21.96          0.042       113.2653           75.3       67.68715         0.6671         0.6481         0.6543         0.6419         0.6176         0.6296         39.551       -11.4286      -9.498874      -120.4082      0.7380245      0.8712292
      6137.5000          9.755          23.04          0.038        117.551        73.5294       65.90218         0.6357         0.6176         0.6058         0.6117         0.6176         0.6296        39.4286       -10.2041      -8.239068      -120.4082      0.7000463      0.8903171
      6138.0000          9.755          23.64          0.036       120.7843        72.6471        65.0055         0.6058         0.6117            0.6         0.6117         0.6176         0.6296        39.1837       -10.6122      -8.611864      -120.4082      0.6809681      0.8846687
      6138.5000          9.715          24.48          0.036       124.5098           77.1       69.44402            0.6         0.6117         0.5892         0.6058         0.6117         0.6236        40.0408       -11.0204      -8.984759           -100      0.7754048      0.8790188
      6139.0000          9.635           25.2          0.036        127.451           84.6       76.92965            0.6         0.6117         0.5838            0.6         0.6058         0.6176        41.0204       -10.2041      -8.133154           -100      0.9346734      0.8919219
      6139.5000          9.635          25.68           0.04       129.8039           88.2       80.51527         0.5946         0.6117         0.5838         0.5946            0.6         0.6117        41.8776        -8.1633       -6.05705           -100              1      0.9233781
      6140.0000          9.635           25.8           0.04       129.6078           89.7        82.0009         0.5838         0.6058         0.5946         0.6117         0.6176         0.6296        44.7059        -6.1224      -3.980845           -100              1      0.9548357
      6140.5000         9.5962           25.8          0.044       128.2343        90.6091       82.89563         0.5838         0.5946         0.6117         0.6296         0.6357         0.6481        48.3671        -6.5261      -4.349241           -100              1      0.9492539
      6141.0000         9.5982          25.68          0.046       126.8578        90.6242       82.89635         0.5892         0.6058         0.6236         0.6357         0.6419         0.6543        51.6675        -6.5193      -4.307137           -100              1      0.9498919
      6141.5000         9.6002          25.44          0.048        125.282        89.7394       81.99718         0.5946         0.6117         0.6357         0.6481         0.6543         0.6671        53.0071        -6.1068      -3.859332           -100              1      0.9566768
      6142.0000         9.6822           25.2          0.052        124.687        88.8545       81.09791         0.5838         0.6117         0.6357         0.6481         0.6543         0.6671         53.002        -5.6939      -3.411128           -100              1      0.9634678
      6142.5000         9.6842          25.08          0.054       124.8787        88.8697       81.09874         0.5733         0.6058         0.6296         0.6357         0.6419         0.6543        51.9001         -5.688      -3.369923           -100              1      0.9640921
      6143.0000         9.7262          25.08          0.058        125.268        92.4848       84.69947         0.5578            0.6         0.6236         0.6296         0.6357         0.6481        49.7045        -4.8704      -2.517018           -100              1      0.9770149
      6143.5000         9.7282          25.32          0.062       125.6581           95.8        88.0003         0.5477         0.5838         0.6117         0.6236         0.6296         0.6419        48.4865        -4.8654      -2.476714       -79.5918              1      0.9776255
      6144.0000         9.6902          25.56          0.064       126.2464        96.7152       88.90112         0.5329         0.5733            0.6         0.6058         0.6117         0.6236        50.5516        -4.8604      -2.436409       -59.1837              1      0.9782362
      6144.5000         9.6922           25.8          0.068       127.0337        94.6303       86.80185         0.5281         0.5578         0.5838         0.5892         0.5946         0.6058        52.6126        -4.8554      -2.396105       -79.5918              1      0.9788469
      6145.0000         9.6942          25.92          0.068       127.6246        92.8455       85.00267         0.5281         0.5681         0.5838         0.5892         0.5946         0.6058        52.9717        -5.2545      -2.785364           -100              1       0.972949
      6145.5000         9.6962          26.16          0.068       128.2167        93.4576        85.6004         0.5329         0.5733         0.5892         0.5946            0.6         0.6117        48.6057        -5.2491      -2.779964           -100              1      0.9730309
      6146.0000         9.7382          26.16          0.064       128.0166        94.9727       87.10113         0.5477         0.5838         0.5946         0.6058         0.6117         0.6236        44.5488        -5.6471      -3.177964      -120.4082              1      0.9670005
      6146.5000         9.8202          26.04           0.06       127.6176        94.6879       86.80195         0.5527         0.5946         0.6058         0.6117         0.6176         0.6296        42.6401        -5.6413      -3.172164      -120.4082              1      0.9670884
      6147.0000         9.8222           25.8          0.054       127.2177         91.103       83.20267         0.5629            0.6         0.6176         0.6236         0.6296         0.6419        42.9925        -5.6356      -3.166464      -120.4082              1      0.9671748
      6147.5000         9.8642          25.56          0.048       126.2202        88.4182        80.5035         0.5681         0.6058         0.6296         0.6296         0.6357         0.6481        45.6128        -5.6309      -3.161764      -120.4082              1       0.967246
