#------------------------------------------------------------------------------
# Created by    : vladimir.rabinovich
# Created on    : 09/19/2023 17:22:02
#------------------------------------------------------------------------------
~Version Information Section
VERS.           2.0     :   CWLS log ASCII Standard - VERSION 2.0
WRAP.           NO      :   One line per depth step
~Well Information Section
#MNEM       .UNIT                                         VALUE :DESCRIPTION
#------------------------------------------------------------------------------
STRT        .FT                                          2944.5 :START DEPTH
STOP        .FT                                           12030 :STOP DEPTH
STEP        .FT                                             0.5 :STEP      
NULL        .                                           -999.25 :NULL      
COMP        .                                  SAMEDAN OIL CORP :COMPANY   
WELL        .                                         ROBERTSON :WELL      
FLD         .                                     HAMSHIRE WEST :FIELD     
LOC         .                                                   :LOCATION  
CNTY        .                                         JEFFERSON :LOCATION  
STAT        .                                             TEXAS :STATE     
CTRY        .                                     UNITED STATES :COUNTRY   
SRVC        .                                                   :SERVICE COMPANY
DATE        .                             9/13/2023 11:18:46 AM :LOG DATE  
API         .                                    42245321120000 :API NUMBER
UWI         .                                    42245321120000 :UNIQUE WELL ID
XCOORD      .                                  1214919.43989532 :SURFACE X 
YCOORD      .                                  10839736.7579652 :SURFACE Y 
LAT         .                                        29.8609813 :LATITUDE  
LON         .                                       -94.3427285 :LONGITUDE 
ELEV        .FT                                              38 :ELEVATION VALUE
ELEV_TYPE   .                                                KB :ELEVATION REFERENCE TYPE
~Curve Information Section
#MNEM       .UNIT                                      API CODE :CURVE DESCRIPTION
#------------------------------------------------------------------------------
DEPT        .FT                                                 :DEPTH     
CALI        .IN                                                 :          
DPSS        .%                                                  :          
DRHO        .G/CM3                                              :          
GR          .GAPI                                               :          
GR_NORM     .GAPI                                               :GammaRay Normalized
ILD         .OHMM                                               :          
ILM         .OHMM                                               :          
NPSS        .%                                                  :Neutron Porosity Sandstone
SGRD        .OHMM                                               :          
SP          .MV                                                 :          
SP_NORM     .MV                                                 :SP Normalized
TENS        .LB                                                 :          
VSH_GR      .V/V                                                :Volume of Shale from GR
VSH_SP      .V/V                                                :Volume of Shale from SP
~A        DEPTH           CALI           DPSS           DRHO             GR        GR_NORM            ILD            ILM           NPSS           SGRD             SP        SP_NORM           TENS         VSH_GR         VSH_SP
# ...
     10198.5000         8.9968        20.1678          0.014          56.85       58.11814         1.0193         1.3864        27.4948         4.4102         -138.8      -67.65749       3594.168      0.5344285      0.2908777
     10199.0000         9.0148        20.1228          0.014          57.45        58.8251         1.0524         1.3797        27.4481         4.6632         -127.6      -56.45487       3699.011      0.5494701      0.4100546
     10199.5000         9.0328        21.2782          0.014          61.65       63.76927         1.0865         1.3794        28.0618         4.2889         -115.2      -44.05225       3803.749      0.6546654      0.5419973
     10200.0000         9.2709        22.1335          0.018           67.5        70.6555         1.1583         1.3791        28.4949         3.2719           -109      -37.84965       3868.759      0.8011809      0.6079825
     10200.5000         9.3894        19.8616           0.03        74.2498       78.60079         1.2696          1.411        28.6815         2.3324         -105.6      -34.44703       3812.417      0.9702296      0.6441805
     10201.0000         9.4684        17.1048         0.0499          78.45       83.54518         1.3853         1.4909        29.1645         1.7032         -100.4      -29.24442       3773.801              1      0.6995275
     10201.5000         9.5274        17.2278         0.0589          79.95       85.31145         1.4045         1.5898        29.5275         1.4909          -97.4       -26.2418       3695.579              1      0.7314702
     10202.0000         9.5864        17.8308         0.0608          79.65       84.95911         1.3539         1.7032        30.0106         1.5466          -98.2      -27.03918       3617.357              1      0.7229874
     10202.5000         9.2654        17.8338         0.0738           78.9       84.07711         1.1636         1.7427        29.9536         1.7996         -101.8      -30.63657       3578.741              1      0.6847173
     10203.0000         9.1445        18.2565         0.0747        69.5851        73.1142         1.0185         1.5971        28.7566         2.3973         -107.6      -36.43395       3579.732      0.8534937      0.6230431
     10203.5000         9.1235        18.9195         0.0527        58.6012       60.18688         0.8618         1.3354        26.8395         3.5147           -127      -55.83134       3580.722      0.5784442      0.4166879
     10204.0000         9.1225        21.2627         0.0296        47.3435       46.93728         0.7398         1.0713        27.6226         4.2814      -143.0302      -71.85892       3601.515      0.2965378      0.2461817
     10204.5000         9.1415        23.9058         0.0176         46.586       46.04646         0.7398         0.8379        29.0656         3.2955      -159.2851      -88.11121       3602.505      0.2775842     0.07328504
     10205.0000         9.1405        25.2285         0.0135        56.3287       57.51441         0.7398         0.7782         30.563         1.9817      -164.0952      -92.91869       3603.495      0.5215831     0.02214156
     10205.5000         9.1595        24.2715         0.0165        66.1032       69.01979         0.7229         0.7746        31.5166         1.7669      -159.9051      -88.72598       3624.288      0.7663785     0.06674486
     10206.0000         9.1785        20.8546         0.0304        68.9652       72.38912         0.6936         0.8494        31.5196         2.5093      -146.0638      -74.88206       3625.279      0.8380664      0.2140207
     10206.5000         9.1375        18.6375         0.0524        64.4339       67.05652         0.6562         0.9318        30.8096         3.8631         -119.4      -48.21565       3626.269      0.7246068      0.4977058
     10207.0000         9.1165        20.2606         0.0513        57.1987       58.54143         0.6065         0.9405        31.4661         4.6056           -124      -52.81303       3627.259      0.5434347      0.4487975
     10207.5000         9.0754        23.7438         0.0283         53.741       54.47246         0.5738          0.853        32.4788         4.5197      -145.6776      -74.48801       3628.249      0.4568609      0.2182126
     10208.0000         9.0744        26.2666         0.0152        55.6836       56.75966         0.5307          0.733        32.4817         3.8079      -166.1554       -94.9632       3629.239      0.5055248    0.000391534
     10208.5000         9.0734        27.8297         0.0102        55.2261       56.22195         0.4708         0.6232        32.1877         2.9339      -174.5658       -103.371       3630.229       0.494084              0
     10209.0000         9.0724        28.4927         0.0061        52.6684       53.21228         0.4231         0.5479        32.1907         2.1933      -179.7343      -108.5369       3631.219      0.4300484              0
     10209.5000         9.0714        28.6757         0.0041        52.5109       53.02765         0.3805         0.4977        32.0154         1.6954      -182.7142      -111.5142       3632.209      0.4261202              0
     10210.0000         9.0904        28.3787          0.008        55.3535       56.37416         0.3753         0.4773         31.959         1.2696      -183.1165      -111.9138         3633.2      0.4973225              0
     10210.5000         9.1294        27.0017           0.01           59.4       61.13766         0.3892         0.4817         31.962         1.0812      -181.1386      -109.9333       3634.192      0.5986736              0
     10211.0000         9.1684        25.2046         0.0159        65.4545       68.26459         0.4269         0.5139        32.0244         1.1689       -175.396      -104.1881       3635.188      0.7503104              0
     10211.5000         9.2274        23.4075         0.0209        74.3939       78.78704         0.5115         0.5785         32.265         1.3664         -157.8       -86.5895       3636.183      0.9741924      0.0894734
     10212.0000         9.3664        21.1907         0.0298          81.45       87.09284         0.6258         0.6838        31.9709         1.4637         -126.2      -54.98688       3637.178              1      0.4256715
     10212.5000         9.3054        21.2537         0.0498          83.25       89.21221         0.8036          0.822        33.0433          1.424          -99.2      -27.98426       3638.173              1      0.7129334
     10213.0000         9.5244        21.2567         0.0677          76.35       81.09164         1.0566          0.967        34.2939         1.6045       -90.4128      -19.19446       3639.168              1       0.806442
     10213.5000         9.3835        21.0798         0.0857        67.1212       70.23008         1.1961         1.1424        32.6928         2.1931       -93.8039      -22.58294       3659.966      0.7921293      0.7703943
     10214.0000         9.1625        22.0425         0.0836        62.8788       65.23752         1.1961         1.3664        30.3194         3.0275         -103.6      -32.37642       3660.961      0.6859046      0.6662083
     10214.5000         9.1215        23.7856         0.0466        66.6667       69.69665         1.1476         1.5185        29.7256         3.7352         -114.2       -42.9738       3642.153      0.7807797      0.5534702
     10215.0000         9.3005        24.2087         0.0275        71.8182       75.76073         1.1063         1.5325        31.5136         3.4092         -119.6      -48.37119       3643.149      0.9098027      0.4960512
     10215.5000         9.4995        23.4916         0.0295        71.5152       75.40485         1.1012         1.5046        32.8827         2.8126         -120.2      -48.96857       3624.341      0.9022309       0.489696
     10216.0000         9.5385        22.1146         0.0544        74.2424       78.61554         1.1476         1.5046        31.9354         2.2032         -118.2      -46.96596       3625.336      0.9705434      0.5110005
