#------------------------------------------------------------------------------
# Created by    : vladimir.rabinovich
# Created on    : 09/19/2023 17:20:58
#------------------------------------------------------------------------------
~Version Information Section
VERS.           2.0     :   CWLS log ASCII Standard - VERSION 2.0
WRAP.           NO      :   One line per depth step
~Well Information Section
#MNEM       .UNIT                                         VALUE :DESCRIPTION
#------------------------------------------------------------------------------
STRT        .FT                                            1876 :START DEPTH
STOP        .FT                                            8575 :STOP DEPTH
STEP        .FT                                             0.5 :STEP      
NULL        .                                           -999.25 :NULL      
COMP        .                                      L G D C CORP :COMPANY   
WELL        .                                          GARTH CO :WELL      
FLD         .                                       CHEEK SOUTH :FIELD     
LOC         .                                                   :LOCATION  
CNTY        .                                         JEFFERSON :LOCATION  
STAT        .                                             TEXAS :STATE     
CTRY        .                                     UNITED STATES :COUNTRY   
SRVC        .                                                   :SERVICE COMPANY
DATE        .                             9/13/2023 11:18:46 AM :LOG DATE  
API         .                                    42245322600000 :API NUMBER
UWI         .                                    42245322600000 :UNIQUE WELL ID
XCOORD      .                                  1261779.14844878 :SURFACE X 
YCOORD      .                                  10885364.2183051 :SURFACE Y 
LAT         .                                        29.9878888 :LATITUDE  
LON         .                                       -94.1963831 :LONGITUDE 
ELEV        .FT                                            39.9 :ELEVATION VALUE
ELEV_TYPE   .                                                KB :ELEVATION REFERENCE TYPE
~Curve Information Section
#MNEM       .UNIT                                      API CODE :CURVE DESCRIPTION
#------------------------------------------------------------------------------
DEPT        .FT                                                 :DEPTH     
AT10        .OHMM                                               :          
AT30        .OHMM                                               :          
AT60        .OHMM                                               :          
AT90        .OHMM                                               :          
DCAL        .IN                                                 :          
DPSS        .V/V                                                :          
DRHO        .G/CM3                                              :          
GR          .GAPI                                               :          
GR_NORM     .GAPI                                               :GammaRay Normalized
NPSS        .V/V                                                :Neutron Porosity Sandstone
SP          .MV                                                 :          
SP_NORM     .MV                                                 :SP Normalized
TENS        .LB                                                 :          
VSH_GR      .V/V                                                :Volume of Shale from GR
VSH_SP      .V/V                                                :Volume of Shale from SP
~A        DEPTH           AT10           AT30           AT60           AT90           DCAL           DPSS           DRHO             GR        GR_NORM           NPSS             SP        SP_NORM           TENS         VSH_GR         VSH_SP
# ...
      2097.0000        -999.25        -999.25        -999.25        -999.25        -999.25        -999.25        -999.25         31.943       46.64314         0.4794        -999.25        -999.25        -999.25      0.2902796        -999.25
      2097.5000        -999.25        -999.25        -999.25        -999.25        -999.25        -999.25        -999.25        29.6956       42.88107         0.5076        -999.25        -999.25        -999.25      0.2102355        -999.25
      2098.0000        -999.25        -999.25        -999.25        -999.25        -999.25        -999.25        -999.25        28.0192       39.85988         0.5441        -999.25        -999.25        -999.25      0.1459549        -999.25
      2098.5000        -999.25        -999.25        -999.25        -999.25        -999.25        -999.25        -999.25        25.5768       35.61021         0.5812        -999.25        -999.25        -999.25     0.05553639        -999.25
      2099.0000        -999.25        -999.25        -999.25        -999.25        -999.25        -999.25        -999.25        25.1142       34.53566         0.5988        -999.25        -999.25        -999.25     0.03267353        -999.25
      2099.5000        -999.25        -999.25        -999.25        -999.25        -999.25        -999.25        -999.25        26.3318       36.15574         0.6029        -999.25        -999.25        -999.25      0.0671433        -999.25
      2100.0000         0.6935         0.4094        -999.25         0.3857         0.2745         0.2256         -0.326         28.623        39.4976         0.6018         -82.79      -30.93815        -999.25      0.1382469      0.4455898
      2100.5000         0.6967         0.4094         0.3892         0.3857         0.5686         0.2694        -0.1755        30.1662       41.63989         0.5994       -88.3842      -36.53235        -999.25      0.1838274      0.3419935
      2101.0000         0.7032         0.4094         0.3892         0.3839         0.8235         0.3318         -0.022        31.8265       43.96993         0.5424       -91.1567      -39.30485        -999.25      0.2334027       0.290651
      2101.5000         0.7065         0.4094         0.3892         0.3804         0.8235         0.4578         -0.016        33.7797       46.76974          0.498       -93.1328      -41.28094        -999.25      0.2929732      0.2540566
      2102.0000          0.713         0.4075         0.3874         0.3804         0.6275         0.4968         -0.003        35.5812       49.32626         0.4584       -94.1094      -42.25755        -999.25      0.3473671      0.2359714
      2102.5000         0.7196         0.4075         0.3874         0.3804         0.6667         0.4992          0.001        36.0487       49.74335          0.456        -94.887      -43.03515        -999.25      0.3562416      0.2215713
      2103.0000         0.7163         0.4056         0.3874         0.3804         0.8039          0.474          0.002        36.0723       49.44855         0.4566       -96.0684      -44.21655        -999.25      0.3499691      0.1996936
      2103.5000         0.7163         0.4056         0.3874         0.3804         1.0392         0.4572          0.003        35.8008       48.68048         0.4446       -97.4534      -45.60155        -999.25      0.3336273      0.1740454
      2104.0000         0.7097         0.4075         0.3874         0.3804         1.4118         0.4422          0.005        36.4141       49.33142         0.4248       -98.8413      -46.98945        -999.25       0.347477      0.1483435
      2104.5000         0.7065         0.4075         0.3892         0.3804         1.9216         0.4272          0.012        38.2042       51.86965         0.4218       -99.6268      -47.77495        -999.25      0.4014819      0.1337973
      2105.0000            0.7         0.4094         0.3892         0.3804           2.52          0.432          0.012        39.2553       53.22269         0.4236      -100.4021      -48.55025        -999.25        0.43027      0.1194399
      2105.5000            0.7         0.4094          0.391         0.3804           3.12         0.4386          0.011        38.6878       51.97992         0.4272      -100.7741      -48.92225        -999.25       0.403828      0.1125509
      2106.0000            0.7         0.4113         0.3928         0.3821           3.54          0.438           0.01        37.2405       49.32615         0.4824      -100.9495      -49.09765        -999.25      0.3473648      0.1093028
      2106.5000            0.7         0.4113         0.3946         0.3839           3.52         0.4482          0.009        36.0894        47.1474         0.5352      -100.7334      -48.88155        -999.25      0.3010085      0.1133047
      2107.0000            0.7         0.4132            0.4         0.3892           3.14         0.4542          0.009        35.6732       46.14726         0.5214      -100.5178      -48.66595        -999.25       0.279729      0.1172973
      2107.5000         0.7065         0.4171         0.4075         0.3964           2.84         0.4422          0.004        35.8433       46.08741         0.4938      -100.4978      -48.64595        -999.25      0.2784555      0.1176676
      2108.0000         0.7196          0.419         0.4152         0.4037           2.56         0.4145          0.003        35.8669       45.79261         0.4536      -100.2828      -48.43095        -999.25      0.2721832      0.1216491
      2108.5000            0.7          0.419         0.4171         0.4056           2.38         0.3927          0.001        34.8677       43.85748          0.417      -100.6526      -48.80075        -999.25      0.2310102      0.1148009
      2109.0000         0.6807          0.419         0.4113         0.4019           2.24         0.3745          0.001        34.7462       43.32997         0.4067       -101.411      -49.55915        -999.25      0.2197866      0.1007565
      2109.5000         0.6649          0.419         0.4037         0.3946           2.08         0.3667          0.004        34.7708       43.03678         0.4085       -102.168      -50.31615        -999.25      0.2135485     0.08673802
      2110.0000         0.6743         0.4132            0.4         0.3874         1.9412         0.3588          0.008        35.2323       43.44425         0.4073      -102.3407      -50.48885        -999.25      0.2222181      0.0835399
      2110.5000         0.6807         0.4075         0.3982         0.3857         1.8431         0.3522          0.011        35.6715       43.81598         0.3933      -102.3399      -50.48804        -999.25      0.2301271     0.08355473
      2111.0000         0.6775         0.4037         0.3982         0.3839         1.8824          0.351           0.01        34.4919       41.59153         0.3933      -102.7495      -50.89764        -999.25      0.1827985     0.07596955
      2111.5000         0.6681            0.4         0.3982         0.3839         1.9804         0.3486          0.004        32.2928       37.73205         0.3921      -102.7687      -50.91685        -999.25       0.100682     0.07561394
      2112.0000         0.6681            0.4         0.3928         0.3821           2.06         0.3456          0.006        31.2589       35.74127         0.3739      -102.7879      -50.93605        -999.25     0.05832485     0.07525832
      2112.5000         0.6557            0.4         0.3839         0.3804           2.14         0.3534          0.011        31.5358       35.85271          0.357      -102.4188      -50.56695        -999.25     0.06069589     0.08209356
      2113.0000         0.6376            0.4         0.3718         0.3787           2.18         0.3655          0.009        33.1234       38.06617         0.3534      -102.6322      -50.78035        -999.25      0.1077909     0.07814167
      2113.5000         0.6142         0.3964         0.3668         0.3769           2.12         0.3685          0.005        35.5835       41.67892         0.3504      -103.0398      -51.18795        -999.25       0.184658     0.07059351
