#------------------------------------------------------------------------------
# Created by    : vladimir.rabinovich
# Created on    : 09/19/2023 17:22:02
#------------------------------------------------------------------------------
~Version Information Section
VERS.           2.0     :   CWLS log ASCII Standard - VERSION 2.0
WRAP.           NO      :   One line per depth step
~Well Information Section
#MNEM       .UNIT                                         VALUE :DESCRIPTION
#------------------------------------------------------------------------------
STRT        .FT                                          2944.5 :START DEPTH
STOP        .FT                                           12030 :STOP DEPTH
STEP        .FT                                             0.5 :STEP      
NULL        .                                           -999.25 :NULL      
COMP        .                                  SAMEDAN OIL CORP :COMPANY   
WELL        .                                         ROBERTSON :WELL      
FLD         .                                     HAMSHIRE WEST :FIELD     
LOC         .                                                   :LOCATION  
CNTY        .                                         JEFFERSON :LOCATION  
STAT        .                                             TEXAS :STATE     
CTRY        .                                     UNITED STATES :COUNTRY   
SRVC        .                                                   :SERVICE COMPANY
DATE        .                             9/13/2023 11:18:46 AM :LOG DATE  
API         .                                    42245321120000 :API NUMBER
UWI         .                                    42245321120000 :UNIQUE WELL ID
XCOORD      .                                  1214919.43989532 :SURFACE X 
YCOORD      .                                  10839736.7579652 :SURFACE Y 
LAT         .                                        29.8609813 :LATITUDE  
LON         .                                       -94.3427285 :LONGITUDE 
ELEV        .FT                                              38 :ELEVATION VALUE
ELEV_TYPE   .                                                KB :ELEVATION REFERENCE TYPE
~Curve Information Section
#MNEM       .UNIT                                      API CODE :CURVE DESCRIPTION
#------------------------------------------------------------------------------
DEPT        .FT                                                 :DEPTH     
CALI        .IN                                                 :          
DPSS        .%                                                  :          
DRHO        .G/CM3                                              :          
GR          .GAPI                                               :          
GR_NORM     .GAPI                                               :GammaRay Normalized
ILD         .OHMM                                               :          
ILM         .OHMM                                               :          
NPSS        .%                                                  :Neutron Porosity Sandstone
SGRD        .OHMM                                               :          
SP          .MV                                                 :          
SP_NORM     .MV                                                 :SP Normalized
TENS        .LB                                                 :          
VSH_GR      .V/V                                                :Volume of Shale from GR
VSH_SP      .V/V                                                :Volume of Shale from SP
~A        DEPTH           CALI           DPSS           DRHO             GR        GR_NORM            ILD            ILM           NPSS           SGRD             SP        SP_NORM           TENS         VSH_GR         VSH_SP
# ...
      9604.5000           8.91          26.04         0.0129        46.8755       40.93147         1.0046         1.2182        30.5941         3.6406         -154.8       -86.7643       3568.571      0.1687547      0.1753433
      9605.0000           8.91          25.56         0.0149        52.2407       48.07907         1.0092         1.2991        31.3069         3.7077         -149.4      -81.36167       3549.575      0.3208313      0.2272916
      9605.5000           8.91          25.26         0.0149        57.3128       54.83624         1.0092         1.2991        30.8911         3.6731           -145      -76.95906       3510.578      0.4646008      0.2696244
      9606.0000           8.89           24.3         0.0129          60.75       59.41564         1.0092         1.2813        30.1188         3.4914         -140.6      -72.55645       3491.583      0.5620348      0.3119572
      9606.5000           8.91          22.74         0.0129          61.65       60.61534         1.0092         1.2754          29.28          3.214         -136.4      -68.35383       3492.588      0.5875605       0.352367
      9607.0000           8.91          21.18         0.0119          64.05       63.81312         1.0139         1.2754          28.68         2.9317         -134.4      -66.35121       3473.592      0.6555983       0.371623
      9607.5000           8.93           20.4         0.0109          68.85       70.20784         1.0139         1.2754          29.58         2.6369         -131.2       -63.1486       3394.593      0.7916562      0.4024173
      9608.0000           8.93          21.42         0.0099          70.35       72.20678         1.0139         1.2872        31.0099         2.6007         -120.8      -52.74599       3415.599      0.8341868      0.5024424
      9608.5000           8.95          23.52         0.0089          67.95        69.0107         1.0139         1.2813        31.3069         2.8517         -131.4      -63.34336       3416.503      0.7661852      0.4005446
      9609.0000           8.95          25.08         0.0089             66       66.41405         1.0139         1.2696        30.7723         3.2278         -135.2      -67.14075       3417.508      0.7109373      0.3640312
      9609.5000           8.95           26.1         0.0079             63       62.41875              1         1.2696        30.4158         3.5045         -136.2      -68.13814       3418.513       0.625931       0.354441
      9610.0000           8.93          26.46         0.0079        56.8508       54.22854         0.9729         1.2696        30.4752         3.6511         -136.2      -68.13552       3419.519       0.451671      0.3544661
      9610.5000           8.91          26.76         0.0089          54.45       51.03139         0.9422         1.2638        30.4752         3.7867         -136.2       -68.1329           3440      0.3836467      0.3544913
      9611.0000           8.91             27         0.0109          55.05       51.83149         0.9083          1.258        30.1188         4.0186         -136.2      -68.13029           3440      0.4006699      0.3545164
      9611.5000           8.91          26.94         0.0119           57.3       54.82947         0.8916         1.2465          29.58         3.9456         -136.2      -68.12768           3440      0.4644568      0.3545416
      9612.0000           8.95          26.58         0.0129             60       58.42687         0.8708         1.2351           29.4         3.6342         -136.2      -68.12506           3440      0.5409973      0.3545667
      9612.5000           8.99          26.22         0.0149          60.15       58.62753         0.8626         1.2295        30.1188         3.3019         -136.2      -68.12244           3460      0.5452667      0.3545919
      9613.0000           9.05          26.22         0.0158           59.4       57.62935         0.8626         1.2351        30.3564          3.317         -135.4      -67.31982           3460      0.5240287      0.3623094
      9613.5000           9.05          26.34         0.0168           58.2       56.03174         0.8667         1.2408        30.9505          3.536         -135.8      -67.71722           3460      0.4900371      0.3584882
      9614.0000           9.07          26.58         0.0178          56.25       53.43509          0.879         1.2465        31.2475         3.6676         -135.6      -67.51461           3480      0.4347891      0.3604364
      9614.5000           9.07          26.76         0.0188          54.75       51.43786         0.8874         1.2696        30.7129          3.804         -135.2      -67.11198           3480      0.3922949      0.3643079
      9615.0000           9.09           26.7         0.0188          56.85       54.23604         0.9083         1.3051             30         3.8389         -135.4      -67.30936           3480      0.4518306      0.3624099
      9615.5000           9.11          25.98         0.0228          58.95       57.03421         0.9422         1.3354          29.34         3.8919         -135.4      -67.30676           3480      0.5113662       0.362435
      9616.0000           9.11          24.48         0.0277           59.1       57.23486         0.9774         1.3726          28.02         4.0374         -135.4      -67.30414           3500      0.5156354      0.3624602
      9616.5000           9.11           22.2         0.0307          57.75       55.43745         1.0139          1.411          26.34         4.4307         -134.2      -66.10152           3500      0.4773926      0.3740238
      9617.0000           9.11          20.46         0.0277           57.9       55.63813         1.0374          1.457          24.84         4.7068           -130      -61.89891           3500      0.4816623      0.4144335
      9617.5000           9.07           20.7         0.0158           60.9       59.63514         1.0566         1.4977           24.6         4.4307           -118       -49.8963           3520       0.566705      0.5298433
      9618.0000           9.03          21.42         0.0149           63.9       57.69756         1.0762         1.5396          26.22         3.5522      -112.8218      -44.71548           3520        0.52548      0.5796588
      9618.5000           8.93          21.24         0.0347           66.3       62.05478         1.0861         1.5538          27.96         2.6491      -110.0495      -41.94057           3520      0.6181869      0.6063407
      9619.0000           8.85          21.84         0.0554           63.9       57.69991         1.0664         1.5538           29.4         2.3392      -109.8515      -41.73995           3520        0.52553      0.6082697
      9619.5000           8.85          23.88         0.0554           58.8       48.44444         1.0232         1.5396        30.8911         2.6859         -119.6      -51.48583           3540      0.3286052      0.5145593
      9620.0000           8.85          25.68         0.0267           56.4       44.08954          0.964          1.484        31.1287          3.472         -130.6      -62.48323           3540      0.2359477      0.4088151
      9620.5000           8.85           26.4         0.0168          56.25       43.81847         0.9041         1.4305        30.7129         4.1131           -134      -65.88061       3540.386      0.2301801       0.376148
      9621.0000           8.85          26.52         0.0139             54       39.73583         0.8465         1.3477        30.8911         4.3694           -137      -68.87799       3561.103      0.1433155       0.347327
      9621.5000           8.85          26.52         0.0109           53.4       38.64798         0.8038         1.2696        31.6634         4.3491         -143.2      -75.07537         3581.8      0.1201698      0.2877368
      9622.0000           8.87          26.82         0.0099           54.6       40.82717         0.7711         1.1961        31.9604         4.3694         -147.8      -79.67277       3602.475      0.1665356      0.2435311
