#------------------------------------------------------------------------------
# Created by    : vladimir.rabinovich
# Created on    : 09/19/2023 17:20:58
#------------------------------------------------------------------------------
~Version Information Section
VERS.           2.0     :   CWLS log ASCII Standard - VERSION 2.0
WRAP.           NO      :   One line per depth step
~Well Information Section
#MNEM       .UNIT                                         VALUE :DESCRIPTION
#------------------------------------------------------------------------------
STRT        .FT                                            1876 :START DEPTH
STOP        .FT                                            8575 :STOP DEPTH
STEP        .FT                                             0.5 :STEP      
NULL        .                                           -999.25 :NULL      
COMP        .                                      L G D C CORP :COMPANY   
WELL        .                                          GARTH CO :WELL      
FLD         .                                       CHEEK SOUTH :FIELD     
LOC         .                                                   :LOCATION  
CNTY        .                                         JEFFERSON :LOCATION  
STAT        .                                             TEXAS :STATE     
CTRY        .                                     UNITED STATES :COUNTRY   
SRVC        .                                                   :SERVICE COMPANY
DATE        .                             9/13/2023 11:18:46 AM :LOG DATE  
API         .                                    42245322600000 :API NUMBER
UWI         .                                    42245322600000 :UNIQUE WELL ID
XCOORD      .                                  1261779.14844878 :SURFACE X 
YCOORD      .                                  10885364.2183051 :SURFACE Y 
LAT         .                                        29.9878888 :LATITUDE  
LON         .                                       -94.1963831 :LONGITUDE 
ELEV        .FT                                            39.9 :ELEVATION VALUE
ELEV_TYPE   .                                                KB :ELEVATION REFERENCE TYPE
~Curve Information Section
#MNEM       .UNIT                                      API CODE :CURVE DESCRIPTION
#------------------------------------------------------------------------------
DEPT        .FT                                                 :DEPTH     
AT10        .OHMM                                               :          
AT30        .OHMM                                               :          
AT60        .OHMM                                               :          
AT90        .OHMM                                               :          
DCAL        .IN                                                 :          
DPSS        .V/V                                                :          
DRHO        .G/CM3                                              :          
GR          .GAPI                                               :          
GR_NORM     .GAPI                                               :GammaRay Normalized
NPSS        .V/V                                                :Neutron Porosity Sandstone
SP          .MV                                                 :          
SP_NORM     .MV                                                 :SP Normalized
TENS        .LB                                                 :          
VSH_GR      .V/V                                                :Volume of Shale from GR
VSH_SP      .V/V                                                :Volume of Shale from SP
~A        DEPTH           AT10           AT30           AT60           AT90           DCAL           DPSS           DRHO             GR        GR_NORM           NPSS             SP        SP_NORM           TENS         VSH_GR         VSH_SP
# ...
      5106.0000         0.7263         0.5403         0.5812         0.5865           1.32         0.2982        -0.0013           80.4       82.63518         0.3902          -57.8      -21.08595       2555.466              1      0.7170992
      5106.5000         0.7466         0.5681         0.6165         0.6393           1.46          0.285         0.0006          79.05       80.38787         0.4046          -48.8      -12.08385       2576.065              1      0.8438895
      5107.0000         0.7605         0.5892          0.651         0.6812           1.46         0.2676         0.0026          79.65       81.33952         0.4203          -43.8      -7.081745       2577.057              1      0.9143416
      5107.5000          0.764         0.6193         0.6812         0.7263           1.34          0.255         0.0025          79.95       81.79903         0.4489            -42       -5.27964        2577.95              1      0.9397234
      5108.0000         0.7711          0.651         0.7229         0.7746           1.22         0.2472         0.0025           77.4       77.58312         0.4746            -42      -5.277538       2578.942       0.948577       0.939753
      5108.5000         0.8667         0.7032         0.7818         0.8465           1.16          0.237         0.0024        71.8182       68.39354         0.4538          -46.4      -9.675434       2579.933       0.753054      0.8778108
      5109.0000         0.9729          0.764         0.8426          0.879           1.18         0.2251         0.0014        68.6364       63.14114         0.4108          -52.2      -15.47333       2580.925      0.6413009      0.7961503
      5109.5000         1.0327         0.7963         0.8874         0.8708           1.28         0.2233        -0.0007        68.3333       62.61126          0.367          -58.2      -21.47123       2562.308      0.6300268      0.7116729
      5110.0000         1.0185            0.8         0.7927         0.7711           1.34           0.24        -0.0017        67.8788       61.83302          0.349       -63.2323      -26.50142       2543.692      0.6134685       0.640825
      5110.5000         0.8505         0.7296          0.651         0.6335           1.34         0.2622        -0.0037        62.8788       53.59787         0.3417       -71.7172      -34.98422       2525.075      0.4382526       0.521349
      5111.0000         0.6481         0.5603         0.5186         0.5046           1.24         0.2754        -0.0028         60.303       49.33962         0.3551        -79.596      -42.86092       2506.458      0.3476515      0.4104096
      5111.5000         0.6027         0.4685         0.4535          0.441            1.1         0.2868        -0.0029        59.6974       48.31351         0.3761       -84.2371      -47.49991       2507.449      0.3258193      0.3450717
      5112.0000         0.6027         0.4685         0.4535          0.441            1.1         0.2868        -0.0029        59.6974       48.28087         0.3761       -84.2371      -47.49781       2507.449      0.3251249      0.3451013
      5112.5000         0.6138         0.4431         0.4431         0.4309           1.04         0.2964        -0.0029         60.303       49.24173         0.3774       -85.4505       -48.7091       2508.342      0.3455686      0.3280408
      5113.0000         0.6843         0.4514         0.4369         0.4249           1.04         0.2958        -0.0039        63.4848       54.42883         0.3732       -82.4236       -45.6801       2509.333      0.4559326      0.3707028
      5113.5000         0.7066         0.4451         0.4171         0.4056          1.021         0.2838         -0.005        66.3636       59.11889         0.3684       -81.4141       -44.6685        2508.77       0.555721      0.3849508
      5114.0000         0.5946         0.3769          0.352         0.3425          0.943         0.2747        -0.0059        65.4545       57.59487         0.3629       -85.8586      -49.11089       2546.014      0.5232952      0.3223818
      5114.5000         0.4729         0.3198         0.2905         0.2826          0.885         0.2884        -0.0059        61.3636        50.8511         0.3562       -95.9596      -59.20979       2544.046      0.3798107      0.1801438
      5115.0000         0.3752         0.2711         0.2438         0.2372          0.867         0.3131        -0.0059        57.8788       45.10163         0.3562      -103.3333      -66.58138       2561.685      0.2574816     0.07631855
      5115.5000         0.3568         0.2565         0.2405         0.2339          0.829         0.3337        -0.0059        55.1515       40.59485         0.3597      -105.4902      -68.73618       2540.111      0.1615926     0.04596936
      5116.0000         0.4171         0.2749         0.2553         0.2484          0.731         0.3445        -0.0069        54.3939       39.31938         0.3621      -103.5294      -66.77328       2538.143      0.1344548     0.07361571
      5116.5000         0.4556         0.2986         0.2637         0.2565          0.673         0.3457        -0.0059             55       40.28105          0.368      -102.7451      -65.98688       2536.175      0.1549159     0.08469187
      5117.0000         0.3769         0.2553         0.2328         0.2265          0.695         0.3523        -0.0079             55       40.24842         0.3703      -104.3137      -67.55337       2534.207      0.1542216     0.06262863
      5117.5000         0.3069         0.2244         0.2085         0.2028          0.797         0.3649        -0.0129        53.4848       37.73008         0.3739      -106.4706      -69.70816       2532.239      0.1006401     0.03227943
      5118.0000         0.2839         0.2056         0.1954         0.1901          0.799          0.378        -0.0149        52.2727         35.709          0.381      -108.0392      -71.27466       2549.878     0.05763821     0.01021608
      5118.5000           0.28         0.2056            0.2         0.1928          0.821          0.381        -0.0149        51.2121       33.93645         0.3834      -109.0196      -72.25296        2547.91     0.01992457              0
      5119.0000         0.2749         0.2075         0.2047         0.1928          0.843         0.3785        -0.0139        50.9091       33.40673         0.3869      -110.1961      -73.42735       2526.335    0.008653925              0
      5119.5000         0.2736         0.2094         0.2047         0.1937          0.805          0.373        -0.0099        52.7273       36.35687         0.3928      -111.3725      -74.60165       2524.367     0.07142274              0
      5120.0000           0.28         0.2123         0.2047         0.1937          0.707         0.3688        -0.0059         54.697       39.55553         0.3904       -112.549      -75.77605       2522.399      0.1394795              0
      5120.5000         0.2878         0.2153         0.2037         0.1945          0.609         0.3687         -0.005        55.4545       40.76558         0.3795      -113.3333      -76.55824       2520.431      0.1652252              0
      5121.0000         0.2945         0.2193         0.2037         0.1954          0.531         0.3675        -0.0059        55.9091       41.47872         0.3741      -113.9216      -77.14444       2518.463      0.1803983              0
      5121.5000         0.2932         0.2213         0.2019         0.1963          0.473         0.3668        -0.0079        56.9697       43.18601         0.3746      -114.3137      -77.53443       2516.495      0.2167236              0
      5122.0000         0.2972         0.2255         0.2028         0.1973          0.435         0.3698        -0.0119        57.1212        43.4019         0.3865      -114.3137      -77.53233       2514.527       0.221317              0
      5122.5000         0.3014         0.2265         0.2037         0.1982          0.457         0.3727        -0.0129        56.3636       42.12643         0.3991      -113.9216      -77.13812       2532.167      0.1941793              0
