#------------------------------------------------------------------------------
# Created by    : vladimir.rabinovich
# Created on    : 09/19/2023 17:22:56
#------------------------------------------------------------------------------
~Version Information Section
VERS.           2.0     :   CWLS log ASCII Standard - VERSION 2.0
WRAP.           NO      :   One line per depth step
~Well Information Section
#MNEM       .UNIT                                         VALUE :DESCRIPTION
#------------------------------------------------------------------------------
STRT        .FT                                             120 :START DEPTH
STOP        .FT                                           15526 :STOP DEPTH
STEP        .FT                                             0.5 :STEP      
NULL        .                                           -999.25 :NULL      
COMP        .                                    MOBIL OIL CORP :COMPANY   
WELL        .                                MCFADDIN TRUST BLK :WELL      
FLD         .                                           WILDCAT :FIELD     
LOC         .                                                   :LOCATION  
CNTY        .                                         JEFFERSON :LOCATION  
STAT        .                                             TEXAS :STATE     
CTRY        .                                     UNITED STATES :COUNTRY   
SRVC        .                                                   :SERVICE COMPANY
DATE        .                             9/13/2023 11:19:11 AM :LOG DATE  
API         .                                    42245021130000 :API NUMBER
UWI         .                                    42245021130000 :UNIQUE WELL ID
XCOORD      .                                  1317150.22331494 :SURFACE X 
YCOORD      .                                   10814678.490982 :SURFACE Y 
LAT         .                                        29.7949472 :LATITUDE  
LON         .                                       -94.0194715 :LONGITUDE 
ELEV        .FT                                              18 :ELEVATION VALUE
ELEV_TYPE   .                                                DF :ELEVATION REFERENCE TYPE
~Curve Information Section
#MNEM       .UNIT                                      API CODE :CURVE DESCRIPTION
#------------------------------------------------------------------------------
DEPT        .FT                                                 :DEPTH     
SN          .OHMM                                               :          
SP          .MV                                                 :          
SP_NORM     .MV                                                 :SP Normalized
VSH_SP      .V/V                                                :Volume of Shale from SP
~A        DEPTH             SN             SP        SP_NORM         VSH_SP
# ...
      4201.0000         1.0729       -32.5999       6.640251              1
      4201.5000         1.0871       -32.5474        6.69384              1
      4202.0000         1.1012       -32.8265       6.415833              1
      4202.5000         1.1153       -33.1574       6.086025              1
      4203.0000         1.1294       -33.4882       5.756313              1
      4203.5000         1.1436       -34.1636       5.082005              1
      4204.0000         1.1719        -34.899       4.347698              1
      4204.5000         1.2053       -35.7529       3.494888              1
      4205.0000         1.2453       -37.0059       2.242977              1
      4205.5000         1.2975       -38.4633      0.7866707              1
      4206.0000         1.3497        -40.217     -0.9659386              1
      4206.5000         1.4052       -42.3495      -3.097347      0.9744226
      4207.0000         1.4616       -44.7615      -5.508255      0.9450213
      4207.5000         1.5191       -47.1757      -7.921364      0.9155931
      4208.0000         1.6336       -49.1898      -9.934372      0.8910443
      4208.5000         1.7425       -51.1659      -11.90938      0.8669587
      4209.0000         1.8448       -53.1296      -13.87199      0.8430245
      4209.5000         1.9305       -54.8308       -15.5721      0.8222915
      4210.0000         1.9746       -56.5308      -17.27101      0.8015731
      4210.5000          1.969         -58.09      -18.82912      0.7825717
      4211.0000         1.9634       -58.8645      -19.60252        0.77314
      4211.5000         1.9549        -56.837      -17.57394      0.7978788
      4212.0000         1.9199        -53.978      -14.71384       0.832758
      4212.5000         1.8362        -51.233      -11.96775      0.8662469
      4213.0000         1.7429       -48.6332      -9.366863      0.8979651
      4213.5000         1.6217       -46.4023      -7.134872      0.9251845
      4214.0000         1.5074       -45.0331       -5.76458      0.9418954
      4214.5000         1.4046       -43.6639      -4.394287      0.9586062
      4215.0000         1.3154       -42.2936      -3.022896      0.9753305
      4215.5000         1.2573       -41.0687      -1.796906      0.9902816
      4216.0000         1.1993       -39.8929     -0.6200142              1
      4216.5000         1.1511        -38.717      0.5569763              1
      4217.0000         1.1156       -37.5401       1.734966              1
      4217.5000         1.0931        -36.665       2.611156              1
      4218.0000         1.0895       -35.8714       3.405849              1
      4218.5000          1.086        -35.706       3.572338              1
      4219.0000         1.0824       -41.6432       -2.36377      0.9833686
      4219.5000         1.0789       -46.8359      -7.555378      0.9200563
      4220.0000         1.0753       -51.2307      -11.94909      0.8664745
      4220.5000         1.0715       -55.8915       -16.6088      0.8096488
      4221.0000         1.0678       -61.8599      -22.57611      0.7368767
      4221.5000          1.064       -70.4136      -31.12871      0.6325767
      4222.0000         1.0603       -71.3524      -32.06643      0.6211411
      4222.5000         1.0565       -70.4437      -31.15664      0.6322362
      4223.0000         1.0528        -66.847      -27.55884      0.6761117
      4223.5000          1.049       -63.2123      -23.92305      0.7204506
      4224.0000         1.0453       -58.7885      -19.49816      0.7744127
      4224.5000         1.0415       -45.0275      -5.736069       0.942243
      4225.0000         1.0377       -37.1948       2.097721              1
      4225.5000         1.0387       -34.3983       4.895313              1
      4226.0000           1.04       -32.1093       7.185406              1
      4226.5000         1.0412       -30.1427       9.153099              1
      4227.0000         1.0425       -29.1547       10.14219              1
      4227.5000         1.0438       -28.1672       11.13078              1
      4228.0000         1.0451       -27.2216       12.07747              1
      4228.5000         1.0464       -26.8944       12.40576              1
      4229.0000         1.0477       -26.5672       12.73405              1
      4229.5000         1.0493        -26.709       12.59335              1
      4230.0000         1.0549       -26.9214       12.38204              1
      4230.5000         1.0604       -27.2225       12.08203              1
      4231.0000          1.066       -27.5377       11.76792              1
      4231.5000         1.0715       -27.8528       11.45391              1
      4232.0000         1.0695        -28.168        11.1398              1
      4232.5000         1.0595       -28.4832       10.82569              1
      4233.0000         1.0494        -28.868       10.44198              1
      4233.5000         1.0391       -29.3408       9.970274              1
      4234.0000         1.0281       -29.8136       9.498564              1
      4234.5000         1.0171       -30.2863       9.026955              1
      4235.0000         1.0061       -30.7642       8.550146              1
      4235.5000         0.9951       -31.2604       8.055037              1
      4236.0000         0.9842       -31.7567       7.559828              1
      4236.5000         0.9753       -32.2948        7.02282              1
      4237.0000         0.9663       -33.0034       6.315311              1
      4237.5000         0.9574       -33.7115       5.608303              1
      4238.0000         0.9485       -34.4196       4.901291              1
      4238.5000         0.9395       -35.2561       4.065884              1
      4239.0000         0.9306       -36.1307       3.192375              1
      4239.5000          0.925       -37.0053       2.318867              1
      4240.0000         0.9219       -37.8805       1.444756              1
      4240.5000         0.9188       -39.0781      0.2482491              1
      4241.0000         0.9161       -40.2986     -0.9711609              1
      4241.5000         0.9153       -42.3853       -3.05677      0.9749174
      4242.0000         0.9146       -46.6862      -7.356579      0.9224808
      4242.5000         0.9139       -51.2106      -11.87989      0.8673184
      4243.0000         0.9132       -56.1732       -16.8414      0.8068122
      4243.5000         0.9131       -63.2369      -23.90401      0.7206829
      4244.0000         0.9137       -66.9879      -27.65392      0.6749523
      4244.5000         0.9143       -71.6598      -32.32472      0.6179912
      4245.0000         0.9148       -76.7877      -37.45153      0.5554692
      4245.5000         0.9154       -81.2764      -41.93914      0.5007422
      4246.0000          0.916       -85.3024      -45.96405       0.451658
      4246.5000         0.9165       -89.4154      -50.07595      0.4015127
      4247.0000         0.9163       -93.4257      -54.08516        0.35262
      4247.5000         0.9152       -95.1671      -55.82547      0.3313967
      4248.0000         0.9141       -90.8036      -51.46088      0.3846234
      4248.5000         0.9131       -86.7129      -47.36909      0.4345233
      4249.0000          0.912       -83.8583       -44.5134      0.4693488
      4249.5000         0.9109       -80.8875      -41.54151      0.5055914
      4250.0000         0.9098       -62.6602      -23.31312      0.7278888
      4250.5000         0.9082       -39.4492     -0.1010284              1
      4251.0000         0.9066       -37.6295       1.719761              1
      4251.5000          0.905        -36.129       3.221352              1
      4252.0000         0.9035       -35.2869       4.064545              1
      4252.5000         0.9039       -34.4453       4.907234              1
      4253.0000         0.9053       -35.6021       3.751526              1
      4253.5000          0.907       -37.6038       1.750916              1
