#------------------------------------------------------------------------------
# Created by    : vladimir.rabinovich
# Created on    : 09/19/2023 17:22:24
#------------------------------------------------------------------------------
~Version Information Section
VERS.           2.0     :   CWLS log ASCII Standard - VERSION 2.0
WRAP.           NO      :   One line per depth step
~Well Information Section
#MNEM       .UNIT                                         VALUE :DESCRIPTION
#------------------------------------------------------------------------------
STRT        .FT                                            1850 :START DEPTH
STOP        .FT                                            8215 :STOP DEPTH
STEP        .FT                                             0.5 :STEP      
NULL        .                                           -999.25 :NULL      
COMP        .                                  NOBLE ENERGY INC :COMPANY   
WELL        .                                           MEADOWS :WELL      
FLD         .                                          BINDWEED :FIELD     
LOC         .                                                   :LOCATION  
CNTY        .                                         JEFFERSON :LOCATION  
STAT        .                                             TEXAS :STATE     
CTRY        .                                     UNITED STATES :COUNTRY   
SRVC        .                                                   :SERVICE COMPANY
DATE        .                             9/13/2023 11:18:46 AM :LOG DATE  
API         .                                    42245325230000 :API NUMBER
UWI         .                                    42245325230000 :UNIQUE WELL ID
XCOORD      .                                  1273245.27472043 :SURFACE X 
YCOORD      .                                  10899721.9019567 :SURFACE Y 
LAT         .                                           30.0277 :LATITUDE  
LON         .                                       -94.1606194 :LONGITUDE 
ELEV        .FT                                              29 :ELEVATION VALUE
ELEV_TYPE   .                                                KB :ELEVATION REFERENCE TYPE
~Curve Information Section
#MNEM       .UNIT                                      API CODE :CURVE DESCRIPTION
#------------------------------------------------------------------------------
DEPT        .FT                                                 :DEPTH     
CALX        .IN                                                 :          
DPSS        .%                                                  :          
DRHO        .G/CM3                                              :          
DT24        .US/FT                                              :          
GR          .GAPI                                               :          
GR_NORM     .GAPI                                               :GammaRay Normalized
M2R1        .OHMM                                               :          
M2R2        .OHMM                                               :          
M2R3        .OHMM                                               :          
M2R6        .OHMM                                               :          
M2R9        .OHMM                                               :          
M2RX        .OHMM                                               :          
NPSS        .%                                                  :Neutron Porosity Sandstone
SP          .MV                                                 :          
SP_NORM     .MV                                                 :SP Normalized
TENS        .LB                                                 :          
VSH_GR      .V/V                                                :Volume of Shale from GR
VSH_SP      .V/V                                                :Volume of Shale from SP
~A        DEPTH           CALX           DPSS           DRHO           DT24             GR        GR_NORM           M2R1           M2R2           M2R3           M2R6           M2R9           M2RX           NPSS             SP        SP_NORM           TENS         VSH_GR         VSH_SP
# ...
      4482.0000        11.0995        -999.25         0.0735          136.4        74.9463       84.01456         0.7849         0.8295         0.8524            0.9         0.9262         0.9624        -999.25         0.4082      -2.060936       -18.3673              1      0.9848438
      4482.5000        11.0995        -999.25         0.0755          131.4        70.6637       78.17918         0.8371          0.868         0.8838         0.9174         0.9532          0.981        -999.25         0.4082      -2.060936       -38.7755      0.9612591      0.9848438
      4483.0000        11.0587        -999.25         0.0857       126.1224        67.3048       73.60244          0.868         0.8838         0.9174         0.9352         0.9624          0.981        -999.25        -0.7843      -3.253436       -38.7755      0.8638817      0.9678081
      4483.5000        11.0587        -999.25         0.0959       120.6122        66.0811       71.93505         0.8838         0.8919         0.9174         0.9532         0.9624          0.981        -999.25        -3.1373      -5.606436       -38.7755      0.8284053      0.9341938
      4484.0000        11.0179        -999.25          0.108          117.6        67.8973       74.40977         0.8838         0.8919         0.9087         0.9262         0.9532         0.9624        -999.25         -5.098      -7.567136       -38.7755      0.8810589      0.9061838
      4484.5000        11.0179        -999.25           0.12          119.6        70.0133       77.29297         0.8524         0.8838            0.9         0.9174         0.9174         0.9442        -999.25        -5.8824      -8.351536       -38.7755      0.9424036       0.894978
      4485.0000        11.0179        -999.25          0.122       123.2653        72.1249       80.17019         0.8073         0.8447         0.8838         0.9087         0.9087         0.9262        -999.25        -4.3137      -6.782836       -38.7755              1      0.9173881
      4485.5000        11.0179        -999.25          0.118       126.7347        72.7208       80.98214            0.8         0.8295         0.8759         0.8838         0.8919         0.9174        -999.25        -1.9608      -4.429936       -38.7755              1      0.9510009
      4486.0000        11.0179        -999.25          0.114       129.7959        73.6155       82.20124         0.7849         0.8073         0.8759         0.8838         0.8919         0.9087        -999.25        -1.1765      -3.645636       -38.7755              1      0.9622052
      4486.5000        11.0179        -999.25          0.104          131.2        73.6017       82.18244         0.7627            0.8          0.868         0.8759         0.8838            0.9        -999.25              0      -2.469136       -38.7755              1      0.9790124
      4487.0000        11.0179        -999.25         0.0918          132.4        74.1917       82.98637         0.7272         0.7849         0.8447         0.8524         0.8601         0.8759        -999.25              0      -2.469136       -38.7755              1      0.9790124
      4487.5000        11.0179        -999.25         0.0816          133.4        74.7806       83.78877         0.6937         0.7627         0.8146         0.8295         0.8371         0.8524        -999.25              0      -2.469136       -38.7755              1      0.9790124
      4488.0000        10.9362        -999.25         0.0714            135        74.4643        83.3578         0.6812         0.7412         0.7849            0.8         0.8073          0.822        -999.25         0.4082      -2.060936       -38.7755              1      0.9848438
      4488.5000        10.9362        -999.25         0.0653          137.2        73.8476        82.5175         0.6812         0.7203         0.7555         0.7774         0.7849         0.7924        -999.25         0.4082      -2.060936       -38.7755              1      0.9848438
      4489.0000         10.977        -999.25         0.0612            140        72.9313       81.26897         0.6751         0.7135         0.7272         0.7483         0.7555         0.7701        -999.25              0      -2.469136       -38.7755              1      0.9790124
      4489.5000        11.0179        -999.25         0.0612       141.6327        72.6178        80.8418         0.6751            0.7            0.7         0.7272         0.7342         0.7483        -999.25              0      -2.469136       -38.7755              1      0.9790124
      4490.0000        11.0587        -999.25         0.0612       140.4082         72.305       80.41559         0.6751         0.6874         0.6937         0.6937            0.7         0.7067        -999.25        -0.3922      -2.861336       -38.7755              1      0.9734095
      4490.5000        11.0592        -999.25         0.0633       137.1983           71.1       78.77367         0.7067         0.6874            0.7         0.6874         0.6937            0.7        -999.25        -1.9511      -4.420236       -38.7755      0.9739079      0.9511395
      4491.0000        11.0193        -999.25         0.0694       132.3877           69.6       76.72981         0.7701         0.7342         0.7272         0.7067         0.7135         0.7067        -999.25        -5.0823      -7.551436       -38.7755      0.9304215      0.9064081
      4491.5000        11.0201        -999.25         0.0817       129.3626           66.9       73.05087         0.8146         0.7627         0.7555         0.7342         0.7412         0.7412        -999.25        -9.4087      -11.87784       -38.7755      0.8521461      0.8446023
      4492.0000         11.021        -999.25         0.0898       126.7097           64.8       70.18946         0.8371         0.7849         0.7701         0.7627         0.7701         0.7555        -999.25       -11.7775      -14.24664       -38.7755      0.7912651      0.8107623
      4492.5000        11.0219        -999.25         0.0959       124.8747           62.4       66.91927         0.8838         0.8146         0.8146         0.8146          0.822         0.7924        -999.25       -10.9895      -13.45864       -38.7755      0.7216867      0.8220195
      4493.0000        10.9416        -999.25            0.1       123.4493           60.6       64.46663         0.9442         0.9352         0.8919         0.8919            0.9         0.9624        -999.25        -8.6125      -11.08164       -38.7755      0.6695027      0.8559766
      4493.5000        10.9426        -999.25          0.106       125.2701        58.1754       61.16293              1         1.0279          0.981              1         1.0092         1.0662        -999.25        -5.8289      -8.298036       -38.7755      0.5992113      0.8957424
      4494.0000         10.903        -999.25          0.108       127.8972        57.5697       60.33763         0.9442         0.9624         0.9532         0.9905         1.0092         1.0469        -999.25        -3.4322      -5.901336       -38.7755      0.5816516      0.9299809
      4494.5000        10.8636        -999.25            0.1       134.5527        59.6965       63.23554         0.8146         0.8919            0.9         0.9352         0.9532          0.981        -999.25        -1.4245      -3.893636       -38.7755      0.6433094      0.9586623
      4495.0000        10.8646        -999.25         0.0818       141.2125           66.6       72.64208         0.7412          0.822         0.8601         0.8759            0.9         0.9174        -999.25         -0.208      -2.677136       -38.7755      0.8434486      0.9760409
      4495.5000        10.8654        -999.25         0.0738       143.2307           69.3       76.32104         0.7412            0.8         0.8447         0.8759            0.9         0.9174        -999.25          0.618      -1.851136       -38.7755      0.9217242      0.9878409
