#------------------------------------------------------------------------------
# Created by    : vladimir.rabinovich
# Created on    : 09/19/2023 17:20:51
#------------------------------------------------------------------------------
~Version Information Section
VERS.           2.0     :   CWLS log ASCII Standard - VERSION 2.0
WRAP.           NO      :   One line per depth step
~Well Information Section
#MNEM       .UNIT                                         VALUE :DESCRIPTION
#------------------------------------------------------------------------------
STRT        .FT                                             126 :START DEPTH
STOP        .FT                                           15000 :STOP DEPTH
STEP        .FT                                             0.5 :STEP      
NULL        .                                           -999.25 :NULL      
COMP        .                                    MOBIL OIL CORP :COMPANY   
WELL        .                                MCFADDIN TRUST BLK :WELL      
FLD         .                                           WILDCAT :FIELD     
LOC         .                                                   :LOCATION  
CNTY        .                                         JEFFERSON :LOCATION  
STAT        .                                             TEXAS :STATE     
CTRY        .                                     UNITED STATES :COUNTRY   
SRVC        .                                                   :SERVICE COMPANY
DATE        .                             9/13/2023 11:19:11 AM :LOG DATE  
API         .                                    42245029210000 :API NUMBER
UWI         .                                    42245029210000 :UNIQUE WELL ID
XCOORD      .                                  1288949.71304085 :SURFACE X 
YCOORD      .                                  10768198.0929689 :SURFACE Y 
LAT         .                                        29.6663916 :LATITUDE  
LON         .                                       -94.1069885 :LONGITUDE 
ELEV        .FT                                              20 :ELEVATION VALUE
ELEV_TYPE   .                                                DF :ELEVATION REFERENCE TYPE
~Curve Information Section
#MNEM       .UNIT                                      API CODE :CURVE DESCRIPTION
#------------------------------------------------------------------------------
DEPT        .FT                                                 :DEPTH     
ASN         .OHMM                                               :          
LAT         .OHMM                                               :          
LN          .OHMM                                               :          
SN          .OHMM                                               :          
SP          .MV                                                 :          
SP_NORM     .MV                                                 :SP Normalized
VSH_SP      .V/V                                                :Volume of Shale from SP
~A        DEPTH            ASN            LAT             LN             SN             SP        SP_NORM         VSH_SP
       126.0000        -999.25         0.1457         0.0441         2.8575       -30.4385       28.82076              1
       126.5000        -999.25         0.1487         0.0406         2.8502       -32.4601       26.79916              1
       127.0000        -999.25         0.1516         0.0404         2.8429       -37.4094       21.84986              1
       127.5000        -999.25         0.1531         0.0402         2.8356       -43.6048       15.65446              1
       128.0000        -999.25         0.1502           0.04         2.8272       -46.0844       13.17486              1
       128.5000        -999.25         0.1473         0.0398         2.8177       -48.5798       10.67946              1
       129.0000        -999.25         0.1444         0.0396         2.8221       -50.7291       8.530159              1
       129.5000        -999.25         0.1415         0.0636         2.8943       -52.4711       6.788158              1
       130.0000        -999.25         0.1386         1.1168         2.9926       -53.8936       5.365658              1
       130.5000        -999.25         0.1357         2.3531         3.0814       -54.9017       4.357559              1
       131.0000        -999.25         0.1353         2.6533          3.145        -55.519       3.740257              1
       131.5000        -999.25         0.1357         2.9918         3.2086       -56.0265       3.232758              1
       132.0000        -999.25         0.1361         3.0887         3.2732       -56.3593        2.89996              1
       132.5000        -999.25         0.1365         3.1826         3.3288       -56.6441       2.615158              1
       133.0000        -999.25         0.1369         3.2654         3.3452       -56.8666       2.392658              1
       133.5000        -999.25         0.1372           3.42         3.3432       -57.0891       2.170158              1
       134.0000        -999.25         0.1376         3.4812         3.3402       -57.3326       1.926659              1
       134.5000        -999.25         0.1374         3.5281         3.3358       -57.5971       1.662159              1
       135.0000        -999.25         0.1373         3.5545         3.3343       -57.8616       1.397659              1
       135.5000        -999.25         0.1371         3.5228         3.3349       -58.5493      0.7099571              1
       136.0000        -999.25          0.137         3.4911         3.3355       -59.4197     -0.1604424              1
       136.5000        -999.25         0.1368         3.4594         3.3357       -60.2578     -0.9985428              1
       137.0000         2.0177         0.1367         3.4276         3.3212       -60.9659      -1.706642              1
       137.5000         2.0186          0.136         3.3959         3.3037       -61.6573      -2.398041       0.943137
       138.0000         2.0199         0.1352         3.3734         3.2771       -62.2391      -2.979843      0.8600224
       138.5000         2.0214         0.1345         3.3578         3.1911       -62.1341      -2.874844      0.8750224
       139.0000         2.0228         0.1337         3.3422         3.0632       -61.8367      -2.577442      0.9175082
       139.5000         2.0241         0.1329         3.3266         2.9072       -61.5519      -2.292641      0.9581942
       140.0000          2.024         0.1322         3.3508         2.8236        -61.267       -2.00774      0.9988943
       140.5000         2.0235         0.1328         3.3806         2.7512       -60.9896      -1.730343              1
       141.0000         2.0225         0.1334         3.4175         2.7043       -60.7227       -1.46344              1
       141.5000        -999.25          0.134         3.4568         2.7165       -60.4557      -1.196442              1
       142.0000        -999.25         0.1346         3.4835         2.7405       -60.1887     -0.9294434              1
       142.5000        -999.25         0.1364          3.465         2.7973       -59.9513     -0.6920433              1
       143.0000        -999.25         0.1404         3.4465         2.8554       -59.7484     -0.4891434              1
       143.5000        -999.25         0.1444         3.4198         2.9003       -59.5456     -0.2863426              1
       144.0000        -999.25         0.1528         3.3895         2.9401       -59.3427    -0.08344269              1
       144.5000        -999.25         0.1623         3.3591         2.9012       -59.2095     0.04975891              1
       145.0000        -999.25         0.1766         3.3287         2.8623       -59.2303     0.02895737              1
       145.5000        -999.25         0.2082          3.289         2.8182       -59.2512    0.008056641              1
       146.0000        -999.25         0.2539         3.2468         2.7721       -59.2721    -0.01284027              1
       146.5000        -999.25         0.3265         3.2047          2.719       -59.3317     -0.0724411              1
       147.0000        -999.25         0.4409          3.163         2.6659       -59.5634      -0.304142              1
       147.5000        -999.25         0.6438         3.1216         2.6225        -59.795     -0.5357399              1
       148.0000        -999.25          1.386         3.0803         2.5797       -60.0374      -0.778141              1
       148.5000        -999.25           1.81         3.0415         2.5402       -60.4641      -1.204842              1
       149.0000        -999.25         1.9836         3.0072           2.51       -60.8906       -1.63134              1
       149.5000        -999.25         2.1344         2.9729         2.4797       -61.2761      -2.016842       0.997594
       150.0000        -999.25         2.3088          2.946         2.4507       -61.6241      -2.364841      0.9478798
       150.5000        -999.25         2.4782         2.9284          2.428       -61.9721      -2.712841      0.8981656
       151.0000        -999.25         2.5643         2.9109         2.4053       -62.2531      -2.993843      0.8580224
       151.5000        -999.25         2.6521         2.8933         2.3826       -62.2794      -3.020142      0.8542655
       152.0000        -999.25         2.7985         2.8787         2.3613       -62.3056      -3.046341      0.8505227
       152.5000        -999.25         2.8868         2.8665         2.3408       -62.3231      -3.063843      0.8480225
       153.0000        -999.25         2.9515         2.8544         2.3203       -62.2123      -2.953041      0.8638512
       153.5000        -999.25         2.9789         2.8422         2.2997       -62.1016      -2.842342      0.8796654
       154.0000        -999.25         3.0062           2.83         2.2788       -61.9908      -2.731541      0.8954942
       154.5000        -999.25         3.0328         2.8161         2.2579       -61.8845       -2.62524      0.9106799
       155.0000        -999.25         3.0566         2.8005          2.237       -61.7874      -2.528141      0.9245513
       155.5000        -999.25         3.0479         2.7849         2.2162       -61.6904      -2.431141      0.9384084
       156.0000        -999.25         2.9941         2.7693         2.1955       -61.5934      -2.334141      0.9522656
       156.5000        -999.25         2.9673         2.7514         2.1747       -61.5428      -2.283543      0.9594939
       157.0000        -999.25         2.9405         2.7329         2.1539        -61.506      -2.246742      0.9647511
       157.5000        -999.25         2.9136         2.7144         2.1332       -61.4693      -2.210041      0.9699941
       158.0000        -999.25         2.8868         2.6956         2.1124       -61.4796      -2.220341      0.9685227
       158.5000        -999.25         2.8599         2.6745         2.0928       -61.6487      -2.389442      0.9443654
       159.0000        -999.25         2.8384         2.6534          2.078        -61.804      -2.544743      0.9221796
