#------------------------------------------------------------------------------
# Created by    : vladimir.rabinovich
# Created on    : 09/19/2023 17:20:58
#------------------------------------------------------------------------------
~Version Information Section
VERS.           2.0     :   CWLS log ASCII Standard - VERSION 2.0
WRAP.           NO      :   One line per depth step
~Well Information Section
#MNEM       .UNIT                                         VALUE :DESCRIPTION
#------------------------------------------------------------------------------
STRT        .FT                                            1876 :START DEPTH
STOP        .FT                                            8575 :STOP DEPTH
STEP        .FT                                             0.5 :STEP      
NULL        .                                           -999.25 :NULL      
COMP        .                                      L G D C CORP :COMPANY   
WELL        .                                          GARTH CO :WELL      
FLD         .                                       CHEEK SOUTH :FIELD     
LOC         .                                                   :LOCATION  
CNTY        .                                         JEFFERSON :LOCATION  
STAT        .                                             TEXAS :STATE     
CTRY        .                                     UNITED STATES :COUNTRY   
SRVC        .                                                   :SERVICE COMPANY
DATE        .                             9/13/2023 11:18:46 AM :LOG DATE  
API         .                                    42245322600000 :API NUMBER
UWI         .                                    42245322600000 :UNIQUE WELL ID
XCOORD      .                                  1261779.14844878 :SURFACE X 
YCOORD      .                                  10885364.2183051 :SURFACE Y 
LAT         .                                        29.9878888 :LATITUDE  
LON         .                                       -94.1963831 :LONGITUDE 
ELEV        .FT                                            39.9 :ELEVATION VALUE
ELEV_TYPE   .                                                KB :ELEVATION REFERENCE TYPE
~Curve Information Section
#MNEM       .UNIT                                      API CODE :CURVE DESCRIPTION
#------------------------------------------------------------------------------
DEPT        .FT                                                 :DEPTH     
AT10        .OHMM                                               :          
AT30        .OHMM                                               :          
AT60        .OHMM                                               :          
AT90        .OHMM                                               :          
DCAL        .IN                                                 :          
DPSS        .V/V                                                :          
DRHO        .G/CM3                                              :          
GR          .GAPI                                               :          
GR_NORM     .GAPI                                               :GammaRay Normalized
NPSS        .V/V                                                :Neutron Porosity Sandstone
SP          .MV                                                 :          
SP_NORM     .MV                                                 :SP Normalized
TENS        .LB                                                 :          
VSH_GR      .V/V                                                :Volume of Shale from GR
VSH_SP      .V/V                                                :Volume of Shale from SP
~A        DEPTH           AT10           AT30           AT60           AT90           DCAL           DPSS           DRHO             GR        GR_NORM           NPSS             SP        SP_NORM           TENS         VSH_GR         VSH_SP
# ...
      8132.0000          0.733         0.7163         0.6968         0.6812           0.74         0.2276          0.026          100.5       83.59554         0.3767          -27.6      -2.510221       3636.568              1      0.9612764
      8132.5000         0.7032         0.6968         0.6781         0.6629           0.74         0.2218          0.039          102.3       85.50311         0.3977          -27.4      -2.319258       3637.572              1      0.9661729
      8133.0000         0.6905          0.669          0.651         0.6364           0.78         0.2165          0.051          103.8       87.09151         0.3888          -27.2      -2.128298       3638.576              1      0.9710693
      8133.5000         0.6968         0.6629         0.6451         0.6307           0.92         0.2229          0.042          105.9       89.31821          0.387          -26.8      -1.737333        3639.58              1       0.981094
      8134.0000         0.7196         0.6968         0.6781         0.6629            0.9         0.2235          0.032          107.1       90.58748         0.4062          -26.4      -1.346373           3640              1      0.9911187
      8134.5000          0.764         0.7296         0.7097         0.6937           0.84         0.2147          0.029         106.05       89.46313         0.3972          -26.4       -1.35541           3640              1      0.9908869
      8135.0000          0.789         0.7398         0.7196         0.7032            0.8         0.2118          0.024          104.1       87.38132         0.3666          -26.4      -1.364449           3640              1      0.9906552
      8135.5000         0.7782         0.7364         0.7163            0.7           0.82         0.2188          0.016         102.75       85.93782         0.3479            -27      -1.973486           3640              1      0.9750388
      8136.0000          0.757         0.7263         0.7065         0.6905           0.86         0.2265          0.011          102.3       85.45177         0.3388          -27.2      -2.182526           3600              1      0.9696788
      8136.5000         0.7364         0.7229         0.7032         0.6874           0.86         0.2188           0.02          102.3       85.44444          0.337          -26.8      -1.791561           3600              1      0.9797035
      8137.0000          0.733         0.7196            0.7         0.6843           0.84         0.2129          0.025          102.3        85.4371         0.3497          -26.8        -1.8006           3640              1      0.9794718
      8137.5000         0.7398         0.7229         0.7032         0.6874           0.82         0.2076          0.023         101.85       84.95104           0.36          -26.4      -1.409637           3640              1      0.9894965
      8138.0000         0.7535         0.7398         0.7196         0.7032           0.82         0.2041          0.022          100.5       83.50753         0.3714            -26      -1.018677           3640              1      0.9995211
      8138.5000         0.7675         0.7466         0.7263         0.7097           0.82         0.2012          0.022          99.15       82.06403          0.387            -26      -1.027714           3640              1      0.9992894
      8139.0000          0.764         0.7364         0.7163            0.7           0.86         0.2006          0.027           97.8       80.62053         0.3996          -25.8     -0.8367519           3640              1              1
      8139.5000         0.7675         0.7364         0.7163            0.7           0.86         0.1976          0.035           98.1       80.93233         0.4044            -26       -1.04579           3640              1      0.9988259
      8140.0000         0.7782         0.7398         0.7196         0.7032           0.84         0.1912          0.041          99.15       82.04203         0.3954            -27      -2.054829           3640              1      0.9729531
      8140.5000         0.7535         0.7364         0.7163            0.7           0.86         0.1871          0.038           99.3       82.19427          0.381          -27.6      -2.663866           3640              1      0.9573368
      8141.0000         0.7466          0.733          0.713         0.6968           0.88         0.1929          0.024           99.3       82.18694         0.3804          -27.6      -2.672905           3640              1       0.957105
      8141.5000          0.757         0.7263         0.7065         0.6905           0.86         0.2024          0.013           99.3        82.1796         0.3936          -27.6      -2.681942           3640              1      0.9568733
      8142.0000          0.757         0.7263         0.7065         0.6905           0.86           0.21          0.008           99.3       82.17227         0.4032          -27.6      -2.690981           3640              1      0.9566415
      8142.5000         0.7398         0.7229         0.7032         0.6874           0.88         0.2129          0.002           99.6       82.48409         0.4128          -27.6      -2.700018           3640              1      0.9564098
      8143.0000          0.764         0.7296         0.7097         0.6937            0.9         0.2147          0.006         100.95       83.91291         0.4182          -27.4      -2.509056           3640              1      0.9613063
      8143.5000         0.7818         0.7364         0.7163            0.7            0.9         0.2094           0.01          101.4       84.38432          0.405          -27.2      -2.318094           3640              1      0.9662027
      8144.0000         0.7854         0.7364         0.7163            0.7         0.8995         0.2065           0.01          100.5       83.41953         0.3798            -27      -2.127132           3620              1      0.9710992
      8144.5000          0.764         0.7364         0.7163            0.7         0.8986         0.2071          0.008         100.35       83.25262          0.381          -26.8      -1.936169           3600              1      0.9759957
      8145.0000         0.7535         0.7296         0.7097         0.6937         0.8977         0.2153          0.003         101.55       84.52189         0.3924          -26.6      -1.745209           3600              1      0.9808921
      8145.5000         0.7501         0.7229         0.7032         0.6874          0.857         0.2235          0.003         103.65       86.74859         0.4014          -26.6      -1.754246           3600              1      0.9806604
      8146.0000         0.7296         0.7097         0.6905         0.6751         0.8561         0.2224          0.006          102.3       85.30509         0.3996          -26.4      -1.563284           3640              1      0.9855568
      8146.5000         0.7032         0.6812         0.6629         0.6481         0.8553         0.2176          0.012         100.95       83.86158         0.3972          -26.2      -1.372322           3640              1      0.9904533
      8147.0000         0.7032         0.6843         0.6659          0.651         0.8942         0.2129          0.012         100.05        82.8968         0.3942            -26       -1.18136           3640              1      0.9953498
      8147.5000         0.7296         0.7032         0.6843          0.669         0.8535         0.2118          0.012          101.1       84.00648         0.3882          -25.8     -0.9903965           3640              1              1
      8148.0000         0.7535         0.7163         0.6968         0.6812         0.8328         0.2112          0.012         102.15       85.11617          0.378          -25.4     -0.5994358           3640              1              1
      8148.5000         0.7535         0.7229         0.7032         0.6874         0.8122         0.2135          0.014          101.1       83.99182         0.3786          -25.6     -0.8084736           3640              1              1
