#------------------------------------------------------------------------------
# Created by    : vladimir.rabinovich
# Created on    : 09/19/2023 17:22:24
#------------------------------------------------------------------------------
~Version Information Section
VERS.           2.0     :   CWLS log ASCII Standard - VERSION 2.0
WRAP.           NO      :   One line per depth step
~Well Information Section
#MNEM       .UNIT                                         VALUE :DESCRIPTION
#------------------------------------------------------------------------------
STRT        .FT                                            1850 :START DEPTH
STOP        .FT                                            8215 :STOP DEPTH
STEP        .FT                                             0.5 :STEP      
NULL        .                                           -999.25 :NULL      
COMP        .                                  NOBLE ENERGY INC :COMPANY   
WELL        .                                           MEADOWS :WELL      
FLD         .                                          BINDWEED :FIELD     
LOC         .                                                   :LOCATION  
CNTY        .                                         JEFFERSON :LOCATION  
STAT        .                                             TEXAS :STATE     
CTRY        .                                     UNITED STATES :COUNTRY   
SRVC        .                                                   :SERVICE COMPANY
DATE        .                             9/13/2023 11:18:46 AM :LOG DATE  
API         .                                    42245325230000 :API NUMBER
UWI         .                                    42245325230000 :UNIQUE WELL ID
XCOORD      .                                  1273245.27472043 :SURFACE X 
YCOORD      .                                  10899721.9019567 :SURFACE Y 
LAT         .                                           30.0277 :LATITUDE  
LON         .                                       -94.1606194 :LONGITUDE 
ELEV        .FT                                              29 :ELEVATION VALUE
ELEV_TYPE   .                                                KB :ELEVATION REFERENCE TYPE
~Curve Information Section
#MNEM       .UNIT                                      API CODE :CURVE DESCRIPTION
#------------------------------------------------------------------------------
DEPT        .FT                                                 :DEPTH     
CALX        .IN                                                 :          
DPSS        .%                                                  :          
DRHO        .G/CM3                                              :          
DT24        .US/FT                                              :          
GR          .GAPI                                               :          
GR_NORM     .GAPI                                               :GammaRay Normalized
M2R1        .OHMM                                               :          
M2R2        .OHMM                                               :          
M2R3        .OHMM                                               :          
M2R6        .OHMM                                               :          
M2R9        .OHMM                                               :          
M2RX        .OHMM                                               :          
NPSS        .%                                                  :Neutron Porosity Sandstone
SP          .MV                                                 :          
SP_NORM     .MV                                                 :SP Normalized
TENS        .LB                                                 :          
VSH_GR      .V/V                                                :Volume of Shale from GR
VSH_SP      .V/V                                                :Volume of Shale from SP
~A        DEPTH           CALX           DPSS           DRHO           DT24             GR        GR_NORM           M2R1           M2R2           M2R3           M2R6           M2R9           M2RX           NPSS             SP        SP_NORM           TENS         VSH_GR         VSH_SP
# ...
      2410.0000        13.2219        -999.25           0.06       124.1176           49.5       54.79234         1.0562         0.8402         0.7318         0.6734         0.6357         0.6235        -999.25          -31.2      -22.94756         2.0408      0.4636669      0.5520906
      2410.5000        12.1607        -999.25          0.072       116.7347             48       52.74848         1.1259         0.8912            0.8            0.7            0.7         0.6866        -999.25          -30.8      -22.54962         2.0408      0.4201804      0.5602119
      2411.0000        12.6097        -999.25           0.07       119.1837        43.1633       46.15811         1.1157         0.9322         0.8079         0.7384         0.7254         0.7126        -999.25          -34.4      -26.15168         2.0408      0.2799597      0.4867004
      2411.5000        13.6709        -999.25          0.036        125.098        38.2653       39.48421         1.0467         0.8569          0.772         0.7126         0.6933         0.6801        -999.25          -39.6      -31.35374       -38.7755      0.1379619      0.3805359
      2412.0000        15.0123        -999.25          0.002       134.6939        33.3673       32.81031          0.957         0.7929         0.7189         0.6735         0.6607         0.6481        -999.25          -43.6       -35.3558       -38.7755              0      0.2988612
      2412.5000        15.9974        -999.25        -0.0204          144.4        32.7551       31.97614         0.8825         0.7384         0.6735         0.6357         0.6236         0.6117        -999.25          -45.6      -37.35786       -18.3673              0      0.2580028
      2413.0000         16.977        -999.25        -0.0163          148.2         34.898       34.89601         0.8739         0.7384         0.6735         0.6176         0.6176         0.6058        -999.25          -46.4      -38.15993         2.0408     0.04034067      0.2416341
      2413.5000        17.3036        -999.25         -0.002          143.4        38.5714       39.90129         0.9159         0.7517         0.6866         0.6419         0.6357         0.6236        -999.25          -43.6      -35.36199         22.449      0.1468361      0.2987349
      2414.0000        16.0383        -999.25          0.034       136.3265        40.7143       42.82116         0.9655         0.8079         0.7189         0.6735         0.6607         0.6481        -999.25          -40.4      -32.16405         22.449      0.2089608      0.3639989
      2414.5000        14.1103        -999.25          0.066       129.8039        43.4694       46.57519         1.0092         0.8739          0.745         0.7063            0.7         0.6866        -999.25            -36      -27.76611         22.449      0.2888339      0.4537528
      2415.0000        12.5281        -999.25           0.08       124.3137           46.5       50.70461         1.0184         0.8825         0.7789         0.7319         0.7319         0.7189        -999.25          -31.2      -22.96817         22.449      0.3766939      0.5516699
      2415.5000         11.475        -999.25           0.08       123.5294           46.8       51.11339         1.0184         0.8739         0.7859         0.7384         0.7319         0.7189        -999.25          -29.2      -20.97023         22.449      0.3853913      0.5924442
      2416.0000         10.795        -999.25          0.076       124.1176           45.6        49.4783         0.9826         0.8159         0.7584            0.7         0.6671         0.6543        -999.25          -29.2       -20.9723         22.449      0.3506021      0.5924021
      2416.5000         10.755        -999.25          0.074        125.098        43.1633       46.15811          0.924         0.7584         0.6866         0.6296         0.6058         0.5892        -999.25            -32      -23.77436         22.449      0.2799597      0.5352172
      2417.0000         11.675        -999.25          0.072       127.8431         40.102       41.98686         0.8239         0.6933         0.6176         0.5733         0.5527         0.5329        -999.25          -37.6      -29.37642         2.0408      0.1912097      0.4208894
      2417.5000        12.6505        -999.25          0.076       133.6735        36.7347       37.39865         0.7584         0.6296         0.5578         0.5233         0.5046         0.4825        -999.25          -42.8      -34.57848         2.0408     0.09358832      0.3147249
      2418.0000        13.7526        -999.25          0.076          141.6        33.6735       33.22754         0.7189         0.5733         0.5046         0.4782         0.4614         0.4492        -999.25          -46.4      -38.18054         2.0408    0.004841256      0.2412134
      2418.5000        14.5025        -999.25          0.074            149        32.1429       31.14198         0.7126         0.5578         0.4825         0.4452         0.4335         0.4258        -999.25          -48.4      -40.18261         2.0408              0       0.200355
      2419.0000        14.1103        -999.25          0.066          148.6        33.6735       33.22754         0.7319         0.5578         0.4868         0.4413         0.4296          0.422        -999.25          -46.4      -38.18467         2.0408    0.004841256      0.2411292
      2419.5000        12.6913        -999.25           0.05          146.6        36.1224       36.56434         0.7584         0.5681         0.4868         0.4413         0.4258         0.4183        -999.25          -42.8      -34.58673       -18.3673     0.07583708      0.3145566
      2420.0000         11.555        -999.25          0.046       137.1429        37.3469       38.23282          0.772         0.5733         0.4956         0.4413         0.4258         0.4183        -999.25          -40.8      -32.58879       -18.3673      0.1113366      0.3553309
      2420.5000         11.235        -999.25          0.062       132.2449        38.8776       40.31852         0.7652         0.5733         0.4912         0.4413          0.422         0.4145        -999.25          -39.6      -31.39085       -18.3673      0.1557132      0.3797786
      2421.0000         11.195        -999.25          0.084       131.4286        39.4898       41.15268         0.7584         0.5733         0.4868         0.4373         0.4183         0.4109        -999.25          -40.8      -32.59291       -18.3673      0.1734613      0.3552467
      2421.5000         11.715        -999.25            0.1       135.3061        36.7347       37.39865         0.7517         0.5629         0.4825         0.4335         0.4109         0.4036        -999.25          -44.8      -36.59497       -18.3673     0.09358832       0.273572
      2422.0000        12.4872        -999.25          0.106       139.1837        33.0612       32.39323          0.745         0.5527         0.4697          0.422         0.4036         0.3962        -999.25          -49.2      -40.99704       -18.3673              0       0.183734
      2422.5000        13.2219        -999.25          0.114          141.8        31.5306       30.30768         0.7517         0.5527         0.4655         0.4145         0.3962         0.3887        -999.25          -52.8       -44.5991       -38.7755              0      0.1102225
      2423.0000         13.875        -999.25           0.13          141.8        32.1429       31.14198         0.7517         0.5527         0.4573         0.4072         0.3887         0.3813        -999.25          -54.8      -46.60116       -38.7755              0     0.06936412
      2423.5000        14.0711        -999.25          0.144            142         32.449       31.55907         0.7517         0.5378         0.4492         0.3962         0.3776         0.3705        -999.25          -57.2      -49.00322       -38.7755              0     0.02034246
