#------------------------------------------------------------------------------
# Created by    : vladimir.rabinovich
# Created on    : 09/19/2023 17:22:24
#------------------------------------------------------------------------------
~Version Information Section
VERS.           2.0     :   CWLS log ASCII Standard - VERSION 2.0
WRAP.           NO      :   One line per depth step
~Well Information Section
#MNEM       .UNIT                                         VALUE :DESCRIPTION
#------------------------------------------------------------------------------
STRT        .FT                                            1850 :START DEPTH
STOP        .FT                                            8215 :STOP DEPTH
STEP        .FT                                             0.5 :STEP      
NULL        .                                           -999.25 :NULL      
COMP        .                                  NOBLE ENERGY INC :COMPANY   
WELL        .                                           MEADOWS :WELL      
FLD         .                                          BINDWEED :FIELD     
LOC         .                                                   :LOCATION  
CNTY        .                                         JEFFERSON :LOCATION  
STAT        .                                             TEXAS :STATE     
CTRY        .                                     UNITED STATES :COUNTRY   
SRVC        .                                                   :SERVICE COMPANY
DATE        .                             9/13/2023 11:18:46 AM :LOG DATE  
API         .                                    42245325230000 :API NUMBER
UWI         .                                    42245325230000 :UNIQUE WELL ID
XCOORD      .                                  1273245.27472043 :SURFACE X 
YCOORD      .                                  10899721.9019567 :SURFACE Y 
LAT         .                                           30.0277 :LATITUDE  
LON         .                                       -94.1606194 :LONGITUDE 
ELEV        .FT                                              29 :ELEVATION VALUE
ELEV_TYPE   .                                                KB :ELEVATION REFERENCE TYPE
~Curve Information Section
#MNEM       .UNIT                                      API CODE :CURVE DESCRIPTION
#------------------------------------------------------------------------------
DEPT        .FT                                                 :DEPTH     
CALX        .IN                                                 :          
DPSS        .%                                                  :          
DRHO        .G/CM3                                              :          
DT24        .US/FT                                              :          
GR          .GAPI                                               :          
GR_NORM     .GAPI                                               :GammaRay Normalized
M2R1        .OHMM                                               :          
M2R2        .OHMM                                               :          
M2R3        .OHMM                                               :          
M2R6        .OHMM                                               :          
M2R9        .OHMM                                               :          
M2RX        .OHMM                                               :          
NPSS        .%                                                  :Neutron Porosity Sandstone
SP          .MV                                                 :          
SP_NORM     .MV                                                 :SP Normalized
TENS        .LB                                                 :          
VSH_GR      .V/V                                                :Volume of Shale from GR
VSH_SP      .V/V                                                :Volume of Shale from SP
~A        DEPTH           CALX           DPSS           DRHO           DT24             GR        GR_NORM           M2R1           M2R2           M2R3           M2R6           M2R9           M2RX           NPSS             SP        SP_NORM           TENS         VSH_GR         VSH_SP
# ...
      6960.0000          9.795          29.16          0.024       103.2653           69.6       45.29913         0.4954         0.4309         0.4037            0.4         0.3963         0.3926        34.7755          -70.8      -67.25426       -59.1837      0.2616835     0.03979337
      6960.5000          9.715          28.44          0.026        104.898           70.2       46.16309         0.5092         0.4349          0.419         0.4152         0.4113         0.4075        32.8163          -69.2      -65.65967         2.0408      0.2800657     0.06290336
      6961.0000          9.875          25.92          0.034           97.6           71.1        47.4619         0.5139         0.4431          0.419         0.4152         0.4113         0.4075        30.1224          -67.6      -64.06509        42.8571      0.3077001     0.08601313
      6961.5000          9.995             20          0.052           92.2           71.4       47.89098         0.5378         0.4514          0.419         0.4152         0.4113         0.4075          28.68          -65.6      -62.07051         22.449      0.3168294      0.1149201
      6962.0000         10.275        13.9592          0.074        86.4706           71.4        47.8852         0.5578         0.4642         0.4349         0.4309         0.4269         0.4229          28.32          -65.2      -61.67593       -18.3673      0.3167064      0.1206386
      6962.5000         10.515        13.8367          0.062        86.0784           73.5       50.92347         0.5838         0.4862         0.4514         0.4472         0.4431          0.439          28.68          -64.4      -60.88136       -38.7755      0.3813504      0.1321542
      6963.0000         10.635        18.8235          0.054           94.6           76.2       54.83146         0.5785            0.5         0.4642         0.4599         0.4556         0.4514          29.52          -63.6      -60.08678       -38.7755      0.4644991      0.1436699
      6963.5000         10.595        23.7647          0.048       101.8367           78.6        58.3046         0.5527         0.4908         0.4685         0.4642         0.4599         0.4556        30.6122          -62.8       -59.2922       -38.7755      0.5383958      0.1551855
      6964.0000         10.555          25.92          0.046       104.2857           79.8        60.0383         0.5378         0.4773         0.4685         0.4642         0.4599         0.4514         31.102          -61.6      -58.09762       -38.7755      0.5752829      0.1724983
      6964.5000         10.595          28.32          0.044       105.9184           78.9       58.72791         0.5281         0.4729         0.4642         0.4599         0.4556         0.4472        31.3469          -61.2      -57.70304       -38.7755      0.5474023      0.1782167
      6965.0000         10.795          28.92          0.042        104.898           78.3       57.85239         0.5281         0.4773         0.4817         0.4773         0.4729         0.4642        31.3469          -61.2      -57.70847       -38.7755      0.5287743      0.1781382
      6965.5000         10.995          29.16          0.038       104.2857           77.4       56.54202         0.5378         0.4954            0.5         0.4954         0.4908         0.4817        31.3469            -62      -58.51389       -38.7755       0.500894      0.1664654
      6966.0000         11.115          29.04          0.034       104.0816             78       57.40596         0.5527         0.5186         0.5233         0.5186         0.5139         0.5046        31.3469          -62.8      -59.31931       -38.7755      0.5192758      0.1547927
      6966.5000         11.195          28.92          0.028       103.6735           78.3       57.83504         0.5733         0.5428         0.5477         0.5428         0.5378         0.5233        31.7143          -63.2      -59.72473       -38.7755      0.5284052       0.148917
      6967.0000         11.195          28.68          0.026       103.6735           78.6       58.26412         0.5838         0.5629         0.5681         0.5629         0.5578         0.5378         32.449          -62.4      -58.93015       -38.7755      0.5375345      0.1604326
      6967.5000         11.195          28.56           0.03       104.2857           78.3       57.82349         0.5892         0.5733         0.5785         0.5733         0.5681         0.5629        33.9184          -62.4      -58.93557       -18.3673      0.5281594      0.1603541
      6968.0000         11.195          28.44          0.034       105.5102           78.9       58.68743         0.5946         0.5785         0.5838         0.5785         0.5733         0.5681        34.5306          -62.4      -58.94099       -18.3673      0.5465411      0.1602755
      6968.5000         11.195          28.08          0.038       106.7347           79.8       59.98624         0.5946         0.5892         0.5946         0.5892         0.5838         0.5785        33.7959          -61.6      -58.14641       -18.3673      0.5741752      0.1717912
      6969.0000         11.115          27.72           0.04       106.7347           80.4       60.85019         0.5892         0.5892         0.5946         0.5892         0.5838         0.5785        31.8367          -61.2      -57.75183       -18.3673      0.5925573      0.1775097
      6969.5000         11.115          27.36          0.042       106.7347           80.4       60.84439         0.5785         0.5681         0.5733         0.5681         0.5629         0.5578             30          -60.4      -56.95726       -18.3673      0.5924339      0.1890253
      6970.0000         11.195          27.24          0.042       106.1224           79.5       59.53402         0.5629         0.5378         0.5428         0.5378         0.5329         0.5281          29.76            -60      -56.56268       -18.3673      0.5645536      0.1947438
      6970.5000         11.195          27.24           0.04       105.7143             78       57.35392         0.5378         0.5092         0.5139         0.5092         0.5046            0.5        30.4898          -59.6      -56.16809       -59.1837      0.5181684      0.2004624
      6971.0000         11.195          27.48          0.034       105.3061           76.5       55.17382         0.5139         0.4773         0.4817         0.4773         0.4729         0.4685        31.3469          -59.6      -56.17352       -59.1837      0.4717835      0.2003838
      6971.5000         11.195           27.6          0.028       104.6939           74.7       52.55885         0.4908         0.4642         0.4599         0.4556         0.4514         0.4472        31.9592          -60.8      -57.37894       -59.1837      0.4161457       0.182914
      6972.0000         11.115          27.84          0.028       104.2857           71.1       47.33469         0.4862         0.4514          0.439         0.4349         0.4309         0.4269        31.9592            -62      -58.58436       -59.1837      0.3049933      0.1654441
      6972.5000         10.955          28.32          0.028        104.898           67.5       42.11053         0.4773          0.439         0.4229         0.4113         0.4075         0.3963        31.7143          -62.8      -59.38978       -59.1837      0.1938411      0.1537713
      6973.0000         10.755           28.8          0.028       105.5102           64.8       38.19097         0.4685         0.4152         0.3963         0.3854         0.3819         0.3679         32.449          -63.6       -60.1952       -79.5918      0.1104461      0.1420986
      6973.5000         10.515          29.52          0.028       106.5306           65.4        39.0549         0.4472          0.389         0.3748         0.3612         0.3578          0.348        33.6735            -64      -60.60062       -38.7755      0.1288278      0.1362229
