#------------------------------------------------------------------------------
# Created by    : vladimir.rabinovich
# Created on    : 09/19/2023 17:22:24
#------------------------------------------------------------------------------
~Version Information Section
VERS.           2.0     :   CWLS log ASCII Standard - VERSION 2.0
WRAP.           NO      :   One line per depth step
~Well Information Section
#MNEM       .UNIT                                         VALUE :DESCRIPTION
#------------------------------------------------------------------------------
STRT        .FT                                            1850 :START DEPTH
STOP        .FT                                            8215 :STOP DEPTH
STEP        .FT                                             0.5 :STEP      
NULL        .                                           -999.25 :NULL      
COMP        .                                  NOBLE ENERGY INC :COMPANY   
WELL        .                                           MEADOWS :WELL      
FLD         .                                          BINDWEED :FIELD     
LOC         .                                                   :LOCATION  
CNTY        .                                         JEFFERSON :LOCATION  
STAT        .                                             TEXAS :STATE     
CTRY        .                                     UNITED STATES :COUNTRY   
SRVC        .                                                   :SERVICE COMPANY
DATE        .                             9/13/2023 11:18:46 AM :LOG DATE  
API         .                                    42245325230000 :API NUMBER
UWI         .                                    42245325230000 :UNIQUE WELL ID
XCOORD      .                                  1273245.27472043 :SURFACE X 
YCOORD      .                                  10899721.9019567 :SURFACE Y 
LAT         .                                           30.0277 :LATITUDE  
LON         .                                       -94.1606194 :LONGITUDE 
ELEV        .FT                                              29 :ELEVATION VALUE
ELEV_TYPE   .                                                KB :ELEVATION REFERENCE TYPE
~Curve Information Section
#MNEM       .UNIT                                      API CODE :CURVE DESCRIPTION
#------------------------------------------------------------------------------
DEPT        .FT                                                 :DEPTH     
CALX        .IN                                                 :          
DPSS        .%                                                  :          
DRHO        .G/CM3                                              :          
DT24        .US/FT                                              :          
GR          .GAPI                                               :          
GR_NORM     .GAPI                                               :GammaRay Normalized
M2R1        .OHMM                                               :          
M2R2        .OHMM                                               :          
M2R3        .OHMM                                               :          
M2R6        .OHMM                                               :          
M2R9        .OHMM                                               :          
M2RX        .OHMM                                               :          
NPSS        .%                                                  :Neutron Porosity Sandstone
SP          .MV                                                 :          
SP_NORM     .MV                                                 :SP Normalized
TENS        .LB                                                 :          
VSH_GR      .V/V                                                :Volume of Shale from GR
VSH_SP      .V/V                                                :Volume of Shale from SP
~A        DEPTH           CALX           DPSS           DRHO           DT24             GR        GR_NORM           M2R1           M2R2           M2R3           M2R6           M2R9           M2RX           NPSS             SP        SP_NORM           TENS         VSH_GR         VSH_SP
# ...
      7366.0000          9.972        31.4784          0.016       108.4135           57.6       37.94104         0.3612         0.3231         0.3085         0.3056         0.3028         0.2945        33.2632          -56.4          -56.4         31.107      0.1051285      0.1971014
      7366.5000         9.9699        31.2356          0.018       108.4119           59.7       40.32936         0.3963          0.348         0.3322         0.3322         0.3292         0.3142        32.9031          -54.8          -54.8        50.4844      0.1559438      0.2202899
      7367.0000         9.9679        31.1116          0.022       108.4103           60.9       41.69911          0.439         0.3783          0.348         0.3513          0.348         0.3353           32.9          -55.2          -55.2        69.8619      0.1850874      0.2144927
      7367.5000        10.0459         31.226          0.022       109.4033           59.7        40.3527         0.4599            0.4         0.3612         0.3513          0.348         0.3448        32.5389          -56.8          -56.8        68.8312      0.1564405      0.1913044
      7368.0000        10.1639        31.3407           0.02            111           57.3       37.64821         0.4309         0.3819         0.3416         0.3322         0.3292         0.3261        32.0575            -58            -58        67.8005     0.09889814       0.173913
      7368.5000        10.2419         31.336          0.018          110.2           52.5       32.22757          0.389          0.348         0.3201         0.3113         0.3085         0.3056        33.1299            -58            -58        66.7697              0       0.173913
      7369.0000        10.2398         31.451          0.014       107.6058           50.4        29.8626          0.348         0.3172         0.3028         0.2891         0.2865         0.2839        33.9649          -56.4          -56.4         65.739              0      0.1971014
      7369.5000        10.3178        31.6861          0.014       105.2068           50.4       29.87427         0.3292         0.3028         0.2865         0.2839         0.2813         0.2787        34.6819            -54            -54        64.7083              0      0.2318841
      7370.0000        10.2758        31.9216          0.014       104.2023           51.6       31.24403         0.3353         0.3085         0.2865         0.2891         0.2865         0.2839        34.3207          -52.8          -52.8        63.6776              0      0.2492754
      7370.5000        10.0762          31.92          0.016          104.6         54.906       34.99721         0.3749         0.3354         0.3086         0.3086         0.3057         0.3029           33.6          -52.8          -52.8        83.6735     0.04249378      0.2492754
      7371.0000        10.0383           31.8           0.02          105.6        58.8221       39.44086         0.4116         0.3548         0.3356         0.3264         0.3234         0.3204          32.76            -54            -54       104.0816      0.1370396      0.2318841
      7371.5000        10.0003          31.56         0.0261            106        62.7323       43.87784         0.4235         0.3583         0.3389         0.3357         0.3326         0.3296           31.8          -56.4          -56.4        83.6735      0.2314434      0.1971014
      7372.0000        10.0023          31.08         0.0281            106        63.6414       44.91837         0.4237         0.3585          0.339         0.3359         0.3328         0.3297          31.68       -60.3986       -60.3986        63.2653      0.2535824      0.1391507
      7372.5000        10.0444          30.48         0.0281            106        62.7568       43.92892         0.4161         0.3553         0.3361          0.333         0.3299         0.3268          34.56       -63.1854       -63.1854        63.2653      0.2325301     0.09876235
      7373.0000         10.046          30.48         0.0282          105.6        61.5755       42.60367         0.4162         0.3555           0.33          0.327          0.324          0.321          35.64       -65.9669       -65.9669        63.2653      0.2043335     0.05845067
      7373.5000        10.0481          30.72         0.0242          105.2        60.9926       41.95565         0.4203         0.3623         0.3395         0.3364         0.3333         0.3302          34.92       -67.5507       -67.5507         22.449      0.1905458     0.03549714
      7374.0000        10.0501          30.96         0.0242          104.8        60.7087       41.64603         0.4245         0.3659          0.346         0.3428         0.3397         0.3365          33.36       -67.9403       -67.9403         22.449      0.1839581     0.02985073
      7374.5000        10.0521           31.2         0.0242          108.2        60.7229       41.67378         0.4207          0.366         0.3462          0.343         0.3398         0.3367          31.92       -67.5358       -67.5358         22.449      0.1845485     0.03571308
      7375.0000        10.0542          31.44         0.0263       110.5943        61.6287       42.71058         0.4249         0.3696         0.3464           0.34         0.3369         0.3337          31.56       -66.3395       -66.3395         22.449       0.206608     0.05305072
      7375.5000        10.0962          31.56         0.0283       111.7811        62.8295       44.08123         0.4411         0.3802         0.3596          0.353         0.3433         0.3401             33        -64.354        -64.354        63.2653      0.2357709     0.08182614
      7376.0000        10.2183          31.32         0.0283       110.7908        62.8415       44.10649          0.471         0.4059         0.3804         0.3699         0.3631         0.3598          33.84       -62.3725       -62.3725        63.2653      0.2363082      0.1105435
      7376.5000        10.2203          30.96         0.0284            108        61.9646       43.12574          0.503         0.4254         0.3986         0.3913         0.3841         0.3805          32.88       -61.1851       -61.1851        63.2653      0.2154414      0.1277522
      7377.0000        10.3023           30.6         0.0284          105.2        62.8655         44.157         0.5229         0.4459         0.4178         0.4101         0.3988         0.3915          31.08            -60            -60        63.2653      0.2373829      0.1449275
      7377.5000        10.2644          30.36         0.0284            105         64.356       45.85553         0.5437         0.4673         0.4338         0.4298         0.4141         0.4065        29.1475          -58.4          -58.4         22.449      0.2735218      0.1681159
      7378.0000         10.226          30.24         0.0284            105        65.5481       47.21633         0.5598         0.4852         0.4547         0.4422          0.434         0.4221        29.6343          -56.8          -56.8         2.0408      0.3024751      0.1913044
      7378.5000        10.1881          30.12         0.0346          106.4         64.377       45.90263         0.5765          0.504         0.4721         0.4591         0.4507         0.4383          31.08          -54.8          -54.8       -18.3673      0.2745239      0.2202899
      7379.0000        10.0701             30         0.0366            110        63.7977       45.25868         0.5936          0.519         0.4812         0.4768         0.4593         0.4593          32.64          -55.2          -55.2       -18.3673       0.260823      0.2144927
      7379.5000         9.9921          30.24         0.0408       111.1781        62.3359       43.61599         0.5996         0.5242         0.4859          0.477         0.4682         0.4639          33.36          -57.2          -57.2         2.0408      0.2258721      0.1855072
