#------------------------------------------------------------------------------
# Created by    : vladimir.rabinovich
# Created on    : 09/19/2023 17:22:56
#------------------------------------------------------------------------------
~Version Information Section
VERS.           2.0     :   CWLS log ASCII Standard - VERSION 2.0
WRAP.           NO      :   One line per depth step
~Well Information Section
#MNEM       .UNIT                                         VALUE :DESCRIPTION
#------------------------------------------------------------------------------
STRT        .FT                                             120 :START DEPTH
STOP        .FT                                           15526 :STOP DEPTH
STEP        .FT                                             0.5 :STEP      
NULL        .                                           -999.25 :NULL      
COMP        .                                    MOBIL OIL CORP :COMPANY   
WELL        .                                MCFADDIN TRUST BLK :WELL      
FLD         .                                           WILDCAT :FIELD     
LOC         .                                                   :LOCATION  
CNTY        .                                         JEFFERSON :LOCATION  
STAT        .                                             TEXAS :STATE     
CTRY        .                                     UNITED STATES :COUNTRY   
SRVC        .                                                   :SERVICE COMPANY
DATE        .                             9/13/2023 11:19:11 AM :LOG DATE  
API         .                                    42245021130000 :API NUMBER
UWI         .                                    42245021130000 :UNIQUE WELL ID
XCOORD      .                                  1317150.22331494 :SURFACE X 
YCOORD      .                                   10814678.490982 :SURFACE Y 
LAT         .                                        29.7949472 :LATITUDE  
LON         .                                       -94.0194715 :LONGITUDE 
ELEV        .FT                                              18 :ELEVATION VALUE
ELEV_TYPE   .                                                DF :ELEVATION REFERENCE TYPE
~Curve Information Section
#MNEM       .UNIT                                      API CODE :CURVE DESCRIPTION
#------------------------------------------------------------------------------
DEPT        .FT                                                 :DEPTH     
SN          .OHMM                                               :          
SP          .MV                                                 :          
SP_NORM     .MV                                                 :SP Normalized
VSH_SP      .V/V                                                :Volume of Shale from SP
~A        DEPTH             SN             SP        SP_NORM         VSH_SP
# ...
     15490.0000         0.5833       -43.6675      -1.083889      0.9987842
     15490.5000         0.5875       -43.6052      -1.003731      0.9999459
     15491.0000         0.5917        -43.543     -0.9236717              1
     15491.5000         0.5959       -43.4806     -0.8434105              1
     15492.0000         0.6044       -43.4184     -0.7633514              1
     15492.5000         0.6136        -43.356      -0.683094              1
     15493.0000         0.6227       -43.2813     -0.5905342              1
     15493.5000         0.6327       -43.1849     -0.4762726              1
     15494.0000         0.6568       -43.0888     -0.3623161              1
     15494.5000          0.681       -42.9924     -0.2480583              1
     15495.0000         0.7051        -42.896     -0.1337967              1
     15495.5000         0.7314       -42.7999    -0.01984024              1
     15496.0000         0.7649       -42.7353     0.06262207              1
     15496.5000         0.7985       -42.6815      0.1342812              1
     15497.0000         0.8319       -42.6277      0.2059402              1
     15497.5000         0.8621        -42.574      0.2774963              1
     15498.0000         0.8873       -42.5202      0.3491592              1
     15498.5000         0.8834       -42.4773      0.4099197              1
     15499.0000         0.8802       -42.4351      0.4699745              1
     15499.5000          0.882       -42.3929      0.5300369              1
     15500.0000         0.8837        -42.351      0.5897942              1
     15500.5000         0.8854       -42.3221      0.6226845              1
     15501.0000         0.8935       -42.3333      0.6114845              1
     15501.5000         0.9288       -42.3445      0.6002846              1
     15502.0000         0.9641       -42.3558      0.5889854              1
     15502.5000         0.9959       -42.3671      0.5776863              1
     15503.0000         1.0164       -42.3783      0.5664864              1
     15503.5000         1.0197       -42.3895      0.5552864              1
     15504.0000         1.0139       -42.4444      0.5003853              1
     15504.5000         1.0082        -42.506      0.4387856              1
     15505.0000         1.0024       -42.5677      0.3770866              1
     15505.5000         0.9967       -42.6293      0.3154869              1
     15506.0000         0.9946        -42.691      0.2537842              1
     15506.5000          0.994       -42.7534      0.1913872              1
     15507.0000         0.9933       -42.8321      0.1126862              1
     15507.5000         0.9927       -42.9106     0.03418732              1
     15508.0000          0.992       -42.9893     -0.0445137              1
     15508.5000         1.0091       -43.0681     -0.1233139              1
     15509.0000         1.0304       -43.1469     -0.2021141              1
     15509.5000         1.0517       -43.2253     -0.2805138              1
     15510.0000         1.0705       -43.2982     -0.3534126              1
     15510.5000         1.0819       -43.3677     -0.4229126              1
     15511.0000         1.0934       -43.4371     -0.4923134              1
     15511.5000         1.1007       -43.5067     -0.5619125              1
     15512.0000         1.0704       -43.5729     -0.6281128              1
     15512.5000         1.0339       -43.6365     -0.6917152              1
     15513.0000         0.9975       -43.6906     -0.7458153              1
     15513.5000          0.989         -43.72     -0.7752151              1
     15514.0000         0.9891       -43.7495     -0.8047142              1
     15514.5000         0.9892       -43.7687     -0.8239136              1
     15515.0000         0.9912       -43.7861     -0.8413124              1
     15515.5000         1.0004       -43.8034     -0.8586121              1
     15516.0000         1.0095       -43.8208     -0.8760147              1
     15516.5000         1.0094       -43.8259      -0.881115              1
     15517.0000         1.0077       -43.8259      -0.881115              1
     15517.5000         1.0059       -43.8259      -0.881115              1
     15518.0000         1.0042       -43.8259      -0.881115              1
     15518.5000         1.0226       -43.8259      -0.881115              1
     15519.0000         1.0329       -43.8259      -0.881115              1
     15519.5000         0.9828       -43.8395     -0.8947144              1
     15520.0000         0.9176       -43.8548     -0.9100151              1
     15520.5000         0.8953       -43.8701      -0.925312              1
     15521.0000         0.9114       -43.8854     -0.9406128              1
     15521.5000         0.9276       -43.9066     -0.9618149              1
     15522.0000         0.9427       -43.9514      -1.006615      0.9999042
     15522.5000         0.9545       -43.9964      -1.051613       0.999252
     15523.0000         0.9662       -44.0414      -1.096615      0.9985998
     15523.5000          0.965        -44.084      -1.139214      0.9979824
     15524.0000           0.95       -44.1264      -1.181614      0.9973679
     15524.5000         0.9393       -44.1689      -1.224113       0.996752
     15525.0000         0.9286        -44.195      -1.250214      0.9963737
     15525.5000          0.918       -44.2117      -1.266914      0.9961317
     15526.0000         0.9145       -44.2283      -1.283512      0.9958912
