#------------------------------------------------------------------------------
# Created by    : vladimir.rabinovich
# Created on    : 09/19/2023 17:22:02
#------------------------------------------------------------------------------
~Version Information Section
VERS.           2.0     :   CWLS log ASCII Standard - VERSION 2.0
WRAP.           NO      :   One line per depth step
~Well Information Section
#MNEM       .UNIT                                         VALUE :DESCRIPTION
#------------------------------------------------------------------------------
STRT        .FT                                          2944.5 :START DEPTH
STOP        .FT                                           12030 :STOP DEPTH
STEP        .FT                                             0.5 :STEP      
NULL        .                                           -999.25 :NULL      
COMP        .                                  SAMEDAN OIL CORP :COMPANY   
WELL        .                                         ROBERTSON :WELL      
FLD         .                                     HAMSHIRE WEST :FIELD     
LOC         .                                                   :LOCATION  
CNTY        .                                         JEFFERSON :LOCATION  
STAT        .                                             TEXAS :STATE     
CTRY        .                                     UNITED STATES :COUNTRY   
SRVC        .                                                   :SERVICE COMPANY
DATE        .                             9/13/2023 11:18:46 AM :LOG DATE  
API         .                                    42245321120000 :API NUMBER
UWI         .                                    42245321120000 :UNIQUE WELL ID
XCOORD      .                                  1214919.43989532 :SURFACE X 
YCOORD      .                                  10839736.7579652 :SURFACE Y 
LAT         .                                        29.8609813 :LATITUDE  
LON         .                                       -94.3427285 :LONGITUDE 
ELEV        .FT                                              38 :ELEVATION VALUE
ELEV_TYPE   .                                                KB :ELEVATION REFERENCE TYPE
~Curve Information Section
#MNEM       .UNIT                                      API CODE :CURVE DESCRIPTION
#------------------------------------------------------------------------------
DEPT        .FT                                                 :DEPTH     
CALI        .IN                                                 :          
DPSS        .%                                                  :          
DRHO        .G/CM3                                              :          
GR          .GAPI                                               :          
GR_NORM     .GAPI                                               :GammaRay Normalized
ILD         .OHMM                                               :          
ILM         .OHMM                                               :          
NPSS        .%                                                  :Neutron Porosity Sandstone
SGRD        .OHMM                                               :          
SP          .MV                                                 :          
SP_NORM     .MV                                                 :SP Normalized
TENS        .LB                                                 :          
VSH_GR      .V/V                                                :Volume of Shale from GR
VSH_SP      .V/V                                                :Volume of Shale from SP
~A        DEPTH           CALI           DPSS           DRHO             GR        GR_NORM            ILD            ILM           NPSS           SGRD             SP        SP_NORM           TENS         VSH_GR         VSH_SP
# ...
      6004.5000        -999.25        -999.25        -999.25           66.3       73.57622         0.9209         0.9422        -999.25         1.3967       -62.3267    -0.01012802       2451.427      0.8633238              1
      6005.0000        -999.25        -999.25        -999.25           69.3       77.58136          1.071         1.0908        -999.25         1.6467        -64.505       -2.18977       2410.429      0.9485396      0.9873429
      6005.5000        -999.25        -999.25        -999.25           70.8       79.58353          1.223         1.2455        -999.25           1.88       -65.8911      -3.577209       2409.429      0.9911389      0.9725829
      6006.0000        -999.25        -999.25        -999.25          68.55       76.57822         1.2801         1.4221        -999.25         2.0224       -66.8812      -4.568653       2428.429      0.9271963      0.9620356
      6006.5000        -999.25        -999.25        -999.25           66.9        74.3741         1.2397         1.4681        -999.25         1.9226       -68.0693      -5.758091       2447.427         0.8803       0.949382
      6007.0000        -999.25        -999.25        -999.25           67.5       75.17447         1.1788         1.4348        -999.25         1.6836       -68.0693       -5.75943       2426.429      0.8973292      0.9493678
      6007.5000        -999.25        -999.25        -999.25           69.6       77.97781         1.1313         1.3396        -999.25         1.4812       -66.2871      -3.978573       2425.429      0.9569747       0.968313
      6008.0000        -999.25        -999.25        -999.25           73.2       82.78415         1.0956         1.2282        -999.25         1.3092        -64.703      -2.395817        2404.43              1      0.9851509
      6008.5000        -999.25        -999.25        -999.25          77.85       88.99258         1.0278         1.1364        -999.25         1.2169       -64.1089      -1.803055       2483.426              1      0.9914569
      6009.0000        -999.25        -999.25        -999.25          77.55       88.59116         0.9864         1.1107        -999.25         1.2912        -64.703      -2.398495       2522.424              1      0.9851224
      6009.5000        -999.25        -999.25        -999.25          72.75       82.18079         0.9209         1.1005        -999.25         1.3889       -67.2772      -4.974033       2421.429              1       0.957723
      6010.0000        -999.25        -999.25        -999.25             69       77.17249         0.8916         1.0757        -999.25         1.4338       -69.2574      -6.955574       2360.432      0.9398401      0.9366428
      6010.5000        -999.25        -999.25        -999.25          67.05       74.56778         0.8916         1.0419        -999.25          1.395       -69.2574      -6.956913       2359.429      0.8844208      0.9366286
      6011.0000        -999.25        -999.25        -999.25           64.8       71.56246         0.9125         1.0138        -999.25         1.3028       -68.0693      -5.770153       2378.423      0.8204779      0.9492537
      6011.5000        -999.25        -999.25        -999.25           65.1       71.96223          0.964         1.0046        -999.25         1.2166        -64.703      -2.405197       2417.416      0.8289837      0.9850511
      6012.0000        -999.25        -999.25        -999.25           70.5       79.17217         1.0277         1.0514        -999.25         1.2001       -63.5149      -1.218433        2436.41      0.9823866      0.9976763
      6012.5000        -999.25        -999.25        -999.25          73.95       83.77819         1.0955         1.1208        -999.25         1.2618       -63.3168      -1.021671       2435.405              1      0.9997694
      6013.0000        -999.25        -999.25        -999.25           67.2       74.76392          1.173         1.2001        -999.25          1.376       -62.5248     -0.2310143         2434.4       0.888594              1
      6013.5000        -999.25        -999.25        -999.25           58.2        62.7452         1.2504         1.2909        -999.25         1.4802       -62.5248     -0.2323532       2493.493      0.6328766              1
      6014.0000        -999.25        -999.25        -999.25          57.15       61.34227         1.3573         1.3698        -999.25         1.5352       -62.7228      -0.431694       2492.488      0.6030271              1
      6014.5000        -999.25        -999.25        -999.25          63.15       69.35338         1.4142         1.4668        -999.25         1.5635       -63.5149      -1.225136       2471.484      0.7734761       0.997605
      6015.0000        -999.25        -999.25        -999.25           62.7       68.75166         1.4207         1.5352        -999.25         1.5563       -64.1089      -1.820477       2470.479      0.7606737      0.9912716
      6015.5000        -999.25        -999.25        -999.25           57.9       62.34129         1.4337         1.5352        -999.25         1.5352        -64.901      -2.613914       2449.475      0.6242827      0.9828307
      6016.0000        -999.25        -999.25        -999.25           56.7       60.73806         1.4402         1.5352        -999.25         1.5074        -64.901      -2.615257        2448.47      0.5901716      0.9828164
      6016.5000        -999.25        -999.25        -999.25           64.5       71.15276         1.4468         1.5213        -999.25         1.4802        -64.901      -2.616596       2427.466      0.8117608      0.9828022
      6017.0000        -999.25        -999.25        -999.25           72.6       81.96806         1.4534         1.5006        -999.25         1.4402        -64.901      -2.617935       2406.462              1      0.9827879
      6017.5000        -999.25        -999.25        -999.25          74.25       84.17052         1.4668         1.4938        -999.25         1.4272        -65.099      -2.817276       2385.458              1      0.9806673
      6018.0000        -999.25        -999.25        -999.25          70.65       79.36253         1.4601         1.5563        -999.25         1.4534       -65.6931      -3.412716       2364.454      0.9864367      0.9743328
      6018.5000        -999.25        -999.25        -999.25          65.85       72.95213         1.4402         1.6364        -999.25         1.5493       -66.2871      -4.008057       2383.448      0.8500454      0.9679994
      6019.0000        -999.25        -999.25        -999.25           62.1       67.94385         1.4014         1.7128        -999.25         1.6514       -69.0594        -6.7817       2382.443      0.7434861      0.9384925
      6019.5000        -999.25        -999.25        -999.25          57.75       62.13436         1.3147         1.8174        -999.25         1.8849       -74.0099      -11.73354       2381.438        0.61988      0.8858134
      6020.0000        -999.25        -999.25        -999.25           53.4       56.32487         1.2222         1.8508        -999.25         2.0372          -84.2      -21.92497       2400.432      0.4962739      0.7773939
      6020.5000        -999.25        -999.25        -999.25        52.4981       55.11971         1.1208         1.7284        -999.25         2.1137       -93.6004      -31.32672           2420       0.470632      0.6773754
      6021.0000        -999.25        -999.25        -999.25        55.4921       59.11684         1.0372         1.5422        -999.25         2.1431      -103.9175      -41.64516           2440      0.5556775      0.5676047
      6021.5000        -999.25        -999.25        -999.25        56.2359       60.10922         0.9552         1.4207        -999.25         2.1729       -106.896        -44.625           2460      0.5767919      0.5359042
      6022.0000        -999.25        -999.25        -999.25        53.9842       57.10165         0.8916         1.2968        -999.25         2.2032      -111.0676      -48.79793           2460      0.5128011      0.4915114
