#------------------------------------------------------------------------------
# Created by    : vladimir.rabinovich
# Created on    : 09/19/2023 17:22:02
#------------------------------------------------------------------------------
~Version Information Section
VERS.           2.0     :   CWLS log ASCII Standard - VERSION 2.0
WRAP.           NO      :   One line per depth step
~Well Information Section
#MNEM       .UNIT                                         VALUE :DESCRIPTION
#------------------------------------------------------------------------------
STRT        .FT                                          2944.5 :START DEPTH
STOP        .FT                                           12030 :STOP DEPTH
STEP        .FT                                             0.5 :STEP      
NULL        .                                           -999.25 :NULL      
COMP        .                                  SAMEDAN OIL CORP :COMPANY   
WELL        .                                         ROBERTSON :WELL      
FLD         .                                     HAMSHIRE WEST :FIELD     
LOC         .                                                   :LOCATION  
CNTY        .                                         JEFFERSON :LOCATION  
STAT        .                                             TEXAS :STATE     
CTRY        .                                     UNITED STATES :COUNTRY   
SRVC        .                                                   :SERVICE COMPANY
DATE        .                             9/13/2023 11:18:46 AM :LOG DATE  
API         .                                    42245321120000 :API NUMBER
UWI         .                                    42245321120000 :UNIQUE WELL ID
XCOORD      .                                  1214919.43989532 :SURFACE X 
YCOORD      .                                  10839736.7579652 :SURFACE Y 
LAT         .                                        29.8609813 :LATITUDE  
LON         .                                       -94.3427285 :LONGITUDE 
ELEV        .FT                                              38 :ELEVATION VALUE
ELEV_TYPE   .                                                KB :ELEVATION REFERENCE TYPE
~Curve Information Section
#MNEM       .UNIT                                      API CODE :CURVE DESCRIPTION
#------------------------------------------------------------------------------
DEPT        .FT                                                 :DEPTH     
CALI        .IN                                                 :          
DPSS        .%                                                  :          
DRHO        .G/CM3                                              :          
GR          .GAPI                                               :          
GR_NORM     .GAPI                                               :GammaRay Normalized
ILD         .OHMM                                               :          
ILM         .OHMM                                               :          
NPSS        .%                                                  :Neutron Porosity Sandstone
SGRD        .OHMM                                               :          
SP          .MV                                                 :          
SP_NORM     .MV                                                 :SP Normalized
TENS        .LB                                                 :          
VSH_GR      .V/V                                                :Volume of Shale from GR
VSH_SP      .V/V                                                :Volume of Shale from SP
~A        DEPTH           CALI           DPSS           DRHO             GR        GR_NORM            ILD            ILM           NPSS           SGRD             SP        SP_NORM           TENS         VSH_GR         VSH_SP
# ...
     10792.5000         9.7254        15.0667         0.0619        92.2449       101.3296         1.4453         1.8573           26.7         3.3475      -108.2153      -40.28358       3952.639              1      0.6396002
     10793.0000         9.9244        14.7689         0.0728        89.4043       98.04054         1.6048         2.0066          27.24         2.7631        -97.249      -29.32092       3953.116              1      0.7401751
     10793.5000         9.8234        14.8303         0.0738        80.7624        87.9234         1.7737         2.1783          26.52         2.3651       -90.2971      -22.37264       3973.461              1      0.8039207
     10794.0000         9.7224        14.8319         0.0648        73.1431       79.00986         1.9694         2.4642           24.9          2.453       -86.1308      -18.20998       4013.703      0.9789333      0.8421103
     10794.5000         9.7214        16.2077         0.0478        65.0358       69.52193         2.1282         2.8009          22.68          3.169       -88.1249      -20.20771       4034.098      0.7770624      0.8237825
     10795.0000         9.7804           18.6         0.0279        58.4359       61.80824         2.3001         2.9863          21.96          4.055       -87.9325      -20.01894       4094.307      0.6129411      0.8255143
     10795.5000         9.9594          19.92         0.0109        57.3847       60.62537         2.4521         3.0693          22.92         4.7126       -84.1569      -16.24698       4134.613      0.5877739      0.8601195
     10796.0000        10.2384          18.72         0.0129        61.7133       65.77454         2.6264         3.1402          22.86         4.3023        -83.564      -15.65771         4155.1      0.6973307      0.8655255
     10796.5000         9.9974        17.3441         0.0229        67.5556       72.70534         2.7244         3.1981          22.44         3.5685       -82.9705      -15.06784       4135.755      0.8447944      0.8709372
     10797.0000         9.9365           21.6         0.0129        71.1481       76.98813         2.7243         3.1981          23.58         3.4248       -81.7783      -13.87927       4016.714      0.9359176      0.8818415
     10797.5000         9.9755          27.66         -0.007        74.1405        80.5646         2.6501         3.1116          26.34         3.4405       -81.5822      -13.68681       3957.389              1      0.8836073
     10798.0000        10.4744        31.0776         -0.009        76.8296       83.78407         2.5778         2.8652        30.7783         3.1259       -81.5855      -13.69374       3937.916              1      0.8835437
     10798.5000        10.2335           28.2         0.0109        79.3686       86.82687         2.4617         2.6254        30.7787         2.5658       -79.3925      -11.50437       3938.389              1      0.9036296
     10799.0000        10.3525          25.32         0.0476         78.015       85.28808         2.3186         2.5072        30.0599         2.2041       -76.3983      -8.513809       3938.862              1       0.931066
     10799.5000        10.7314          25.44         0.0733        78.1589       85.51185         2.1835         2.4386        31.0193         2.0853       -74.4055      -6.524643       3959.322              1      0.9493152
     10800.0000        11.0703          25.68         0.0782        78.6028       86.08871         2.0657         2.3501        32.1595         2.0187       -72.2271      -4.349869       4019.794              1      0.9692672
     10800.5000          11.37           24.9         0.0782           77.1       84.37431         2.0187         2.2547           33.3         1.9821       -70.6436      -2.770004           4040              1      0.9837614
     10801.0000          11.33           23.7         0.0752           74.1       80.89771         1.9645         2.1339          33.48         1.9467       -69.2574      -1.387436           4020              1      0.9964455
     10801.5000          10.85          23.04         0.0683           72.6       79.18659         1.9382         2.0762          33.18         1.9294       -68.0693     -0.2029648           4000      0.9826934              1
     10802.0000          10.59          23.52         0.0624          74.85       81.88926         1.9298         2.0482          32.82         1.9123       -67.2772      0.5855026           3960              1              1
     10802.5000          10.59          23.16         0.0604          78.15       85.82776         1.9748         2.0206          32.46         1.8953       -66.6832       1.175865           3940              1              1
     10803.0000          10.73          22.86         0.0644          79.35       87.29456         2.0118         1.9934          31.56         1.8957       -66.2871       1.568329           3920              1              1
     10803.5000          10.85          24.36         0.0663           79.5       87.52551         1.9939         1.9939          32.76         1.9048       -66.4851       1.366699           3920              1              1
     10804.0000          10.93          26.58         0.0644           80.4       88.63921         1.9492         1.9943          34.26         1.9315       -66.2871       1.561066           3920              1              1
     10804.5000          11.09          28.26         0.0426           81.6         90.106         1.8625         1.9766          34.26         1.9497       -66.2871       1.557434           3920              1              1
     10805.0000          11.19           29.4         0.0376          80.55       88.92455         1.8042         1.9323          35.16         1.9412       -67.0792      0.7617035           4000              1              1
     10805.5000          11.39          30.36         0.0356           77.1        84.9183         1.7718          1.889          36.48         1.8804       -68.0693     -0.2320251           4060              1              1
     10806.0000          11.53          31.32         0.0218           73.5       80.73547         1.7641         1.7967          37.86         1.8132       -68.4653     -0.6316605           4060              1              1
     10806.5000          11.31          31.68         0.0208           73.5       80.78986         1.7483         1.7563          37.86         1.7806       -69.4554      -1.625397           4000              1      0.9942624
     10807.0000          11.29           31.2         0.0277          74.25       81.72703          1.781         1.7169          38.34         1.7974       -70.2475      -2.421127           3920              1      0.9869621
     10807.5000          11.53          29.22         0.0386          73.35       80.72212          1.831         1.7015          39.72          1.882       -71.0396      -3.216858           3860              1      0.9796619
     10808.0000          11.73          25.92         0.0475          71.55       78.65791         1.8824         1.8313          39.54         2.0723       -71.4356      -3.616493           3840       0.971445      0.9759955
     10808.5000          11.65          23.52         0.0574           71.4       78.53576         1.9353         2.0076          33.36         2.3661       -72.4257      -4.610222           3840       0.968846      0.9668787
     10809.0000          10.91          24.18         0.0653           69.9       76.82465         2.0638         2.1799           28.2         2.6163       -74.2079      -6.396057           3840      0.9324394      0.9504949
     10809.5000          11.17          26.22         0.0743          68.55        75.2901         2.2306          2.324          26.52         2.5809          -76.8      -8.991791           3900      0.8997894      0.9266808
     10810.0000          11.65          26.58         0.0842             72       79.40514         2.4662         2.3997          29.64         2.4774          -79.8      -11.99543           3940      0.9873435      0.8991245
