#------------------------------------------------------------------------------
# Created by    : vladimir.rabinovich
# Created on    : 09/19/2023 17:20:51
#------------------------------------------------------------------------------
~Version Information Section
VERS.           2.0     :   CWLS log ASCII Standard - VERSION 2.0
WRAP.           NO      :   One line per depth step
~Well Information Section
#MNEM       .UNIT                                         VALUE :DESCRIPTION
#------------------------------------------------------------------------------
STRT        .FT                                             126 :START DEPTH
STOP        .FT                                           15000 :STOP DEPTH
STEP        .FT                                             0.5 :STEP      
NULL        .                                           -999.25 :NULL      
COMP        .                                    MOBIL OIL CORP :COMPANY   
WELL        .                                MCFADDIN TRUST BLK :WELL      
FLD         .                                           WILDCAT :FIELD     
LOC         .                                                   :LOCATION  
CNTY        .                                         JEFFERSON :LOCATION  
STAT        .                                             TEXAS :STATE     
CTRY        .                                     UNITED STATES :COUNTRY   
SRVC        .                                                   :SERVICE COMPANY
DATE        .                             9/13/2023 11:19:11 AM :LOG DATE  
API         .                                    42245029210000 :API NUMBER
UWI         .                                    42245029210000 :UNIQUE WELL ID
XCOORD      .                                  1288949.71304085 :SURFACE X 
YCOORD      .                                  10768198.0929689 :SURFACE Y 
LAT         .                                        29.6663916 :LATITUDE  
LON         .                                       -94.1069885 :LONGITUDE 
ELEV        .FT                                              20 :ELEVATION VALUE
ELEV_TYPE   .                                                DF :ELEVATION REFERENCE TYPE
~Curve Information Section
#MNEM       .UNIT                                      API CODE :CURVE DESCRIPTION
#------------------------------------------------------------------------------
DEPT        .FT                                                 :DEPTH     
ASN         .OHMM                                               :          
LAT         .OHMM                                               :          
LN          .OHMM                                               :          
SN          .OHMM                                               :          
SP          .MV                                                 :          
SP_NORM     .MV                                                 :SP Normalized
VSH_SP      .V/V                                                :Volume of Shale from SP
~A        DEPTH            ASN            LAT             LN             SN             SP        SP_NORM         VSH_SP
# ...
      5084.0000         0.5579         0.8678         0.5633         0.5891       -32.9254      -2.219248      0.9722898
      5084.5000         0.5558         0.8776         0.5627         0.5906       -32.9225      -2.228735      0.9720742
      5085.0000         0.5537         0.8873         0.5621         0.5922       -32.9197      -2.238323      0.9718563
      5085.5000          0.555         0.8918         0.5615         0.5937       -32.9168      -2.247812      0.9716406
      5086.0000         0.5579         0.8918         0.5609         0.5952        -32.914      -2.257399      0.9714227
      5086.5000         0.5608         0.8919         0.5602         0.5952       -32.9112      -2.266987      0.9712048
      5087.0000         0.5643          0.892         0.5596         0.5942       -32.9899      -2.358072      0.9691347
      5087.5000         0.5697          0.892         0.5591         0.5932       -33.0883      -2.468859      0.9666169
      5088.0000          0.575         0.8921         0.5602         0.5922       -33.1866      -2.579548      0.9641012
      5088.5000         0.5742         0.8921         0.5613         0.5912        -33.285      -2.690336      0.9615833
      5089.0000          0.568         0.8922         0.5624         0.5902        -33.498      -2.915724      0.9564608
      5089.5000         0.5619           0.89         0.5635         0.5885        -33.785      -3.215111      0.9496565
      5090.0000         0.5561         0.8874         0.5646         0.5866       -34.0717        -3.5142      0.9428591
      5090.5000         0.5502         0.8847         0.5657         0.5846       -34.6992      -4.154085      0.9283162
      5091.0000         0.5444          0.882         0.5669         0.5826        -35.356      -4.823273      0.9131075
      5091.5000         0.5413         0.8793          0.568         0.5806       -36.0129      -5.492561      0.8978963
      5092.0000         0.5457         0.8767         0.5691         0.5786       -36.9058      -6.397848      0.8773217
      5092.5000         0.5501          0.874         0.5702         0.5769       -36.5259      -6.030338      0.8856741
      5093.0000         0.5544         0.8713         0.5708         0.5777       -36.0184      -5.535221      0.8969268
      5093.5000         0.5578         0.8691         0.5706         0.5785       -34.7644      -4.293612      0.9251452
      5094.0000         0.5605         0.8669         0.5703         0.5793       -33.7753      -3.316898      0.9473432
      5094.5000         0.5632         0.8647         0.5701         0.5802       -33.0438      -2.597786      0.9636867
      5095.0000          0.566         0.8626         0.5698          0.581        -32.584      -2.150373      0.9738551
      5095.5000         0.5674         0.8604         0.5695         0.5809       -32.4372      -2.015961        0.97691
      5096.0000         0.5667         0.8582         0.5693         0.5799       -32.2921      -1.883247      0.9799262
      5096.5000         0.5661          0.856          0.569          0.579       -32.4742      -2.077738      0.9755059
      5097.0000         0.5655         0.8538         0.5688         0.5781       -32.6564      -2.272324      0.9710836
      5097.5000         0.5648         0.8517         0.5685         0.5771       -33.0958       -2.72411      0.9608157
      5098.0000         0.5596         0.8504         0.5679         0.5762       -33.6409      -3.281599      0.9481454
      5098.5000         0.5541         0.8531         0.5668         0.5752       -34.4078      -4.060886      0.9304344
      5099.0000         0.5501         0.8558         0.5658         0.5735       -35.2394      -4.904873      0.9112529
      5099.5000          0.552         0.8584         0.5647         0.5719       -36.1002      -5.778063      0.8914077
      5100.0000          0.554         0.8611         0.5637         0.5702       -36.0836      -5.773849      0.8915034
      5100.5000         0.5559         0.8638         0.5626         0.5686       -35.5158      -5.218437      0.9041264
      5101.0000         0.5512         0.8665         0.5616          0.567       -34.7866      -4.501623      0.9204177
      5101.5000         0.5377         0.8692         0.5605         0.5647       -33.7958      -3.523212      0.9426543
      5102.0000         0.5198         0.8718         0.5595         0.5615       -32.8746      -2.614399      0.9633091
      5102.5000         0.5063         0.8702         0.5581         0.5583        -32.194      -1.946188      0.9784957
      5103.0000         0.4959         0.8662         0.5565         0.5551       -31.7786      -1.543175      0.9876551
      5103.5000         0.4855         0.8622         0.5549         0.5519       -31.6866      -1.463562      0.9894645
      5104.0000         0.4865         0.8582         0.5533         0.5487        -31.613      -1.402351      0.9908556
      5104.5000         0.4879         0.8543         0.5517         0.5457        -31.543      -1.344736      0.9921651
      5105.0000         0.4898         0.8465         0.5501         0.5426        -31.473      -1.287125      0.9934744
      5105.5000         0.4939         0.8354         0.5486         0.5396       -31.4074      -1.233913      0.9946838
      5106.0000          0.498         0.8242          0.547         0.5367       -31.3447      -1.183599      0.9958273
      5106.5000         0.5021         0.8131         0.5477         0.5354        -31.282      -1.133287      0.9969707
      5107.0000         0.5061         0.8019         0.5495         0.5342       -31.2193      -1.082975      0.9981142
      5107.5000         0.5084         0.7908         0.5513         0.5329       -31.1045     -0.9805622              1
      5108.0000         0.5106         0.7816         0.5531         0.5317       -30.9886     -0.8770504              1
      5108.5000         0.5121         0.7805         0.5549          0.531       -30.8724     -0.7732391              1
      5109.0000         0.5111         0.7793         0.5567         0.5313       -30.7565     -0.6697254              1
      5109.5000         0.5111         0.7782         0.5585         0.5315       -30.6558     -0.5814133              1
      5110.0000         0.5152         0.7771         0.5512         0.5318       -30.5679     -0.5059013              1
      5110.5000         0.5193          0.776         0.5432         0.5321       -30.4802     -0.4305878              1
      5111.0000         0.5234         0.7858         0.5351         0.5323       -30.3923     -0.3550758              1
      5111.5000         0.5274         0.7973         0.5271         0.5298       -30.3354      -0.310564              1
      5112.0000         0.5312         0.8087         0.5194         0.5269        -30.347     -0.3345509              1
      5112.5000         0.5327         0.8201         0.5135          0.524       -30.3587     -0.3586388              1
      5113.0000         0.5232         0.8315         0.5075         0.5212       -30.3703     -0.3826275              1
      5113.5000         0.5137          0.843         0.5016          0.518        -30.382     -0.4067135              1
      5114.0000         0.5049         0.8544         0.4956         0.5143       -30.3513      -0.388401              1
      5114.5000         0.5004         0.8658         0.4897         0.5106       -30.3136     -0.3630905              1
      5115.0000         0.4958         0.8773         0.4837         0.5069        -30.276     -0.3378754              1
      5115.5000         0.4961         0.8905         0.4783         0.5033       -30.2384      -0.312664              1
      5116.0000         0.4966          0.904         0.4755         0.4979       -30.2214     -0.3080502              1
      5116.5000         0.4971         0.9175         0.4726         0.4924       -30.2172     -0.3162384              1
      5117.0000          0.497         0.9311         0.4697         0.4869        -30.213     -0.3244267              1
