#------------------------------------------------------------------------------
# Created by    : vladimir.rabinovich
# Created on    : 09/19/2023 17:22:02
#------------------------------------------------------------------------------
~Version Information Section
VERS.           2.0     :   CWLS log ASCII Standard - VERSION 2.0
WRAP.           NO      :   One line per depth step
~Well Information Section
#MNEM       .UNIT                                         VALUE :DESCRIPTION
#------------------------------------------------------------------------------
STRT        .FT                                          2944.5 :START DEPTH
STOP        .FT                                           12030 :STOP DEPTH
STEP        .FT                                             0.5 :STEP      
NULL        .                                           -999.25 :NULL      
COMP        .                                  SAMEDAN OIL CORP :COMPANY   
WELL        .                                         ROBERTSON :WELL      
FLD         .                                     HAMSHIRE WEST :FIELD     
LOC         .                                                   :LOCATION  
CNTY        .                                         JEFFERSON :LOCATION  
STAT        .                                             TEXAS :STATE     
CTRY        .                                     UNITED STATES :COUNTRY   
SRVC        .                                                   :SERVICE COMPANY
DATE        .                             9/13/2023 11:18:46 AM :LOG DATE  
API         .                                    42245321120000 :API NUMBER
UWI         .                                    42245321120000 :UNIQUE WELL ID
XCOORD      .                                  1214919.43989532 :SURFACE X 
YCOORD      .                                  10839736.7579652 :SURFACE Y 
LAT         .                                        29.8609813 :LATITUDE  
LON         .                                       -94.3427285 :LONGITUDE 
ELEV        .FT                                              38 :ELEVATION VALUE
ELEV_TYPE   .                                                KB :ELEVATION REFERENCE TYPE
~Curve Information Section
#MNEM       .UNIT                                      API CODE :CURVE DESCRIPTION
#------------------------------------------------------------------------------
DEPT        .FT                                                 :DEPTH     
CALI        .IN                                                 :          
DPSS        .%                                                  :          
DRHO        .G/CM3                                              :          
GR          .GAPI                                               :          
GR_NORM     .GAPI                                               :GammaRay Normalized
ILD         .OHMM                                               :          
ILM         .OHMM                                               :          
NPSS        .%                                                  :Neutron Porosity Sandstone
SGRD        .OHMM                                               :          
SP          .MV                                                 :          
SP_NORM     .MV                                                 :SP Normalized
TENS        .LB                                                 :          
VSH_GR      .V/V                                                :Volume of Shale from GR
VSH_SP      .V/V                                                :Volume of Shale from SP
~A        DEPTH           CALI           DPSS           DRHO             GR        GR_NORM            ILD            ILM           NPSS           SGRD             SP        SP_NORM           TENS         VSH_GR         VSH_SP
# ...
      7804.5000        -999.25        -999.25        -999.25        55.8416       57.52662         0.4019         0.4908        -999.25         1.1165      -161.3366      -93.24052       3081.705      0.5218429     0.01871791
      7805.0000        -999.25        -999.25        -999.25        53.4653       54.15094         0.4249         0.5092        -999.25         1.1529      -163.7129      -95.61261       3119.171      0.4500201              0
      7805.5000        -999.25        -999.25        -999.25        51.8317       51.83032         0.4556         0.5281        -999.25         1.2696      -165.8911      -97.78658       3117.259      0.4006452              0
      7806.0000        -999.25        -999.25        -999.25         50.198       49.50956         0.4977         0.5452        -999.25         1.4305      -168.0693      -99.96056       3115.345      0.3512672              0
      7806.5000        -999.25        -999.25        -999.25        47.6733       45.92308         0.5428         0.5681        -999.25         1.5826      -169.6535      -101.5405       3113.429      0.2749591              0
      7807.0000        -999.25        -999.25        -999.25          43.35       39.78157         0.5838         0.5946        -999.25         1.7347      -171.4356      -103.3184       3072.038      0.1442888              0
      7807.5000        -999.25        -999.25        -999.25          40.35        35.5199            0.6         0.6141        -999.25          1.833      -172.8218      -104.7004       3010.813     0.05361492              0
      7808.0000        -999.25        -999.25        -999.25           39.9       34.88065         0.5892         0.6169        -999.25         1.8669      -174.2079      -106.0823       3008.842     0.04001374              0
      7808.5000        -999.25        -999.25        -999.25           40.2       35.30681         0.5629         0.5973        -999.25         1.8584         -175.6      -107.4701       3006.874     0.04908111              0
      7809.0000        -999.25        -999.25        -999.25           41.1       36.58531         0.5305         0.5733        -999.25          1.775           -176      -107.8659       3024.719     0.07628323              0
      7809.5000        -999.25        -999.25        -999.25           43.5       39.99466         0.4862         0.5378        -999.25         1.6493         -176.4      -108.2617       3042.539      0.1488226              0
      7810.0000        -999.25        -999.25        -999.25             45        42.1255         0.4349         0.5023        -999.25         1.4909         -176.2      -108.0575       3060.375      0.1941596              0
      7810.5000        -999.25        -999.25        -999.25           40.8       36.15915         0.3946         0.4729        -999.25         1.3539           -176      -107.8532       3019.802     0.06721602              0
      7811.0000        -999.25        -999.25        -999.25           33.9        26.3573         0.3601         0.4685        -999.25         1.2465         -175.8       -107.649           3000              0              0
      7811.5000        -999.25        -999.25        -999.25          34.65       27.42272         0.3287         0.4729        -999.25         1.2182         -175.6      -107.4448       3079.208              0              0
      7812.0000        -999.25        -999.25        -999.25          36.75       30.40589            0.3         0.4885        -999.25         1.2408         -175.8      -107.6406       3079.208              0              0
      7812.5000        -999.25        -999.25        -999.25           37.5       31.47131         0.2787            0.5        -999.25         1.2638           -176      -107.8363       3039.604              0              0
      7813.0000        -999.25        -999.25        -999.25          35.85       29.12739         0.2698         0.5115        -999.25         1.2182           -175      -106.8321           3000              0              0
      7813.5000        -999.25        -999.25        -999.25             33        25.0788         0.2661         0.5281        -999.25         1.1216      -172.2277      -104.0556           3000              0              0
      7814.0000        -999.25        -999.25        -999.25          33.15       25.29188         0.2749         0.5281        -999.25         1.0185      -170.6436      -102.4673           3000              0              0
      7814.5000        -999.25        -999.25        -999.25          39.45        34.2414         0.2959         0.5162        -999.25         0.9125      -168.4653      -100.2848       3059.406      0.0264128              0
      7815.0000        -999.25        -999.25        -999.25          40.05       35.09373         0.3287         0.5092        -999.25         0.8563       -164.703      -96.51824        3099.01     0.04454739              0
      7815.5000        -999.25        -999.25        -999.25           37.8       31.89748         0.3769            0.5        -999.25         0.9125      -160.1485      -91.95951           3000              0     0.03234563
      7816.0000        -999.25        -999.25        -999.25           40.2       35.30681         0.4349         0.5046        -999.25         1.1743      -157.1782      -88.98499        3099.01     0.04908111     0.06398944
      7816.5000        -999.25        -999.25        -999.25           44.1       40.84699         0.5115         0.5733        -999.25         1.7032         -148.6      -80.40257        3099.01      0.1669572      0.1552918
      7817.0000        -999.25        -999.25        -999.25        47.3762       45.50103         0.6028         0.6466        -999.25         2.2649           -150      -81.79834       3118.812      0.2659793      0.1404432
      7817.5000        -999.25        -999.25        -999.25             45        42.1255          0.687         0.7263        -999.25         2.4495         -151.4      -83.19411        3099.01      0.1941596      0.1255945
      7818.0000        -999.25        -999.25        -999.25           42.6       38.71615         0.7466            0.8        -999.25         2.2339           -153      -84.78989       3039.604      0.1216203      0.1086181
      7818.5000        -999.25        -999.25        -999.25           42.6       38.71615          0.713            0.8        -999.25         2.0372      -155.9901      -87.77577       3019.802      0.1216203     0.07685349
      7819.0000        -999.25        -999.25        -999.25           40.8       36.15915         0.6346         0.7364        -999.25         1.8669      -157.7723      -89.55374       3019.802     0.06721602     0.05793892
      7819.5000        -999.25        -999.25        -999.25          40.65       35.94607         0.5162         0.6466        -999.25         1.6876      -159.7525      -91.52973           3000     0.06268238     0.03691775
      7820.0000        -999.25        -999.25        -999.25           43.5       39.99466         0.4289         0.5733        -999.25         1.5325      -160.3465       -92.1195       3039.604      0.1488226     0.03064363
      7820.5000        -999.25        -999.25        -999.25          44.55       41.48624         0.3651         0.5186        -999.25          1.411      -161.7327      -93.50147       3079.689      0.1805582     0.01594178
      7821.0000        -999.25        -999.25        -999.25           41.7       37.43765          0.314         0.4908        -999.25         1.3171      -162.9208      -94.68536       3100.432     0.09441814    0.003347194
      7821.5000        -999.25        -999.25        -999.25           40.8       36.15915         0.2932         0.4599        -999.25         1.2638      -164.3069      -96.06723       3101.376     0.06721602              0
      7822.0000        -999.25        -999.25        -999.25          40.95       36.37223         0.2918         0.4599        -999.25         1.2696      -165.8911      -97.64721       3102.319     0.07174966              0
