#------------------------------------------------------------------------------
# Created by    : vladimir.rabinovich
# Created on    : 09/19/2023 17:22:02
#------------------------------------------------------------------------------
~Version Information Section
VERS.           2.0     :   CWLS log ASCII Standard - VERSION 2.0
WRAP.           NO      :   One line per depth step
~Well Information Section
#MNEM       .UNIT                                         VALUE :DESCRIPTION
#------------------------------------------------------------------------------
STRT        .FT                                          2944.5 :START DEPTH
STOP        .FT                                           12030 :STOP DEPTH
STEP        .FT                                             0.5 :STEP      
NULL        .                                           -999.25 :NULL      
COMP        .                                  SAMEDAN OIL CORP :COMPANY   
WELL        .                                         ROBERTSON :WELL      
FLD         .                                     HAMSHIRE WEST :FIELD     
LOC         .                                                   :LOCATION  
CNTY        .                                         JEFFERSON :LOCATION  
STAT        .                                             TEXAS :STATE     
CTRY        .                                     UNITED STATES :COUNTRY   
SRVC        .                                                   :SERVICE COMPANY
DATE        .                             9/13/2023 11:18:46 AM :LOG DATE  
API         .                                    42245321120000 :API NUMBER
UWI         .                                    42245321120000 :UNIQUE WELL ID
XCOORD      .                                  1214919.43989532 :SURFACE X 
YCOORD      .                                  10839736.7579652 :SURFACE Y 
LAT         .                                        29.8609813 :LATITUDE  
LON         .                                       -94.3427285 :LONGITUDE 
ELEV        .FT                                              38 :ELEVATION VALUE
ELEV_TYPE   .                                                KB :ELEVATION REFERENCE TYPE
~Curve Information Section
#MNEM       .UNIT                                      API CODE :CURVE DESCRIPTION
#------------------------------------------------------------------------------
DEPT        .FT                                                 :DEPTH     
CALI        .IN                                                 :          
DPSS        .%                                                  :          
DRHO        .G/CM3                                              :          
GR          .GAPI                                               :          
GR_NORM     .GAPI                                               :GammaRay Normalized
ILD         .OHMM                                               :          
ILM         .OHMM                                               :          
NPSS        .%                                                  :Neutron Porosity Sandstone
SGRD        .OHMM                                               :          
SP          .MV                                                 :          
SP_NORM     .MV                                                 :SP Normalized
TENS        .LB                                                 :          
VSH_GR      .V/V                                                :Volume of Shale from GR
VSH_SP      .V/V                                                :Volume of Shale from SP
~A        DEPTH           CALI           DPSS           DRHO             GR        GR_NORM            ILD            ILM           NPSS           SGRD             SP        SP_NORM           TENS         VSH_GR         VSH_SP
# ...
      8398.5000         9.0164         8.0198         0.0286        41.6801        50.6801         3.6605         4.7549        18.2995         3.4627        -84.019      -14.88319       3277.228      0.3761723      0.8665078
      8399.0000         9.0545         8.8515         0.0266        40.1877        49.1877         3.3372         4.0715        18.9588         3.3218       -84.2132       -15.0774       3277.228      0.3444191      0.8646404
      8399.5000         9.0526         9.4455         0.0237        38.0943        47.0943          3.042         3.7824        20.0985         3.1716       -84.4077       -15.2719       3277.228      0.2998787      0.8627702
      8400.0000         9.0508          9.505         0.0218        37.9484        46.9484         2.8781         3.5125        21.2993          3.099       -85.0023      -15.86649       3277.228      0.2967744      0.8570529
      8400.5000           9.01         9.4448         0.0198        40.3512        49.3512         2.7489         3.3227        21.4783         3.0994            -85       -15.8642       3276.789      0.3478979       0.857075
      8401.0000           9.01         9.9192         0.0208        41.4027        50.4027         2.6136         3.0714        21.4153         3.0857            -85       -15.8642       3275.936      0.3702702       0.857075
      8401.5000           8.97        10.8698         0.0208        41.7041        50.7041          2.485         2.9065        21.1123         2.9469          -85.4       -16.2642       3275.081       0.376683      0.8532289
      8402.0000           8.97        11.6429         0.0257        40.8074        49.8074         2.3847         2.7508        20.9893         2.8672            -86       -16.8642       3294.062      0.3576042      0.8474597
      8402.5000           8.93        11.8809         0.0347        39.4625        48.4625         2.2778         2.6397        21.4063         2.7641          -86.8       -17.6642       3293.215      0.3289894      0.8397673
      8403.0000           8.93        12.5385         0.0485        38.7174        47.7174         2.1958         2.4753        21.8232         2.5801          -86.6       -17.4642       3292.368      0.3131362      0.8416904
      8403.5000           8.93        13.6746         0.0515        40.6642        49.6642         2.1071         2.3973        22.1205         2.3106          -86.8       -17.6642        3291.52      0.3545575      0.8397673
      8404.0000           8.95        13.7335         0.0525        44.1034        53.1034          2.022         2.3869        23.1374         2.2377          -87.4       -18.2642       3290.671      0.4277319      0.8339981
      8404.5000           8.97         12.478         0.0554        47.5355        56.5355         1.9406         2.3874        22.2945         2.3438          -87.2      -18.06419       3289.821      0.5007553      0.8359212
      8405.0000           8.97        10.8659         0.0604         46.343         55.343         1.8625         2.3879        20.5512         2.5825          -85.8       -16.6642        3288.97       0.475383      0.8493827
      8405.5000           8.95        10.3876         0.0584        43.8063        52.8063         1.7875         2.3341        20.6082         2.6925          -85.8       -16.6642       3288.119      0.4214107      0.8493827
      8406.0000           8.89        10.9245         0.0505        39.7802        48.7802         1.7234         2.2091        20.7855         2.5719          -87.6       -18.4642       3287.267       0.335749      0.8320751
      8406.5000           8.85        12.0596         0.0525        40.6772        49.6772         1.6617         2.0811        21.5624         2.4117          -89.4       -20.2642       3266.489       0.354834      0.8147673
      8407.0000           8.85        14.2647         0.0525         44.404         53.404         1.6318         1.9517        24.4393         2.2305          -91.4       -22.2642       3265.625      0.4341277      0.7955366
      8407.5000           8.93        16.4079         0.0525        47.2439        56.2439         1.6247         1.9167        25.6965         2.1013            -94       -24.8642        3264.76      0.4945511      0.7705365
      8408.0000           8.93        17.5964         0.0505        49.0411        58.0411         1.6476         1.8909        24.5532         2.1409            -94       -24.8642       3263.895      0.5327893      0.7705365
      8408.5000           8.97        18.0702         0.0455        47.9949        56.9949         1.6862         1.8913        23.4703         2.2424          -93.2      -24.06419       3263.028      0.5105298      0.7782289
      8409.0000           8.93        18.3072         0.0455        46.7978        55.7978         1.7578         1.9625        23.7672         2.2952          -89.8       -20.6642       3262.161      0.4850595      0.8109211
      8409.5000           8.81        17.7664         0.0475        46.3491        55.3491         1.8156         2.0649        23.8842          2.317            -87       -17.8642       3261.293      0.4755127      0.8378443
      8410.0000           8.73        16.7535         0.0505        46.7996        55.7996         1.8412         2.1727        22.7413          2.438          -85.2      -16.06419       3260.424      0.4850979       0.855152
      8410.5000           8.75          18.72         0.0525           47.1           56.1          1.833         2.2649          21.06         2.6613          -83.2      -14.06419           3260      0.4914893      0.8743827
      8411.0000           8.97          21.66         0.0545          49.35          58.35         1.8246          2.163          20.52         2.6369          -81.8       -12.6642           3260      0.5393617      0.8878442
      8411.5000           9.27          24.06         0.0584           50.7           59.7         1.8079         2.0372           24.6         2.2754            -84       -14.8642           3240      0.5680851      0.8666904
      8412.0000           9.49           24.9         0.0594           49.5           58.5         1.8162         1.9279           28.8         1.9636          -86.6       -17.4642           3240      0.5425532      0.8416904
      8412.5000           9.65          24.72         0.0604           51.3           60.3         1.8414         1.8669          30.96         1.7189            -87       -17.8642           3240       0.580851      0.8378443
      8413.0000           9.51          23.04         0.0624          54.75          63.75          1.833         1.8928           30.9         1.6417          -86.4       -17.2642           3220      0.6542553      0.8436135
      8413.5000           8.97          20.58         0.0634             51             60         1.7914         1.9457          29.76         1.7268          -85.4       -16.2642           3220      0.5744681      0.8532289
      8414.0000           8.89          19.26         0.0653          46.05          55.05         1.7507         2.0092           28.8         1.9457          -83.4       -14.2642           3200      0.4691489      0.8724597
      8414.5000           9.07           19.5         0.0624          46.35          55.35         1.7427         2.0185          27.78         2.1235          -82.4       -13.2642           3200      0.4755319       0.882075
      8415.0000           8.97           20.4         0.0624          48.45          57.45         1.7914         2.0185          27.54          2.104          -84.2      -15.06419           3200      0.5202128      0.8647674
      8415.5000           8.85          21.36         0.0614          49.65          58.65         1.8669         2.0185          29.58         1.9908          -85.4       -16.2642           3200      0.5457447      0.8532289
      8416.0000           8.91          21.96         0.0604          51.45          60.45         1.9457         2.0372          31.68         1.9546          -84.6       -15.4642           3220      0.5840425      0.8609212
