#------------------------------------------------------------------------------
# Created by    : vladimir.rabinovich
# Created on    : 09/19/2023 17:20:51
#------------------------------------------------------------------------------
~Version Information Section
VERS.           2.0     :   CWLS log ASCII Standard - VERSION 2.0
WRAP.           NO      :   One line per depth step
~Well Information Section
#MNEM       .UNIT                                         VALUE :DESCRIPTION
#------------------------------------------------------------------------------
STRT        .FT                                             126 :START DEPTH
STOP        .FT                                           15000 :STOP DEPTH
STEP        .FT                                             0.5 :STEP      
NULL        .                                           -999.25 :NULL      
COMP        .                                    MOBIL OIL CORP :COMPANY   
WELL        .                                MCFADDIN TRUST BLK :WELL      
FLD         .                                           WILDCAT :FIELD     
LOC         .                                                   :LOCATION  
CNTY        .                                         JEFFERSON :LOCATION  
STAT        .                                             TEXAS :STATE     
CTRY        .                                     UNITED STATES :COUNTRY   
SRVC        .                                                   :SERVICE COMPANY
DATE        .                             9/13/2023 11:19:11 AM :LOG DATE  
API         .                                    42245029210000 :API NUMBER
UWI         .                                    42245029210000 :UNIQUE WELL ID
XCOORD      .                                  1288949.71304085 :SURFACE X 
YCOORD      .                                  10768198.0929689 :SURFACE Y 
LAT         .                                        29.6663916 :LATITUDE  
LON         .                                       -94.1069885 :LONGITUDE 
ELEV        .FT                                              20 :ELEVATION VALUE
ELEV_TYPE   .                                                DF :ELEVATION REFERENCE TYPE
~Curve Information Section
#MNEM       .UNIT                                      API CODE :CURVE DESCRIPTION
#------------------------------------------------------------------------------
DEPT        .FT                                                 :DEPTH     
ASN         .OHMM                                               :          
LAT         .OHMM                                               :          
LN          .OHMM                                               :          
SN          .OHMM                                               :          
SP          .MV                                                 :          
SP_NORM     .MV                                                 :SP Normalized
VSH_SP      .V/V                                                :Volume of Shale from SP
~A        DEPTH            ASN            LAT             LN             SN             SP        SP_NORM         VSH_SP
# ...
      9037.0000         0.6149         0.3581         0.5052         0.5218       -31.1396      -2.800812      0.9666516
      9037.5000          0.628         0.3584         0.5131          0.535       -31.3192      -2.979847      0.9633362
      9038.0000         0.6411         0.3586          0.521         0.5481       -31.6785      -3.338579       0.956693
      9038.5000         0.6538         0.3589         0.5289         0.5447       -32.2971      -3.956614      0.9452479
      9039.0000         0.6654         0.3591         0.5368         0.5402       -32.9822      -4.641148      0.9325714
      9039.5000         0.6771         0.3631         0.5447         0.5288       -33.6941      -5.352482      0.9193985
      9040.0000         0.6473         0.3678         0.5451         0.5119        -34.436      -6.093817        0.90567
      9040.5000         0.6129         0.3726         0.5383         0.4951       -35.0634       -6.72065       0.894062
      9041.0000         0.5785         0.3773         0.5314         0.4782       -35.4832      -7.139885      0.8862984
      9041.5000         0.5442         0.3821         0.5245         0.4644       -35.8796      -7.535719      0.8789682
      9042.0000         0.5098         0.3868         0.5176         0.4508       -36.1478      -7.803352       0.874012
      9042.5000         0.4758         0.3916         0.5108         0.4371       -36.1678      -7.822786      0.8736521
      9043.0000         0.4758         0.3963         0.5068          0.427       -35.9888      -7.643221      0.8769774
      9043.5000         0.4758          0.401          0.504         0.4195       -35.8097      -7.463554      0.8803046
      9044.0000         0.4758         0.4058         0.5013         0.4119       -35.6303      -7.283587      0.8836373
      9044.5000          0.476         0.4105         0.4986         0.4043        -35.406      -7.058722      0.8878015
      9045.0000         0.4761         0.4153         0.4958         0.4015       -35.1817      -6.833858      0.8919656
      9045.5000         0.4762           0.42         0.4931         0.3999       -34.9573      -6.608889      0.8961317
      9046.0000         0.4764         0.4248         0.4903         0.3982       -34.5542      -6.205223       0.903607
      9046.5000         0.4765         0.4295         0.4876         0.3965       -34.1194      -5.769859      0.9116693
      9047.0000         0.4766         0.4331         0.4849         0.3968       -33.9572      -5.607092      0.9146835
      9047.5000         0.4768          0.433         0.4821         0.3995       -33.8275      -5.476826      0.9170958
      9048.0000         0.4769          0.433         0.4794         0.4022       -33.9773       -5.62606      0.9143322
      9048.5000          0.477         0.4329         0.4766         0.4051       -34.2355      -5.883696      0.9095612
      9049.0000         0.4774         0.4328         0.4759          0.408       -34.4937      -6.141327      0.9047902
      9049.5000         0.4778         0.4327         0.4771         0.4109        -34.783      -6.430063      0.8994433
      9050.0000         0.4782         0.4327         0.4784         0.4138        -35.285      -6.931498      0.8901575
      9050.5000         0.4786         0.4326         0.4796         0.4164       -35.7869      -7.432831      0.8808735
      9051.0000          0.479         0.4325         0.4808          0.419       -35.8792      -7.524565      0.8791747
      9051.5000         0.4794         0.4325         0.4821         0.4216       -35.8084      -7.453197      0.8804963
      9052.0000         0.4798         0.4324         0.4833         0.4231       -35.7376      -7.381832      0.8818179
      9052.5000         0.4802         0.4323         0.4846          0.422       -35.6006      -7.244268      0.8843654
      9053.0000         0.4806         0.4322         0.4858          0.421       -35.4418        -7.0849      0.8873166
      9053.5000         0.4808         0.4322         0.4871         0.4199       -35.7836      -7.426136      0.8809975
      9054.0000         0.4811         0.4314         0.4883          0.421       -35.6201      -7.262068      0.8840358
      9054.5000         0.4813         0.4283         0.4896         0.4229       -35.4307      -7.072102      0.8875537
      9055.0000         0.4816         0.4253         0.4908         0.4247       -35.2344      -6.875238      0.8911993
      9055.5000         0.4818         0.4222         0.4915         0.4265       -35.6909      -7.331171      0.8827561
      9056.0000         0.4821         0.4192         0.4909         0.4328       -36.1473      -7.787006      0.8743147
      9056.5000         0.4823         0.4161         0.4903         0.4392       -36.6437      -8.282839      0.8651326
      9057.0000         0.4826         0.4131         0.4897         0.4445       -37.2978      -8.936373      0.8530301
      9057.5000         0.4829           0.41         0.4891         0.4465       -37.8275      -9.465508      0.8432313
      9058.0000         0.4832          0.407         0.4885         0.4484       -38.3234       -9.96084      0.8340585
      9058.5000         0.4835         0.4039         0.4879         0.4503        -38.174      -9.810875      0.8368356
      9059.0000         0.4838         0.4009         0.4874         0.4535       -37.8409      -9.477211      0.8430146
      9059.5000         0.4842         0.3977         0.4884         0.4573         -37.37      -9.005743      0.8517455
      9060.0000         0.4845         0.3942         0.4893          0.461       -36.4305      -8.065678      0.8691541
      9060.5000         0.4848         0.3907         0.4902         0.4663       -35.4088      -7.043411      0.8880849
      9061.0000         0.4851         0.3872         0.4911         0.4717       -34.3027      -5.936747      0.9085788
      9061.5000         0.4869         0.3837         0.4921         0.4755       -33.1432       -4.77668      0.9300615
      9062.0000         0.4909         0.3803          0.493         0.4755       -32.2415      -3.874414      0.9467701
      9062.5000         0.4949         0.3768         0.4939         0.4754       -31.5402      -3.172548      0.9597676
      9063.0000         0.4989         0.3733         0.4948         0.4754       -31.3775      -3.009283       0.962791
      9063.5000         0.5028           0.37         0.4957         0.4747       -31.2148      -2.846016      0.9658145
      9064.0000         0.5084         0.3721         0.4967         0.4733       -31.1331       -2.76375       0.967338
      9064.5000         0.5195         0.3741         0.4979          0.472       -31.0623      -2.692385      0.9686595
      9065.0000         0.5305         0.3762         0.4992         0.4725       -30.9915      -2.621019      0.9699811
      9065.5000         0.5243         0.3783         0.5005         0.4736        -30.877      -2.505953       0.972112
      9066.0000         0.5146         0.3803         0.5018         0.4748       -30.7581      -2.386488      0.9743243
      9066.5000         0.5049         0.3824         0.5032         0.4774       -30.6653      -2.293121      0.9760533
      9067.0000         0.4968         0.3845         0.5045         0.4805       -30.5945      -2.221754      0.9773749
      9067.5000         0.4947         0.3865         0.5058         0.4836       -30.5237      -2.150389      0.9786965
      9068.0000         0.4926         0.3886         0.5071         0.4844       -30.3825      -2.008623      0.9813218
      9068.5000         0.4905         0.3907         0.5084         0.4816       -30.1895      -1.815058      0.9849063
      9069.0000         0.5015         0.3927         0.5098         0.4788       -29.9949       -1.61989      0.9885206
      9069.5000         0.5156         0.3948         0.5092         0.4771       -29.6334      -1.257826      0.9952254
      9070.0000         0.5297         0.3968         0.5077         0.4757       -29.3526     -0.9764595              1
