#------------------------------------------------------------------------------
# Created by    : vladimir.rabinovich
# Created on    : 09/19/2023 17:22:24
#------------------------------------------------------------------------------
~Version Information Section
VERS.           2.0     :   CWLS log ASCII Standard - VERSION 2.0
WRAP.           NO      :   One line per depth step
~Well Information Section
#MNEM       .UNIT                                         VALUE :DESCRIPTION
#------------------------------------------------------------------------------
STRT        .FT                                            1850 :START DEPTH
STOP        .FT                                            8215 :STOP DEPTH
STEP        .FT                                             0.5 :STEP      
NULL        .                                           -999.25 :NULL      
COMP        .                                  NOBLE ENERGY INC :COMPANY   
WELL        .                                           MEADOWS :WELL      
FLD         .                                          BINDWEED :FIELD     
LOC         .                                                   :LOCATION  
CNTY        .                                         JEFFERSON :LOCATION  
STAT        .                                             TEXAS :STATE     
CTRY        .                                     UNITED STATES :COUNTRY   
SRVC        .                                                   :SERVICE COMPANY
DATE        .                             9/13/2023 11:18:46 AM :LOG DATE  
API         .                                    42245325230000 :API NUMBER
UWI         .                                    42245325230000 :UNIQUE WELL ID
XCOORD      .                                  1273245.27472043 :SURFACE X 
YCOORD      .                                  10899721.9019567 :SURFACE Y 
LAT         .                                           30.0277 :LATITUDE  
LON         .                                       -94.1606194 :LONGITUDE 
ELEV        .FT                                              29 :ELEVATION VALUE
ELEV_TYPE   .                                                KB :ELEVATION REFERENCE TYPE
~Curve Information Section
#MNEM       .UNIT                                      API CODE :CURVE DESCRIPTION
#------------------------------------------------------------------------------
DEPT        .FT                                                 :DEPTH     
CALX        .IN                                                 :          
DPSS        .%                                                  :          
DRHO        .G/CM3                                              :          
DT24        .US/FT                                              :          
GR          .GAPI                                               :          
GR_NORM     .GAPI                                               :GammaRay Normalized
M2R1        .OHMM                                               :          
M2R2        .OHMM                                               :          
M2R3        .OHMM                                               :          
M2R6        .OHMM                                               :          
M2R9        .OHMM                                               :          
M2RX        .OHMM                                               :          
NPSS        .%                                                  :Neutron Porosity Sandstone
SP          .MV                                                 :          
SP_NORM     .MV                                                 :SP Normalized
TENS        .LB                                                 :          
VSH_GR      .V/V                                                :Volume of Shale from GR
VSH_SP      .V/V                                                :Volume of Shale from SP
~A        DEPTH           CALX           DPSS           DRHO           DT24             GR        GR_NORM           M2R1           M2R2           M2R3           M2R6           M2R9           M2RX           NPSS             SP        SP_NORM           TENS         VSH_GR         VSH_SP
# ...
      3656.0000          9.835        -999.25          0.062       138.5836        65.2882        77.4983         0.8146         0.8371         0.8295         0.8295         0.8601         0.8447        -999.25           -8.8      -2.814487       -16.6667      0.9467723      0.9707341
      3656.5000          9.875        -999.25          0.062       136.1515        67.7087       80.79381          0.822         0.8371         0.8295         0.8295         0.8601         0.8447        -999.25           -9.2      -3.222799       -16.6667              1      0.9641484
      3657.0000          9.915        -999.25          0.064       132.7007        68.3094       81.60971         0.8447         0.8601         0.8524         0.8524          0.868         0.8524        -999.25          -10.4      -4.431112       -16.6667              1      0.9446595
      3657.5000          9.995        -999.25          0.062       132.2874        64.9539       77.03497         0.8447          0.822         0.8146         0.8146            0.8         0.7859        -999.25          -12.8      -6.839426       -16.6667      0.9369143      0.9058157
      3658.0000         10.115        -999.25           0.06       132.6859        63.7246       75.35735          0.772         0.7584         0.7517         0.7517         0.7189         0.7063        -999.25          -17.2      -11.24774       -16.6667      0.9012201      0.8347139
      3658.5000         10.235        -999.25          0.058       135.5257        60.9675       71.59796         0.7063         0.6933         0.6866         0.6866         0.6671         0.6543        -999.25          -22.8      -16.85605          -37.5      0.8212332      0.7442573
      3659.0000         10.355        -999.25          0.056       137.7606        56.4277       65.40952            0.7         0.6357         0.6296         0.6296         0.6058         0.5946        -999.25          -29.6      -23.66436          -37.5      0.6895643      0.6344457
      3659.5000         10.555        -999.25          0.056       137.3507        53.1115       60.88834            0.7         0.6236            0.6         0.5946         0.5892         0.5785        -999.25            -36      -30.07268          -37.5      0.5933689      0.5310858
      3660.0000         10.675        -999.25           0.06        135.104        51.6027       58.82988            0.7         0.6176         0.5946         0.5838         0.5785         0.5681        -999.25          -38.8      -32.88099       -58.3333      0.5495718      0.4857905
      3660.5000         10.675        -999.25          0.066       134.0816           53.7         61.685         0.6735         0.5892         0.5785         0.5527         0.5477         0.5378        -999.25            -38       -32.0893       -58.3602      0.6103192      0.4985597
      3661.0000         10.675        -999.25          0.066       134.2857           54.9       63.31749         0.6296         0.5578         0.5428         0.5233         0.5186         0.5092        -999.25          -37.2      -31.29762       -58.4048      0.6450529      0.5113288
      3661.5000         10.795        -999.25          0.064       137.1429           52.5       60.04469         0.5946         0.5233         0.5046         0.4954         0.4908         0.4817        -999.25            -40      -34.10593       -58.4493       0.575419      0.4660334
      3662.0000         10.835        -999.25          0.064       139.3878           50.7       57.58944         0.5838         0.5186         0.4908         0.4817         0.4773         0.4685        -999.25          -42.8      -36.91424       -58.4849      0.5231796       0.420738
      3662.5000         10.835        -999.25          0.066       139.3878           53.1       60.85701         0.5892         0.5186         0.4954         0.4862         0.4817         0.4729        -999.25          -43.2      -37.32256       -58.5293      0.5927023      0.4141523
      3663.0000         10.595        -999.25           0.07       136.7347           57.6       66.98599         0.5946         0.5281            0.5         0.4954         0.4908         0.4817        -999.25            -40      -34.13087       -58.5736      0.7231062      0.4656312
      3663.5000         10.355        -999.25          0.074       135.3061           58.5        68.2097         0.5946         0.5233         0.4954         0.4908         0.4862         0.4773        -999.25          -36.8      -30.93918       -58.6177      0.7491426        0.51711
      3664.0000         10.315        -999.25          0.072       136.1224           55.8       64.52814         0.5681         0.4954         0.4773         0.4599         0.4556         0.4472        -999.25          -37.2       -31.3475       -58.6618      0.6708114      0.5105243
      3664.5000         10.515        -999.25          0.066          142.4           51.9       59.21149         0.5428         0.4729         0.4349         0.4349         0.4309         0.4229        -999.25            -44      -38.15581       -58.7058      0.5576912      0.4007128
      3665.0000         10.915        -999.25          0.064          146.2           47.4       53.07729         0.5186         0.4514         0.4113         0.4113         0.4075            0.4        -999.25          -50.8      -44.96412       -58.7497      0.4271763      0.2909013
      3665.5000         10.995        -999.25          0.068          145.8           45.6       50.62204            0.5         0.4309         0.3963         0.3963         0.3926         0.3854        -999.25          -53.6      -47.77243       -58.7848      0.3749369      0.2456059
      3666.0000         10.715        -999.25          0.084          144.4        43.7897       48.15274         0.4908          0.419          0.389         0.3819         0.3783         0.3714        -999.25            -54      -48.18075       -58.8285      0.3223988      0.2390202
      3666.5000         10.315        -999.25           0.09          140.2        42.5819       46.50441         0.4862         0.4113          0.389         0.3783         0.3748         0.3679        -999.25            -52      -46.18906       -58.8722      0.2873279      0.2711442
      3667.0000         10.475        -999.25          0.088       138.5714        41.9805       45.68235         0.4908         0.4113          0.389         0.3783         0.3748         0.3679        -999.25          -50.4      -44.59737       -58.9157      0.2698372      0.2968166
      3667.5000         10.715        -999.25           0.07       138.5714        41.9835       45.68383         0.5092         0.4269          0.389         0.3783         0.3748         0.3679        -999.25            -50      -44.20569       -58.9592      0.2698687      0.3031341
      3668.0000         10.915        -999.25          0.054        137.551        42.2879       46.09599         0.5378         0.4349         0.4037          0.389         0.3854         0.3783        -999.25          -49.6        -43.814       -59.0025      0.2786381      0.3094516
      3668.5000         10.675        -999.25          0.072       136.7347         44.699       49.37869         0.5527         0.4514         0.4152            0.4         0.3963          0.389        -999.25          -47.6      -41.82231       -59.0458      0.3484827      0.3415756
      3669.0000         10.275        -999.25          0.094       136.1224           47.7       53.46517         0.5527         0.4599          0.419         0.4075         0.4037         0.3963        -999.25            -44      -38.23063       -59.0804      0.4354292       0.399506
      3669.5000          9.995        -999.25         0.1184       136.5306           48.6       54.68886         0.5428         0.4599         0.4152         0.4037            0.4         0.3926        -999.25          -41.2      -35.43894       -59.1235      0.4614652      0.4445333
