#------------------------------------------------------------------------------
# Created by    : vladimir.rabinovich
# Created on    : 09/19/2023 17:20:51
#------------------------------------------------------------------------------
~Version Information Section
VERS.           2.0     :   CWLS log ASCII Standard - VERSION 2.0
WRAP.           NO      :   One line per depth step
~Well Information Section
#MNEM       .UNIT                                         VALUE :DESCRIPTION
#------------------------------------------------------------------------------
STRT        .FT                                             126 :START DEPTH
STOP        .FT                                           15000 :STOP DEPTH
STEP        .FT                                             0.5 :STEP      
NULL        .                                           -999.25 :NULL      
COMP        .                                    MOBIL OIL CORP :COMPANY   
WELL        .                                MCFADDIN TRUST BLK :WELL      
FLD         .                                           WILDCAT :FIELD     
LOC         .                                                   :LOCATION  
CNTY        .                                         JEFFERSON :LOCATION  
STAT        .                                             TEXAS :STATE     
CTRY        .                                     UNITED STATES :COUNTRY   
SRVC        .                                                   :SERVICE COMPANY
DATE        .                             9/13/2023 11:19:11 AM :LOG DATE  
API         .                                    42245029210000 :API NUMBER
UWI         .                                    42245029210000 :UNIQUE WELL ID
XCOORD      .                                  1288949.71304085 :SURFACE X 
YCOORD      .                                  10768198.0929689 :SURFACE Y 
LAT         .                                        29.6663916 :LATITUDE  
LON         .                                       -94.1069885 :LONGITUDE 
ELEV        .FT                                              20 :ELEVATION VALUE
ELEV_TYPE   .                                                DF :ELEVATION REFERENCE TYPE
~Curve Information Section
#MNEM       .UNIT                                      API CODE :CURVE DESCRIPTION
#------------------------------------------------------------------------------
DEPT        .FT                                                 :DEPTH     
ASN         .OHMM                                               :          
LAT         .OHMM                                               :          
LN          .OHMM                                               :          
SN          .OHMM                                               :          
SP          .MV                                                 :          
SP_NORM     .MV                                                 :SP Normalized
VSH_SP      .V/V                                                :Volume of Shale from SP
~A        DEPTH            ASN            LAT             LN             SN             SP        SP_NORM         VSH_SP
# ...
      7060.5000         0.4818         0.4624         0.4674         0.5482       -59.2198      -26.89494       0.492256
      7061.0000         0.4719         0.4739         0.4698         0.5303       -57.9869      -25.67964      0.5160854
      7061.5000         0.4655         0.4853         0.4722         0.5362        -55.866      -23.57634      0.5573267
      7062.0000         0.4774         0.4967         0.4759         0.5574       -53.2918      -21.01974      0.6074561
      7062.5000         0.4917         0.5081         0.4808         0.5838       -50.2487      -17.99423      0.6667798
      7063.0000          0.517         0.5195         0.4856         0.6101       -46.1904      -13.95353      0.7460092
      7063.5000         0.5427         0.5347         0.4905         0.6362       -44.0298      -11.81053      0.7880289
      7064.0000           0.57         0.5534         0.4953         0.6552       -41.0884      -8.886726      0.8453583
      7064.5000         0.5925         0.5721         0.5002         0.6636       -38.9034      -6.719322      0.8878564
      7065.0000         0.6069         0.5907          0.505         0.6608       -37.3155      -5.149017      0.9186467
      7065.5000         0.6213         0.6094         0.5098          0.652       -36.1024      -3.953518      0.9420879
      7066.0000         0.6337         0.6281         0.5147          0.642       -35.0917      -2.960415      0.9615605
      7066.5000         0.6323         0.6468         0.5195         0.6292       -33.7814      -1.667709      0.9869077
      7067.0000         0.6094         0.6679         0.5235         0.6164       -32.5252     -0.4291077              1
      7067.5000         0.5865         0.6896         0.5274         0.6037       -31.4195      0.6589947              1
      7068.0000         0.5637         0.7112         0.5312         0.5978       -30.3668       1.694098              1
      7068.5000         0.5526         0.7329         0.5351         0.5936       -29.4777       2.565601              1
      7069.0000         0.5423         0.7545          0.539         0.5894       -28.5887       3.437004              1
      7069.5000         0.5324         0.7762         0.5429         0.5933       -27.7848       4.223307              1
      7070.0000         0.5462         0.7979         0.5492         0.6006        -27.035       4.955507              1
      7070.5000         0.5599         0.8119         0.5585         0.6088       -26.2853       5.687611              1
      7071.0000          0.572         0.8233         0.5678         0.6208       -26.6137       5.341612              1
      7071.5000         0.5829         0.8347         0.5772         0.6327       -26.9297       5.008015              1
      7072.0000         0.5939          0.846         0.5865         0.6447       -27.1115       4.808619              1
      7072.5000         0.6049         0.8567         0.5958         0.6567       -27.1101       4.792421              1
      7073.0000         0.6158         0.8308         0.6052         0.6663       -27.1087       4.776224              1
      7073.5000         0.6257         0.8049         0.6145         0.6757       -27.0608       4.806526              1
      7074.0000         0.6356         0.7791         0.6228         0.6852       -26.9901       4.859629              1
      7074.5000         0.6455         0.7532         0.6295         0.6942       -26.9193       4.912832              1
      7075.0000         0.6564         0.7321         0.6362         0.6982       -26.8486       4.965935              1
      7075.5000         0.6696         0.7209         0.6429         0.7022       -26.8021       4.994839              1
      7076.0000         0.6828         0.7097         0.6496         0.7061       -26.7728        5.00654              1
      7076.5000         0.6884         0.6986         0.6563         0.7112       -26.7741       4.987644              1
      7077.0000         0.6856         0.6874          0.663         0.7207       -27.3391       4.405045              1
      7077.5000         0.6829         0.6762         0.6697         0.7301       -27.9263       3.800247              1
      7078.0000         0.6801         0.6635         0.6764         0.7344       -28.8927        2.81625              1
      7078.5000         0.6843         0.6461         0.6831          0.738       -29.8592       1.832153              1
      7079.0000         0.6977         0.6287         0.6835         0.7415       -30.8654      0.8083553              1
      7079.5000         0.7134         0.6113         0.6816         0.7451       -32.0232     -0.3670425              1
      7080.0000         0.7321         0.5951         0.6798         0.7487        -33.181      -1.542439       0.989364
      7080.5000         0.7508         0.5857          0.678         0.7508       -34.0048      -2.383835       0.972866
      7081.0000         0.7696         0.5762         0.6761         0.7511       -34.8087      -3.205334      0.9567581
      7081.5000         0.7885         0.5668         0.6743         0.7514       -33.9263       -2.34053      0.9737151
      7082.0000         0.7906         0.5573         0.6678         0.7514       -32.8768      -1.308628      0.9939485
      7082.5000         0.7736         0.5479         0.6605         0.7497       -31.3929      0.1576748              1
      7083.0000         0.7559         0.5587         0.6533          0.748       -29.9067       1.626278              1
      7083.5000         0.7382         0.5731         0.6461         0.7463       -28.9458        2.56958              1
      7084.0000         0.7207         0.5875         0.6389         0.7433       -28.3515       3.146284              1
      7084.5000         0.7161         0.6019         0.6329         0.7397       -28.3501       3.130087              1
      7085.0000         0.7115         0.6163         0.6286         0.7361       -28.3486       3.113989              1
      7085.5000         0.7069         0.6313         0.6243         0.7324       -28.4936       2.951391              1
      7086.0000         0.7023         0.6498           0.62         0.7288       -28.6721       2.755295              1
      7086.5000         0.6984         0.6684         0.6158         0.7249       -28.8507       2.559097              1
      7087.0000         0.6952          0.687         0.6115         0.7211       -29.0293       2.362898              1
      7087.5000          0.692         0.7055         0.6115         0.7173       -29.3293       2.045301              1
      7088.0000         0.6888         0.7241         0.6151         0.7135       -29.6458       1.711205              1
      7088.5000         0.6856         0.7427         0.6186         0.7119       -29.9626       1.376806              1
      7089.0000         0.6734         0.7612         0.6222         0.7105       -30.5691      0.7527103              1
      7089.5000          0.658         0.7798         0.6258         0.7091       -31.7943     -0.4900875              1
      7090.0000         0.6395         0.7768         0.6294         0.7076       -35.4445      -4.157885      0.9380807
      7090.5000         0.6251         0.7636         0.6329         0.7077       -38.1691      -6.900084      0.8843121
      7091.0000         0.6365         0.7504         0.6365          0.708       -41.9597      -10.70828      0.8096415
      7091.5000         0.6478          0.735         0.6401         0.7083       -45.4761      -14.24228      0.7403475
      7092.0000         0.6591         0.7072         0.6403         0.7099       -47.2896      -16.07337      0.7044436
      7092.5000         0.6705         0.6794         0.6374          0.712       -48.2992      -17.10057      0.6843026
      7093.0000         0.6818         0.6517         0.6346          0.714        -49.238      -18.05697      0.6655497
      7093.5000         0.6917         0.6239         0.6317         0.7161       -49.4893      -18.32586      0.6602772
