#------------------------------------------------------------------------------
# Created by    : vladimir.rabinovich
# Created on    : 09/19/2023 17:20:58
#------------------------------------------------------------------------------
~Version Information Section
VERS.           2.0     :   CWLS log ASCII Standard - VERSION 2.0
WRAP.           NO      :   One line per depth step
~Well Information Section
#MNEM       .UNIT                                         VALUE :DESCRIPTION
#------------------------------------------------------------------------------
STRT        .FT                                            1876 :START DEPTH
STOP        .FT                                            8575 :STOP DEPTH
STEP        .FT                                             0.5 :STEP      
NULL        .                                           -999.25 :NULL      
COMP        .                                      L G D C CORP :COMPANY   
WELL        .                                          GARTH CO :WELL      
FLD         .                                       CHEEK SOUTH :FIELD     
LOC         .                                                   :LOCATION  
CNTY        .                                         JEFFERSON :LOCATION  
STAT        .                                             TEXAS :STATE     
CTRY        .                                     UNITED STATES :COUNTRY   
SRVC        .                                                   :SERVICE COMPANY
DATE        .                             9/13/2023 11:18:46 AM :LOG DATE  
API         .                                    42245322600000 :API NUMBER
UWI         .                                    42245322600000 :UNIQUE WELL ID
XCOORD      .                                  1261779.14844878 :SURFACE X 
YCOORD      .                                  10885364.2183051 :SURFACE Y 
LAT         .                                        29.9878888 :LATITUDE  
LON         .                                       -94.1963831 :LONGITUDE 
ELEV        .FT                                            39.9 :ELEVATION VALUE
ELEV_TYPE   .                                                KB :ELEVATION REFERENCE TYPE
~Curve Information Section
#MNEM       .UNIT                                      API CODE :CURVE DESCRIPTION
#------------------------------------------------------------------------------
DEPT        .FT                                                 :DEPTH     
AT10        .OHMM                                               :          
AT30        .OHMM                                               :          
AT60        .OHMM                                               :          
AT90        .OHMM                                               :          
DCAL        .IN                                                 :          
DPSS        .V/V                                                :          
DRHO        .G/CM3                                              :          
GR          .GAPI                                               :          
GR_NORM     .GAPI                                               :GammaRay Normalized
NPSS        .V/V                                                :Neutron Porosity Sandstone
SP          .MV                                                 :          
SP_NORM     .MV                                                 :SP Normalized
TENS        .LB                                                 :          
VSH_GR      .V/V                                                :Volume of Shale from GR
VSH_SP      .V/V                                                :Volume of Shale from SP
~A        DEPTH           AT10           AT30           AT60           AT90           DCAL           DPSS           DRHO             GR        GR_NORM           NPSS             SP        SP_NORM           TENS         VSH_GR         VSH_SP
# ...
      2522.0000          1.206         0.6232         0.5612          0.626           0.64          0.324         -0.004          51.45       55.37209          0.372          -91.8      -42.41729        -999.25      0.4760019      0.2330132
      2522.5000         1.3175         0.6734         0.6095         0.6553           0.32         0.2964         -0.001           57.6       63.22783         0.3582            -90      -40.61728        -999.25      0.6431454      0.2663466
      2523.0000         1.2524         0.6616         0.6098         0.6323           0.32         0.2898         -0.001          59.85       66.08836          0.351            -89      -39.61728        -999.25      0.7040076      0.2848651
      2523.5000         1.1106         0.6212         0.5855         0.5882           0.32          0.309         -0.001        61.8182       68.58797         0.3492          -89.8      -40.41729        -999.25      0.7571909      0.2700503
      2524.0000         0.9454         0.5623         0.5133         0.5397           0.34         0.3282         -0.002          58.65       64.50877          0.348          -92.4      -43.01728        -999.25      0.6703994      0.2219021
      2524.5000         0.7461          0.495          0.449         0.4532           0.44         0.3444          0.001           53.4       57.76314         0.3474          -95.2      -45.81728        -999.25      0.5268754      0.1700504
      2525.0000         0.5972         0.3981         0.3891         0.3684           0.74          0.354          0.002          46.65       49.09629         0.3582          -98.4      -49.01728        -999.25      0.3424742       0.110791
      2525.5000         0.5306         0.3736         0.3668         0.3635            1.2         0.3612          0.002        41.7327       42.77679         0.3804      -101.3861      -52.00338        -999.25      0.2080168      0.0554929
      2526.0000         0.5285         0.3653         0.3555          0.349           1.62         0.3654              0        40.2475       40.85321         0.3888      -103.1683      -53.78558        -999.25      0.1670896     0.02248926
      2526.5000         0.5661         0.3705         0.3605         0.3573           1.94          0.357         -0.001        40.2475        40.8319         0.3732      -103.1683      -53.78558        -999.25      0.1666362     0.02248926
      2527.0000         0.6148         0.3916          0.381         0.3724           2.02         0.3492          0.001        40.5446       41.19112         0.3576      -102.3762      -52.99348        -999.25      0.1742791     0.03715777
      2527.5000         0.6673         0.4122         0.4008         0.3864           2.26          0.351          0.001         40.396       40.97948         0.3636      -101.3861      -52.00338        -999.25      0.1697761      0.0554929
      2528.0000         0.7248          0.436          0.424         0.4029            2.6         0.3648          0.001         39.802       40.19736         0.3876      -101.1881      -51.80539        -999.25      0.1531353     0.05915952
      2528.5000         0.7558         0.4591         0.4403         0.4184           2.78         0.3744              0        39.6535       39.98585         0.4134       -100.396      -51.01329        -999.25      0.1486351     0.07382803
      2529.0000         0.7702          0.468         0.4593         0.4324           2.84         0.3666         -0.002        42.0297       43.00803           0.42          -99.2      -49.81728        -999.25      0.2129367      0.0959763
      2529.5000         0.7813          0.477         0.4747         0.4448           2.46          0.351         -0.004           45.6       47.55962         0.3918          -97.4      -48.01728        -999.25      0.3097792      0.1293095
      2530.0000         0.8112         0.4816          0.475         0.4555            1.7         0.3294         -0.006           49.5       52.53352         0.3636          -95.6      -46.21728        -999.25      0.4156068      0.1626429
      2530.5000         0.6935         0.4706         0.4641         0.4409           1.32          0.312         -0.006          49.95       53.08858         0.3468            -96      -46.61728        -999.25      0.4274167      0.1552355
      2531.0000         0.5781         0.4227         0.4187         0.3997           0.96          0.312         -0.004          48.45       51.14604         0.3306          -98.2      -48.81728        -999.25      0.3860859      0.1144948
      2531.5000         0.4948         0.3817         0.3782          0.363           1.04         0.3252         -0.004        44.8515       46.51569           0.33      -100.9901      -51.60738        -999.25      0.2875679      0.0628263
      2532.0000         0.4699         0.3595         0.3482         0.3357           1.18         0.3414         -0.004        41.4356       42.11922         0.3414      -103.1683      -53.78558        -999.25      0.1940261     0.02248926
      2532.5000         0.4632         0.3594         0.3497         0.3387           1.26         0.3534         -0.004        38.3168       38.10328         0.3612      -102.9703      -53.58758        -999.25      0.1085805      0.0261559
      2533.0000         0.4651         0.3527         0.3511         0.3432           1.24         0.3534         -0.005        36.6832       35.98963         0.3684      -103.1683      -53.78558        -999.25     0.06360918     0.02248926
      2533.5000         0.4628         0.3478         0.3462         0.3399           1.32         0.3504         -0.005        35.6436       34.63678         0.3678      -103.3663      -53.98359        -999.25     0.03482502     0.01882249
      2534.0000          0.454         0.3367         0.3413         0.3336           1.48         0.3534         -0.005         35.198       34.04473         0.3666      -103.3663      -53.98359        -999.25     0.02222832     0.01882249
      2534.5000         0.4475          0.335          0.335         0.3289           1.56         0.3618         -0.005         35.495       34.40382           0.39      -103.3663      -53.98359        -999.25     0.02986843     0.01882249
      2535.0000         0.4391         0.3318         0.3303         0.3273           1.58         0.3714         -0.004        36.0891       35.14346           0.39      -103.3663      -53.98359        -999.25     0.04560552     0.01882249
      2535.5000         0.4308         0.3301         0.3271         0.3212            1.7         0.3786         -0.004        37.1287       36.45369         0.3852      -103.3663      -53.98359        -999.25     0.07348268     0.01882249
      2536.0000         0.4207         0.3181          0.321         0.3138           1.86          0.375         -0.004        38.6139       38.33465         0.3804      -103.5644      -54.18168        -999.25      0.1135032     0.01515403
      2536.5000         0.4108         0.3108         0.3108         0.3024            1.9         0.3762         -0.004        38.7624       38.50354          0.378      -103.9604      -54.57769        -999.25      0.1170965    0.007820624
      2537.0000         0.4031         0.3078         0.3037         0.2968            1.7         0.3798         -0.004        38.3168       37.91149         0.3888      -104.1584      -54.77568        -999.25      0.1044998    0.004153993
      2537.5000          0.401         0.3063         0.3008         0.2966           1.56         0.3834         -0.005         35.495       34.27596         0.4098      -104.1584      -54.77568        -999.25     0.02714815    0.004153993
      2538.0000         0.4008         0.3062         0.3006         0.2965            1.6         0.3864         -0.008        33.8614        32.1623         0.4314      -103.9604      -54.57769        -999.25              0    0.007820624
      2538.5000         0.3988         0.3088          0.306         0.3019           1.72         0.3804         -0.008        33.7129       31.95078         0.4242      -103.3663      -53.98359        -999.25              0     0.01882249
