#------------------------------------------------------------------------------
# Created by    : vladimir.rabinovich
# Created on    : 09/19/2023 17:22:02
#------------------------------------------------------------------------------
~Version Information Section
VERS.           2.0     :   CWLS log ASCII Standard - VERSION 2.0
WRAP.           NO      :   One line per depth step
~Well Information Section
#MNEM       .UNIT                                         VALUE :DESCRIPTION
#------------------------------------------------------------------------------
STRT        .FT                                          2944.5 :START DEPTH
STOP        .FT                                           12030 :STOP DEPTH
STEP        .FT                                             0.5 :STEP      
NULL        .                                           -999.25 :NULL      
COMP        .                                  SAMEDAN OIL CORP :COMPANY   
WELL        .                                         ROBERTSON :WELL      
FLD         .                                     HAMSHIRE WEST :FIELD     
LOC         .                                                   :LOCATION  
CNTY        .                                         JEFFERSON :LOCATION  
STAT        .                                             TEXAS :STATE     
CTRY        .                                     UNITED STATES :COUNTRY   
SRVC        .                                                   :SERVICE COMPANY
DATE        .                             9/13/2023 11:18:46 AM :LOG DATE  
API         .                                    42245321120000 :API NUMBER
UWI         .                                    42245321120000 :UNIQUE WELL ID
XCOORD      .                                  1214919.43989532 :SURFACE X 
YCOORD      .                                  10839736.7579652 :SURFACE Y 
LAT         .                                        29.8609813 :LATITUDE  
LON         .                                       -94.3427285 :LONGITUDE 
ELEV        .FT                                              38 :ELEVATION VALUE
ELEV_TYPE   .                                                KB :ELEVATION REFERENCE TYPE
~Curve Information Section
#MNEM       .UNIT                                      API CODE :CURVE DESCRIPTION
#------------------------------------------------------------------------------
DEPT        .FT                                                 :DEPTH     
CALI        .IN                                                 :          
DPSS        .%                                                  :          
DRHO        .G/CM3                                              :          
GR          .GAPI                                               :          
GR_NORM     .GAPI                                               :GammaRay Normalized
ILD         .OHMM                                               :          
ILM         .OHMM                                               :          
NPSS        .%                                                  :Neutron Porosity Sandstone
SGRD        .OHMM                                               :          
SP          .MV                                                 :          
SP_NORM     .MV                                                 :SP Normalized
TENS        .LB                                                 :          
VSH_GR      .V/V                                                :Volume of Shale from GR
VSH_SP      .V/V                                                :Volume of Shale from SP
~A        DEPTH           CALI           DPSS           DRHO             GR        GR_NORM            ILD            ILM           NPSS           SGRD             SP        SP_NORM           TENS         VSH_GR         VSH_SP
# ...
      8992.5000           9.01          24.96         0.0365        79.5705       82.62869         1.1668         1.1829           44.1         1.2552       -71.2741      -2.138298       3574.257              1      0.9890548
      8993.0000           9.01          24.54         0.0315        81.9394       84.99049         1.1402         1.1719          43.86         1.2379       -71.4807      -2.344894       3594.059              1      0.9870683
      8993.5000           9.03        23.7624         0.0315        81.0408       84.08479         1.1142         1.1452          43.44         1.2434       -71.6876      -2.551796       3554.455              1      0.9850789
      8994.0000           9.13        22.9901         0.0384        78.3601       81.39699         1.1089          1.145          43.44         1.2546        -71.696      -2.560196       3554.455              1      0.9849981
      8994.5000           9.25        22.6337         0.0443        77.7587       80.78848         1.1189         1.1448          42.96         1.2544       -71.5054      -2.369598       3534.654              1      0.9868308
      8995.0000           9.47        22.9901         0.0433         79.979       83.00169         1.1394         1.1551           42.3         1.2485       -71.9116      -2.775795       3534.654              1      0.9829251
      8995.5000           9.53        23.3465         0.0403        81.7537       84.76929         1.1549         1.1709        41.6436         1.2541        -71.721      -2.585197       3534.654              1      0.9847577
      8996.0000           9.43        23.2871         0.0383        80.2611       83.26958          1.176         1.1978        40.5149         1.2888       -70.9327      -1.796898       3554.455              1      0.9923375
      8996.5000           9.25        22.2178         0.0382        78.1745       81.17589         1.1976         1.2309        39.7426         1.3614       -70.7415      -1.605698       3514.852              1       0.994176
      8997.0000           9.19        20.9109         0.0392        75.9394       78.93369         1.2139         1.2708        39.6238         1.4185       -71.7461      -2.610298       3514.852      0.9773124      0.9845164
      8997.5000           9.19         20.198         0.0412        72.6513       75.63848         1.2137         1.2823        39.8614         1.4183       -72.1535        -3.0177        3495.05      0.9072017       0.980599
      8998.0000           9.17        20.3762         0.0401         73.392       76.37209         1.2303         1.2999        41.0495         1.3988       -70.9647      -1.828896        3495.05      0.9228103      0.9920298
      8998.5000           9.17        21.0891         0.0361          75.62       78.59299         1.2529         1.3117        41.0495         1.3986       -69.7748     -0.6389999        3495.05      0.9700636              1
      8999.0000           9.09        -999.25         0.0311        76.9493       79.91518         1.2759         1.3175        39.6238         1.3857       -70.3814      -1.245598        3495.05      0.9981954      0.9976385
      8999.5000           9.05        -999.25          0.029        77.5359       80.49468         1.2934         1.3173        39.6832         1.3729       -71.5883      -2.452499       3475.248              1      0.9860337
      9000.0000           9.05        -999.25           0.03         77.677       82.73997         1.2932         1.3172        41.5842         1.3539       -72.1965      -3.060699       3475.248              1      0.9801856
      9000.5000           9.05        -999.25          0.031        75.1485       79.75555         1.2754          1.317           43.2         1.3353          -71.4      -2.264198       3475.248      0.9947988      0.9878442
      9001.0000           9.05        -999.25          0.032        72.4733       76.59847         1.2578         1.3169          42.72         1.3351          -70.6      -1.464195       3475.248      0.9276271      0.9955366
      9001.5000           9.01        21.8614          0.031        70.2415       73.96329         1.2406         1.3048        41.4653          1.366          -68.4      0.7358017       3455.446      0.8715593              1
      9002.0000           9.01        22.7525          0.025        70.8342       74.65253         1.2235         1.2927        40.2178         1.3784          -69.6     -0.4641953       3455.446      0.8862242              1
      9002.5000           8.91        23.8218          0.026        76.1881       80.94574         1.2461          1.275        40.2772         1.3533            -70     -0.8641968       3475.248              1              1
      9003.0000           8.87        23.9406          0.042        79.1584       84.43343         1.2575         1.2807        40.8119         1.3285            -70     -0.8641968       3534.654              1              1
      9003.5000           8.87        23.5842          0.063        79.4554       84.77464         1.2748         1.2924        41.8812         1.3103            -70     -0.8641968       3534.654              1              1
      9004.0000           8.87        23.0495          0.061        78.1188       83.19311         1.2688         1.2864          43.02         1.3222          -68.8      0.3358002       3475.248              1              1
      9004.5000           8.93        22.5149          0.052        76.3366        81.0871         1.2457         1.2804          42.48         1.3343          -68.8      0.3358002       3435.644              1              1
      9005.0000           8.97        21.6238          0.042        75.4455        80.0299         1.2343         1.2803        41.2277         1.3588          -69.4     -0.2641983       3415.842              1              1
      9005.5000           9.01        20.9703           0.04        74.7014       79.14575         1.2174          1.292        41.1683         1.3837          -69.2    -0.06419373       3415.842      0.9818245              1
      9006.0000           8.97        21.0891          0.036        73.2076       77.37918         1.2062         1.2684        41.7624          1.371            -69      0.1358032       3415.842      0.9442379              1
      9006.5000           8.97        22.1584          0.031        73.8045       78.07336         1.1897         1.2117          43.08         1.3399          -69.4     -0.2641983       3376.238      0.9590077              1
      9007.0000           8.91        22.8119          0.029        77.2277       82.09414         1.1734         1.1896           43.5         1.3035          -69.8     -0.6641998       3336.634              1              1
      9007.5000           8.91        23.1089          0.028        79.3069         84.533         1.1574         1.1734          43.86         1.2856          -69.4     -0.2641983       3336.634              1              1
      9008.0000           8.97        23.2277          0.025        78.8614       84.00028         1.1364         1.1521          44.28         1.2855          -69.6     -0.4641953       3356.436              1              1
      9008.5000           8.97        23.3465          0.022        77.0792       81.89429         1.1158         1.1312          44.34         1.2854          -69.6     -0.4641953       3376.238              1              1
      9009.0000           8.95         23.703          0.023        75.5941       80.13795         1.0956         1.1107          44.82         1.2912          -69.8     -0.6641998       3376.238              1              1
      9009.5000           8.97        23.6436          0.026        77.0792       81.87757          1.066         1.1005          45.18         1.2852          -69.6     -0.4641953        3396.04              1              1
      9010.0000           8.99        23.5842          0.029        81.2376       86.76366         1.0611         1.0905           45.3         1.2851          -69.4     -0.2641983        3396.04              1              1
