#------------------------------------------------------------------------------
# Created by    : vladimir.rabinovich
# Created on    : 09/19/2023 17:22:42
#------------------------------------------------------------------------------
~Version Information Section
VERS.           2.0     :   CWLS log ASCII Standard - VERSION 2.0
WRAP.           NO      :   One line per depth step
~Well Information Section
#MNEM       .UNIT                                         VALUE :DESCRIPTION
#------------------------------------------------------------------------------
STRT        .FT                                             932 :START DEPTH
STOP        .FT                                            7546 :STOP DEPTH
STEP        .FT                                             0.5 :STEP      
NULL        .                                           -999.25 :NULL      
COMP        .                   SUN EXPLORATION & PRODUCTION CO :COMPANY   
WELL        .                                BROUSSARD & HEBERT :WELL      
FLD         .                                          LA BELLE :FIELD     
LOC         .                                                   :LOCATION  
CNTY        .                                         JEFFERSON :LOCATION  
STAT        .                                             TEXAS :STATE     
CTRY        .                                     UNITED STATES :COUNTRY   
SRVC        .                                                   :SERVICE COMPANY
DATE        .                             9/13/2023 11:18:46 AM :LOG DATE  
API         .                                    42245319210000 :API NUMBER
UWI         .                                    42245319210000 :UNIQUE WELL ID
XCOORD      .                                  1279394.73540744 :SURFACE X 
YCOORD      .                                  10819915.3695329 :SURFACE Y 
LAT         .                                        29.8083786 :LATITUDE  
LON         .                                       -94.1386839 :LONGITUDE 
ELEV        .FT                                              23 :ELEVATION VALUE
ELEV_TYPE   .                                                KB :ELEVATION REFERENCE TYPE
~Curve Information Section
#MNEM       .UNIT                                      API CODE :CURVE DESCRIPTION
#------------------------------------------------------------------------------
DEPT        .FT                                                 :DEPTH     
DCAL        .IN                                                 :          
DPSS        .V/V                                                :          
DRHO        .G/CM3                                              :          
GR          .GAPI                                               :          
GR_NORM     .GAPI                                               :GammaRay Normalized
ILD         .OHMM                                               :          
ILM         .OHMM                                               :          
NPSS        .V/V                                                :Neutron Porosity Sandstone
SFL         .OHMM                                               :          
SP          .MV                                                 :          
SP_NORM     .MV                                                 :SP Normalized
TENS        .LB                                                 :          
VSH_GR      .V/V                                                :Volume of Shale from GR
VSH_SP      .V/V                                                :Volume of Shale from SP
~A        DEPTH           DCAL           DPSS           DRHO             GR        GR_NORM            ILD            ILM           NPSS            SFL             SP        SP_NORM           TENS         VSH_GR         VSH_SP
# ...
      1454.0000        -999.25        -999.25        -999.25         50.132       61.67024         0.7605         0.9125        -999.25         1.1268       -40.6122      -22.97804        1797.98      0.6100051      0.4364606
      1454.5000        -999.25        -999.25        -999.25        45.7543       56.92746         0.7364         0.8838        -999.25         1.1319       -41.4286      -23.78581       1787.879      0.5090948      0.4157485
      1455.0000        -999.25        -999.25        -999.25        45.1508       56.28691          0.713         0.8719        -999.25         1.1476       -41.6327      -23.98128       1777.778      0.4954661      0.4107364
      1455.5000        -999.25        -999.25        -999.25        47.8635       59.25079            0.7         0.8601        -999.25         1.1372       -41.0204      -23.36035       1777.778      0.5585274      0.4266577
      1456.0000        -999.25        -999.25        -999.25        50.7242       62.37553         0.6937         0.8563        -999.25         1.1063            -39      -21.33132       1767.677      0.6250114      0.4786841
      1456.5000        -999.25        -999.25        -999.25         53.281       65.16998         0.6905         0.8485        -999.25         1.0962          -36.6      -18.92269       1767.677      0.6844676      0.5404438
      1457.0000        -999.25        -999.25        -999.25        58.8448       71.23277         0.6843         0.8295        -999.25         1.1063          -32.8      -15.11406       1777.778      0.8134633       0.638101
      1457.5000        -999.25        -999.25        -999.25        65.9651       78.98735         0.6812         0.8109        -999.25         1.0664          -28.2      -10.50543       1787.879      0.9784543      0.7562709
      1458.0000        -999.25        -999.25        -999.25        71.5917       85.11841         0.6843          0.789        -999.25         0.9729          -25.2      -7.496805       1787.879              1      0.8334153
      1458.5000        -999.25        -999.25        -999.25        72.4795       86.09878         0.6843         0.7711        -999.25          0.868          -23.2      -5.488176       1767.677              1      0.8849186
      1459.0000        -999.25        -999.25        -999.25        70.9949       84.50054         0.6781         0.7605        -999.25         0.8333            -22      -4.279545       1767.677              1      0.9159091
      1459.5000        -999.25        -999.25        -999.25        70.3994       83.86869         0.6751         0.7535        -999.25         0.8485          -21.2      -3.470917       1767.677              1      0.9366432
      1460.0000        -999.25        -999.25        -999.25        69.9517       83.39748         0.6751         0.7535        -999.25         0.8485          -21.4      -3.662287       1767.677              1      0.9317362
      1460.5000        -999.25        -999.25        -999.25        66.9802       80.18311         0.6781          0.757        -999.25         0.8109          -22.2      -4.453659       1767.677              1      0.9114447
      1461.0000        -999.25        -999.25        -999.25        62.8218       75.67867         0.6781          0.757        -999.25          0.764          -23.8      -6.045029       1767.677      0.9080569      0.8706403
      1461.5000        -999.25        -999.25        -999.25             60       72.62702         0.6905         0.7605        -999.25         0.7854          -25.8        -8.0364       1787.879      0.8431281      0.8195795
      1462.0000        -999.25        -999.25        -999.25        61.1881       73.93378         0.6781          0.764        -999.25         0.8409          -27.4      -9.627771       1767.677      0.8709316      0.7787751
      1462.5000        -999.25        -999.25        -999.25        63.8614       76.85486         0.6751         0.7746        -999.25         0.8759            -30      -12.21914       1767.677      0.9330821      0.7123297
      1463.0000        -999.25        -999.25        -999.25        62.3762       75.25597         0.6781         0.7854        -999.25         0.8759            -32      -14.21051       1767.677      0.8990633      0.6612689
      1463.5000        -999.25        -999.25        -999.25          57.75       70.24309         0.6781         0.7927        -999.25         0.9379          -34.2      -16.40188       1777.778      0.7924061      0.6050799
      1464.0000        -999.25        -999.25        -999.25          53.25       65.36736         0.6659         0.8073        -999.25         1.0374          -35.6      -17.79325       1777.778      0.6886671      0.5694038
      1464.5000        -999.25        -999.25        -999.25           52.5       64.56757         0.6629         0.8036        -999.25         1.0861          -36.4      -18.58463       1767.677      0.6716505      0.5491121
      1465.0000        -999.25        -999.25        -999.25           53.4       65.56121         0.6569         0.8036        -999.25         1.0518          -36.8        -18.976       1777.778      0.6927917       0.539077
      1465.5000        -999.25        -999.25        -999.25          55.05       67.37002          0.654          0.789        -999.25         1.0092            -37      -19.16737       1777.778       0.731277        0.53417
      1466.0000        -999.25        -999.25        -999.25           58.5       71.13529         0.6629          0.789        -999.25         0.9864            -37      -19.15874       1767.677      0.8113892      0.5343913
      1466.5000        -999.25        -999.25        -999.25        64.1584       77.30091         0.6659         0.7818        -999.25         0.9336          -37.2      -19.35011       1767.677      0.9425726      0.5294844
      1467.0000        -999.25        -999.25        -999.25        66.3861       79.73763          0.672         0.7818        -999.25            0.9          -37.2      -19.34148       1757.576      0.9944177      0.5297056
      1467.5000        -999.25        -999.25        -999.25         64.604       77.81604         0.6843            0.8        -999.25         0.9684          -37.2      -19.33285       1767.677      0.9535328      0.5299269
      1468.0000        -999.25        -999.25        -999.25        60.5941       73.47302         0.6968         0.8109        -999.25         1.1012          -36.6      -18.72422       1767.677      0.8611282      0.5455328
      1468.5000        -999.25        -999.25        -999.25          55.35       67.78852         0.7097         0.8109        -999.25         1.2182          -35.8      -17.91559       1767.677      0.7401813      0.5662669
      1469.0000        -999.25        -999.25        -999.25          51.45       63.56495         0.7364         0.8258        -999.25         1.2182          -34.8      -16.90696       1767.677      0.6503181      0.5921292
      1469.5000        -999.25        -999.25        -999.25          49.05       60.97176          0.764         0.8447        -999.25         1.1476          -33.8      -15.89833       1767.677      0.5951439      0.6179914
      1470.0000        -999.25        -999.25        -999.25          50.25       62.29147         0.7927         0.8601        -999.25         1.1114          -32.8       -14.8897       1808.081      0.6232228      0.6438537
      1470.5000        -999.25        -999.25        -999.25        54.4394        66.8604         0.8182         0.8757        -999.25          1.137       -31.0146      -13.09568       1808.373       0.720434      0.6898544
      1471.0000        -999.25        -999.25        -999.25        56.9737       69.63039         0.8292         0.8916        -999.25         1.2011       -29.6401      -11.71255       1778.571        0.77937      0.7253193
      1471.5000        -999.25        -999.25        -999.25        55.9059       68.48518         0.8442         0.8914        -999.25         1.2344       -28.2669      -10.33072       1779.073      0.7550038      0.7607508
