#------------------------------------------------------------------------------
# Created by    : vladimir.rabinovich
# Created on    : 09/19/2023 17:22:56
#------------------------------------------------------------------------------
~Version Information Section
VERS.           2.0     :   CWLS log ASCII Standard - VERSION 2.0
WRAP.           NO      :   One line per depth step
~Well Information Section
#MNEM       .UNIT                                         VALUE :DESCRIPTION
#------------------------------------------------------------------------------
STRT        .FT                                             120 :START DEPTH
STOP        .FT                                           15526 :STOP DEPTH
STEP        .FT                                             0.5 :STEP      
NULL        .                                           -999.25 :NULL      
COMP        .                                    MOBIL OIL CORP :COMPANY   
WELL        .                                MCFADDIN TRUST BLK :WELL      
FLD         .                                           WILDCAT :FIELD     
LOC         .                                                   :LOCATION  
CNTY        .                                         JEFFERSON :LOCATION  
STAT        .                                             TEXAS :STATE     
CTRY        .                                     UNITED STATES :COUNTRY   
SRVC        .                                                   :SERVICE COMPANY
DATE        .                             9/13/2023 11:19:11 AM :LOG DATE  
API         .                                    42245021130000 :API NUMBER
UWI         .                                    42245021130000 :UNIQUE WELL ID
XCOORD      .                                  1317150.22331494 :SURFACE X 
YCOORD      .                                   10814678.490982 :SURFACE Y 
LAT         .                                        29.7949472 :LATITUDE  
LON         .                                       -94.0194715 :LONGITUDE 
ELEV        .FT                                              18 :ELEVATION VALUE
ELEV_TYPE   .                                                DF :ELEVATION REFERENCE TYPE
~Curve Information Section
#MNEM       .UNIT                                      API CODE :CURVE DESCRIPTION
#------------------------------------------------------------------------------
DEPT        .FT                                                 :DEPTH     
SN          .OHMM                                               :          
SP          .MV                                                 :          
SP_NORM     .MV                                                 :SP Normalized
VSH_SP      .V/V                                                :Volume of Shale from SP
~A        DEPTH             SN             SP        SP_NORM         VSH_SP
# ...
      7275.0000         0.6432       -43.9366      -5.207767      0.9390179
      7275.5000         0.6302       -42.4032      -3.670471      0.9612975
      7276.0000         0.6254       -41.6398      -2.903183      0.9724177
      7276.5000         0.6341       -41.2123       -2.47179      0.9786697
      7277.0000         0.6427       -41.1026      -2.358196       0.980316
      7277.5000         0.6513       -41.1275      -2.379204      0.9800115
      7278.0000         0.6599       -41.1523      -2.400116      0.9797085
      7278.5000         0.6703       -41.2816       -2.52552       0.977891
      7279.0000         0.6836       -41.5124       -2.75243      0.9746025
      7279.5000         0.6969       -41.8678      -3.103939      0.9695081
      7280.0000         0.7102       -42.9732      -4.205444      0.9535443
      7280.5000         0.7235       -45.3539      -6.582253      0.9190978
      7281.0000         0.7103       -48.8277      -10.05216      0.8688092
      7281.5000         0.6896       -50.8306      -12.05117      0.8398381
      7282.0000         0.6689       -52.8335      -14.05017       0.810867
      7282.5000         0.6482       -54.8542      -16.06698       0.781638
      7283.0000         0.6275       -56.8751      -18.08399      0.7524059
      7283.5000         0.6068       -59.6871       -20.8921      0.7117087
      7284.0000         0.5794       -64.2607       -25.4618      0.6454811
      7284.5000         0.5506       -68.0966      -29.29382      0.5899447
      7285.0000         0.5217       -70.5332      -31.72652       0.554688
      7285.5000         0.4928       -73.2246      -34.41403      0.5157387
      7286.0000         0.4639       -78.2631      -39.44864      0.4427734
      7286.5000          0.435       -88.5637      -49.74534      0.2935458
      7287.0000         0.4123       -96.5575      -57.73526      0.1777499
      7287.5000         0.3926       -95.9226      -57.09646      0.1870078
      7288.0000          0.373       -94.8698      -56.03976      0.2023223
      7288.5000         0.3534       -93.4659      -54.63197       0.222725
      7289.0000         0.3338       -92.0643      -53.22648      0.2430945
      7289.5000          0.317       -90.8092      -51.96749      0.2613408
      7290.0000         0.3069       -90.2582       -51.4126      0.2693826
      7290.5000         0.2969       -90.7661       -51.9166      0.2620782
      7291.0000         0.2868       -91.2747      -52.42131      0.2547636
      7291.5000         0.2782       -91.7832      -52.92593      0.2474504
      7292.0000          0.273       -92.2258      -53.36463      0.2410924
      7292.5000         0.2677       -92.5198      -53.65474      0.2368879
      7293.0000         0.2625       -92.0704      -53.20144      0.2434573
      7293.5000         0.2584       -91.6212      -52.74835      0.2500239
      7294.0000         0.2628       -91.1719      -52.29516      0.2565919
      7294.5000         0.2673       -90.7225      -51.84187      0.2631613
      7295.0000         0.2717       -90.2816      -51.39708      0.2696076
      7295.5000         0.2762       -89.8463      -50.95788      0.2759727
      7296.0000         0.2794       -90.0295       -51.1372       0.273374
      7296.5000         0.2801       -90.3906       -51.4944      0.2681971
      7297.0000         0.2809       -90.9421      -52.04201      0.2602608
      7297.5000         0.2816       -91.6318      -52.72781      0.2503215
      7298.0000         0.2823       -92.3158      -53.40792      0.2404649
      7298.5000         0.2795       -92.9808      -54.06903      0.2308837
      7299.0000         0.2755       -93.6448      -54.72914      0.2213168
      7299.5000         0.2715       -94.3612      -55.44164      0.2109907
      7300.0000         0.3102       -94.9419      -56.01846      0.2026311
      7300.5000          0.308       -96.0459      -57.11856      0.1866875
      7301.0000         0.3051       -97.2133      -58.28207      0.1698251
      7301.5000         0.3019       -98.3651      -59.42997      0.1531888
      7302.0000         0.2988       -99.7373      -60.79828      0.1333582
      7302.5000         0.2962      -101.4066      -62.46369      0.1092219
      7303.0000         0.2961      -103.5033       -64.5565     0.07889125
      7303.5000          0.296      -106.0273      -67.07661     0.04236802
      7304.0000         0.2958      -107.7991      -68.84451     0.01674619
      7304.5000         0.2913      -109.3015      -70.34302              0
      7305.0000         0.2846       -110.421      -71.45863              0
      7305.5000         0.2779      -111.4594      -72.49313              0
      7306.0000         0.2711      -112.5511      -73.58095              0
      7306.5000         0.2634      -113.8209      -74.84686              0
      7307.0000         0.2534      -114.9004      -75.92245              0
      7307.5000         0.2435      -115.9121      -76.93027              0
      7308.0000         0.2335      -116.8252      -77.83948              0
      7308.5000         0.2235      -116.8569      -77.86729              0
      7309.0000         0.2169      -115.1842      -76.19069              0
      7309.5000         0.2128      -112.0548       -73.0574              0
      7310.0000         0.2086       -109.424      -70.42271              0
      7310.5000         0.2046      -110.1439      -71.13872              0
      7311.0000         0.2081      -110.9586      -71.94952              0
      7311.5000         0.2115      -112.0381      -73.02513              0
      7312.0000          0.215      -113.1176      -74.10074              0
      7312.5000         0.2185      -113.8783      -74.85755              0
      7313.0000         0.2225       -114.108      -75.08336              0
      7313.5000         0.2329      -112.6958      -73.66727              0
      7314.0000         0.2432      -106.8019      -67.76947     0.03232652
      7314.5000         0.2536      -102.1589      -63.12257     0.09967284
      7315.0000         0.2639       -99.2275      -60.18729      0.1422132
      7315.5000         0.2743        -96.688       -57.6439      0.1790739
      7316.0000         0.2846       -93.6298       -54.5818      0.2234522
      7316.5000         0.2918       -89.5922      -50.54031      0.2820245
      7317.0000         0.2988       -86.1422      -47.08641       0.332081
      7317.5000         0.3058       -83.2977      -44.23802       0.373362
      7318.0000         0.3127       -80.9606      -41.89703      0.4072894
      7318.5000         0.3197       -83.4668      -44.39934      0.3710241
      7319.0000         0.3267       -87.5089      -48.43755      0.3124993
      7319.5000         0.3298       -92.0673      -52.99205       0.246492
      7320.0000         0.3273       -92.9042      -53.82506      0.2344194
      7320.5000         0.3248       -89.3429      -50.25987      0.2860888
      7321.0000         0.3223       -86.4049      -47.31798       0.328725
      7321.5000         0.3198       -89.2004      -50.10959      0.2882668
      7322.0000         0.3174       -92.6058      -53.51109      0.2389697
      7322.5000         0.3132      -102.6353       -63.5367     0.09367099
      7323.0000         0.3051      -110.2163      -71.11382              0
      7323.5000          0.297      -113.3591      -74.25272              0
      7324.0000         0.2889      -114.5967      -75.48643              0
      7324.5000         0.2808      -112.9851      -73.87093              0
      7325.0000         0.2734      -110.9197      -71.80164              0
      7325.5000         0.2675      -107.2871      -68.16515     0.02659209
      7326.0000         0.2616       -103.254      -64.12816     0.08509915
      7326.5000         0.2557       -100.069      -60.93926       0.131315
      7327.0000         0.2498        -98.028      -58.89437      0.1609511
      7327.5000         0.2449       -96.1427      -57.00518      0.1883307
