#------------------------------------------------------------------------------
# Created by    : vladimir.rabinovich
# Created on    : 09/19/2023 17:20:58
#------------------------------------------------------------------------------
~Version Information Section
VERS.           2.0     :   CWLS log ASCII Standard - VERSION 2.0
WRAP.           NO      :   One line per depth step
~Well Information Section
#MNEM       .UNIT                                         VALUE :DESCRIPTION
#------------------------------------------------------------------------------
STRT        .FT                                            1876 :START DEPTH
STOP        .FT                                            8575 :STOP DEPTH
STEP        .FT                                             0.5 :STEP      
NULL        .                                           -999.25 :NULL      
COMP        .                                      L G D C CORP :COMPANY   
WELL        .                                          GARTH CO :WELL      
FLD         .                                       CHEEK SOUTH :FIELD     
LOC         .                                                   :LOCATION  
CNTY        .                                         JEFFERSON :LOCATION  
STAT        .                                             TEXAS :STATE     
CTRY        .                                     UNITED STATES :COUNTRY   
SRVC        .                                                   :SERVICE COMPANY
DATE        .                             9/13/2023 11:18:46 AM :LOG DATE  
API         .                                    42245322600000 :API NUMBER
UWI         .                                    42245322600000 :UNIQUE WELL ID
XCOORD      .                                  1261779.14844878 :SURFACE X 
YCOORD      .                                  10885364.2183051 :SURFACE Y 
LAT         .                                        29.9878888 :LATITUDE  
LON         .                                       -94.1963831 :LONGITUDE 
ELEV        .FT                                            39.9 :ELEVATION VALUE
ELEV_TYPE   .                                                KB :ELEVATION REFERENCE TYPE
~Curve Information Section
#MNEM       .UNIT                                      API CODE :CURVE DESCRIPTION
#------------------------------------------------------------------------------
DEPT        .FT                                                 :DEPTH     
AT10        .OHMM                                               :          
AT30        .OHMM                                               :          
AT60        .OHMM                                               :          
AT90        .OHMM                                               :          
DCAL        .IN                                                 :          
DPSS        .V/V                                                :          
DRHO        .G/CM3                                              :          
GR          .GAPI                                               :          
GR_NORM     .GAPI                                               :GammaRay Normalized
NPSS        .V/V                                                :Neutron Porosity Sandstone
SP          .MV                                                 :          
SP_NORM     .MV                                                 :SP Normalized
TENS        .LB                                                 :          
VSH_GR      .V/V                                                :Volume of Shale from GR
VSH_SP      .V/V                                                :Volume of Shale from SP
~A        DEPTH           AT10           AT30           AT60           AT90           DCAL           DPSS           DRHO             GR        GR_NORM           NPSS             SP        SP_NORM           TENS         VSH_GR         VSH_SP
# ...
      6398.0000         0.5305            0.6         0.6056         0.6171           2.24         0.2382          0.002          97.05       91.89461         0.4392          -40.4     -0.9113426           3060              1              1
      6398.5000         0.5354         0.5838         0.5919         0.6028           2.24         0.2394          0.002          100.5       95.94547         0.4416          -40.4     -0.9103317           3060              1              1
      6399.0000         0.5281         0.5812         0.5892            0.6           2.24         0.2328          0.004          100.8       96.20384          0.459          -40.2     -0.7093239           3040              1              1
      6399.5000         0.5162         0.5785         0.5865         0.5973            2.1         0.2292         0.0061         100.65       95.92042          0.468          -40.2      -0.708313           3020              1              1
      6400.0000         0.5069         0.5785         0.5865         0.5973           2.02         0.2322         0.0041         100.95       96.17877         0.4602          -40.2     -0.7073059           3040              1              1
      6400.5000         0.5139         0.5812         0.5892            0.6           2.06          0.237          0.003         101.55       96.79833         0.4434            -41      -1.506298           3040              1       0.992869
      6401.0000         0.5257         0.5812         0.5892            0.6           2.16         0.2364         0.0061           99.9       94.70895          0.447          -41.6      -2.105286           3080              1      0.9844326
      6401.5000         0.5305         0.5812         0.5892            0.6           2.36         0.2292         0.0102           94.5       88.10467         0.4608          -41.6      -2.104279           3060              1      0.9844468
      6402.0000         0.5305         0.5785         0.5865         0.5973           2.42          0.225         0.0122          88.65        80.9586          0.474          -41.6      -2.103268           3060              1       0.984461
      6402.5000         0.5209         0.5655         0.5733         0.5838           2.38         0.2292         0.0102          87.15       79.04981         0.4758          -40.8      -1.302261           3080      0.9797832      0.9957428
      6403.0000         0.5069         0.5527         0.5603         0.5707            2.3         0.2382         0.0061          89.25       81.50497          0.471          -40.2      -0.701252           3080              1              1
      6403.5000         0.5046         0.5502         0.5578         0.5681           2.24         0.2436         0.0031          92.55       85.47807         0.4626            -40     -0.5002441           3080              1              1
      6404.0000         0.5046         0.5527         0.5603         0.5707           2.18         0.2466          0.001          95.85       89.45117         0.4488          -39.8     -0.2992363           3040              1              1
      6404.5000         0.5186         0.5629         0.5707         0.5812           2.14          0.249              0           99.9       94.32727         0.4338          -39.8     -0.2982254           3040              1              1
      6405.0000         0.5329         0.5733         0.5812         0.5919           2.08         0.2466          0.001         102.15        97.0362          0.429            -40     -0.4972191           3040              1              1
      6405.5000         0.5452         0.5733         0.5812         0.5919           2.08           0.24          0.003          100.5       95.04965          0.435          -40.6      -1.096207           3040              1      0.9986449
      6406.0000         0.5403         0.5733         0.5812         0.5919           2.08         0.2376          0.003           98.4       92.52132         0.4416          -41.4      -1.895203           3040              1      0.9873915
      6406.5000         0.5403         0.5759         0.5838         0.5946           2.06         0.2382          0.003          96.75       90.53476          0.435          -41.6      -2.094193           3060              1      0.9845889
      6407.0000         0.5428         0.5759         0.5838         0.5946           2.06         0.2394          0.002           95.7       89.27058         0.4074          -41.8      -2.295506           3060              1      0.9817535
      6407.5000         0.5502         0.5838         0.5919         0.6028           2.02          0.243          0.002           92.7       85.65867         0.3852            -42      -2.498135           3080              1      0.9788995
      6408.0000         0.5655         0.5973         0.6056         0.6171              2         0.2472          0.002           88.2       80.24079         0.3648            -42      -2.500759           3080              1      0.9788625
      6408.5000         0.5812         0.6113         0.6199         0.6316              2         0.2496          0.002           84.3       75.54531         0.3558          -43.6      -4.103386           3060      0.9052194      0.9562904
      6409.0000         0.5865         0.6113         0.6199         0.6316           1.98         0.2448          0.002             84       75.18411          0.372          -44.4      -4.906017           3080      0.8975343      0.9449857
      6409.5000         0.5892         0.6085         0.6171         0.6287           1.98         0.2346          0.003          83.55       74.64233         0.3822          -44.6      -5.108643           3060      0.8860071      0.9421318
      6410.0000         0.6199         0.6113         0.6199         0.6316           2.06         0.2286          0.003          82.95       73.91993         0.3696          -44.8      -5.311268           3080      0.8706368      0.9392779
      6410.5000         0.6405         0.6466         0.6618         0.6743           2.22         0.2244          0.003           82.5       73.37815         0.3588            -45      -5.513897           3120      0.8591096       0.936424
      6411.0000         0.6496         0.6807         0.6903         0.7032           2.26         0.2274          0.003          83.85       75.00352         0.3678          -44.4      -4.916527           3120      0.8936918      0.9448376
      6411.5000         0.6466         0.6807         0.6903         0.7032           2.22         0.2328          0.001           85.5       76.99007         0.3702          -43.8      -4.319153           3080      0.9359589      0.9532514
      6412.0000         0.6405         0.6743         0.6838         0.6967           2.18         0.2382              0           87.6       79.51841           0.36          -43.2      -3.721779           3080      0.9897534      0.9616651
      6412.5000         0.6258         0.6557         0.6649         0.6775           2.14         0.2382              0          88.35       80.42139          0.369          -43.2      -3.724407           3080              1      0.9616281
      6413.0000         0.6056         0.6376         0.6466         0.6588           2.16         0.2334          0.001          88.95       81.14377         0.3852          -43.2      -3.727036           3080              1      0.9615911
      6413.5000         0.5865         0.6171         0.6258         0.6376           2.18         0.2262          0.002           90.9       83.49152         0.3924          -43.4      -3.929665           3060              1      0.9587371
      6414.0000         0.5759         0.6113         0.6199         0.6316           2.22         0.2226          0.006          92.85       85.83927          0.399          -42.8      -3.332287           3040              1      0.9671509
      6414.5000         0.5707         0.6056         0.6142         0.6258           2.22         0.2274          0.007          93.15       86.20045          0.405          -42.8      -3.334915           3040              1      0.9671139
