#------------------------------------------------------------------------------
# Created by    : vladimir.rabinovich
# Created on    : 09/19/2023 17:22:02
#------------------------------------------------------------------------------
~Version Information Section
VERS.           2.0     :   CWLS log ASCII Standard - VERSION 2.0
WRAP.           NO      :   One line per depth step
~Well Information Section
#MNEM       .UNIT                                         VALUE :DESCRIPTION
#------------------------------------------------------------------------------
STRT        .FT                                          2944.5 :START DEPTH
STOP        .FT                                           12030 :STOP DEPTH
STEP        .FT                                             0.5 :STEP      
NULL        .                                           -999.25 :NULL      
COMP        .                                  SAMEDAN OIL CORP :COMPANY   
WELL        .                                         ROBERTSON :WELL      
FLD         .                                     HAMSHIRE WEST :FIELD     
LOC         .                                                   :LOCATION  
CNTY        .                                         JEFFERSON :LOCATION  
STAT        .                                             TEXAS :STATE     
CTRY        .                                     UNITED STATES :COUNTRY   
SRVC        .                                                   :SERVICE COMPANY
DATE        .                             9/13/2023 11:18:46 AM :LOG DATE  
API         .                                    42245321120000 :API NUMBER
UWI         .                                    42245321120000 :UNIQUE WELL ID
XCOORD      .                                  1214919.43989532 :SURFACE X 
YCOORD      .                                  10839736.7579652 :SURFACE Y 
LAT         .                                        29.8609813 :LATITUDE  
LON         .                                       -94.3427285 :LONGITUDE 
ELEV        .FT                                              38 :ELEVATION VALUE
ELEV_TYPE   .                                                KB :ELEVATION REFERENCE TYPE
~Curve Information Section
#MNEM       .UNIT                                      API CODE :CURVE DESCRIPTION
#------------------------------------------------------------------------------
DEPT        .FT                                                 :DEPTH     
CALI        .IN                                                 :          
DPSS        .%                                                  :          
DRHO        .G/CM3                                              :          
GR          .GAPI                                               :          
GR_NORM     .GAPI                                               :GammaRay Normalized
ILD         .OHMM                                               :          
ILM         .OHMM                                               :          
NPSS        .%                                                  :Neutron Porosity Sandstone
SGRD        .OHMM                                               :          
SP          .MV                                                 :          
SP_NORM     .MV                                                 :SP Normalized
TENS        .LB                                                 :          
VSH_GR      .V/V                                                :Volume of Shale from GR
VSH_SP      .V/V                                                :Volume of Shale from SP
~A        DEPTH           CALI           DPSS           DRHO             GR        GR_NORM            ILD            ILM           NPSS           SGRD             SP        SP_NORM           TENS         VSH_GR         VSH_SP
# ...
      3592.5000        -999.25        -999.25        -999.25        50.0495       57.51665         0.4457         0.5157        -999.25           1.28      -130.2923      -56.90808       1626.263      0.5216309      0.2923028
      3593.0000        -999.25        -999.25        -999.25        61.6455       74.67281         0.5179         0.5752        -999.25         1.2564      -116.2428      -42.86352       1646.465      0.8866556       0.470082
      3593.5000        -999.25        -999.25        -999.25        70.7648       88.16094         0.6336         0.6733        -999.25         1.2735       -99.3706      -25.99625       1646.465              1      0.6835917
      3594.0000        -999.25        -999.25        -999.25        75.8351        95.6525         0.7913         0.8169        -999.25         1.3453       -90.6165      -17.24709       1606.061              1      0.7943407
      3594.5000        -999.25        -999.25        -999.25        78.2039       99.14312         0.9665         0.9799        -999.25         1.4409       -79.0682       -5.70372       1545.454              1      0.9404593
      3595.0000        -999.25        -999.25        -999.25        74.1823        93.1695         1.1825         1.1451        -999.25         1.4944       -76.2894      -2.929855       1545.454              1      0.9755715
      3595.5000        -999.25        -999.25        -999.25        70.4449        88.8869         1.4535           1.32        -999.25         1.5148       -74.5079      -1.153282       1585.859              1      0.9980597
      3596.0000        -999.25        -999.25        -999.25        66.8604       83.98656         1.5783         1.5355        -999.25         1.5355        -72.526      0.8236771       1606.061              1              1
      3596.5000        -999.25        -999.25        -999.25         62.236       77.66927         1.6521         1.6597        -999.25         1.5564       -72.5348      0.8099518       1666.667      0.9504099              1
      3597.0000        -999.25        -999.25        -999.25        58.5149       72.58281         1.6442         1.6593        -999.25         1.5777       -72.7429      0.5969162       1606.061      0.8421875              1
      3597.5000        -999.25        -999.25        -999.25         55.396       68.31686         1.5773         1.6363        -999.25         1.5918       -73.3502    -0.01531982       1585.859      0.7514226              1
      3598.0000        -999.25        -999.25        -999.25        51.0891       62.43221         1.5062         1.6061        -999.25         1.6135       -74.7563      -1.426353       1585.859      0.6262172      0.9946031
      3598.5000        -999.25        -999.25        -999.25         50.198       61.20181         1.4717         1.5838        -999.25         1.6506       -75.3628      -2.037788       1565.657      0.6000386      0.9868634
      3599.0000        -999.25        -999.25        -999.25        49.4554       60.17377         1.4917         1.5618        -999.25         1.6731       -76.3639      -3.043823       1626.263      0.5781652      0.9741288
      3599.5000        -999.25        -999.25        -999.25        50.3465       61.37176         1.5121         1.5758        -999.25         1.7037       -76.5705      -3.255356       1626.263      0.6036544      0.9714512
      3600.0000        -999.25        -999.25        -999.25        57.4752       71.06898         1.5755         1.6047        -999.25         1.7349       -75.9854      -2.675186       1606.061      0.8099782      0.9787951
      3600.5000        -999.25        -999.25        -999.25        66.5326       83.39417         1.6493         1.6493        -999.25         1.7832            -75      -1.694717       1606.566              1      0.9912061
      3601.0000        -999.25        -999.25        -999.25         70.244       88.43505         1.7189         1.7268        -999.25         1.8246            -74     -0.6996536       1587.374              1              1
      3601.5000        -999.25        -999.25        -999.25        63.4015       79.09541         1.7996         1.8079        -999.25         1.8669          -72.8      0.4954071       1588.384      0.9807535              1
      3602.0000        -999.25        -999.25        -999.25        53.1423       65.10027         1.8928         1.8928        -999.25         1.9191          -73.2     0.09048462       1569.192      0.6829845              1
      3602.5000        -999.25        -999.25        -999.25         44.367       53.12708         1.9457         1.9817        -999.25         1.9368          -73.2      0.0855484       1570.202      0.4282358              1
      3603.0000        -999.25        -999.25        -999.25        43.3128       51.67446              2         2.0466        -999.25         1.9368          -73.6     -0.3193893        1551.01       0.397329              1
      3603.5000        -999.25        -999.25        -999.25        47.7735        57.7363         2.0185         2.0751        -999.25         1.9368          -74.2     -0.9243164       1572.222      0.5263043              1
      3604.0000        -999.25        -999.25        -999.25         56.677        69.8518         1.9015         2.0561        -999.25         1.8928        -75.396      -2.125259       1593.434      0.7840808      0.9857562
      3604.5000        -999.25        -999.25        -999.25        66.6479       83.42174         1.7996         1.9368        -999.25         1.7996       -76.3861      -3.120293       1614.646              1      0.9731609
      3605.0000        -999.25        -999.25        -999.25        74.8508        94.5826         1.7032         1.8162        -999.25         1.7032       -78.1683      -4.907417       1615.657              1       0.950539
      3605.5000        -999.25        -999.25        -999.25        77.3762       98.00745         1.6193          1.711        -999.25         1.5971       -79.5545      -6.298553       1576.263              1      0.9329297
      3606.0000        -999.25        -999.25        -999.25        66.7848       83.55969         1.5396         1.6045        -999.25         1.5466       -77.5743      -4.323288       1577.273              1      0.9579331
      3606.5000        -999.25        -999.25        -999.25        57.5309       70.93434         1.4909         1.5185        -999.25         1.5325            -75      -1.753922       1578.283      0.8071136      0.9904567
      3607.0000        -999.25        -999.25        -999.25        60.7961       75.36723          1.457          1.484        -999.25         1.5325          -73.8     -0.5588608       1599.495      0.9014303              1
      3607.5000        -999.25        -999.25        -999.25        64.5287         80.437          1.424         1.4437        -999.25         1.5325            -72       1.236214       1600.505              1              1
      3608.0000        -999.25        -999.25        -999.25         60.333       74.70383          1.411         1.4175        -999.25         1.5325          -71.6       1.631279       1601.515      0.8873156              1
      3608.5000        -999.25        -999.25        -999.25        52.8973       64.55595         1.3917         1.4045        -999.25         1.5255            -71       2.226341       1602.525      0.6714031              1
      3609.0000        -999.25        -999.25        -999.25        50.9592       61.89893         1.3853         1.3853        -999.25         1.5115          -70.8        2.42141       1603.535      0.6148709              1
      3609.5000        -999.25        -999.25        -999.25        55.2587       67.74113         1.3853         1.3726        -999.25         1.4909          -70.8       2.416473       1604.546      0.7391731              1
      3610.0000        -999.25        -999.25        -999.25        60.3037       74.59914         1.3853         1.3601        -999.25         1.4772          -71.2       2.011551       1625.758       0.885088              1
