#------------------------------------------------------------------------------
# Created by    : vladimir.rabinovich
# Created on    : 09/19/2023 17:22:42
#------------------------------------------------------------------------------
~Version Information Section
VERS.           2.0     :   CWLS log ASCII Standard - VERSION 2.0
WRAP.           NO      :   One line per depth step
~Well Information Section
#MNEM       .UNIT                                         VALUE :DESCRIPTION
#------------------------------------------------------------------------------
STRT        .FT                                             932 :START DEPTH
STOP        .FT                                            7546 :STOP DEPTH
STEP        .FT                                             0.5 :STEP      
NULL        .                                           -999.25 :NULL      
COMP        .                   SUN EXPLORATION & PRODUCTION CO :COMPANY   
WELL        .                                BROUSSARD & HEBERT :WELL      
FLD         .                                          LA BELLE :FIELD     
LOC         .                                                   :LOCATION  
CNTY        .                                         JEFFERSON :LOCATION  
STAT        .                                             TEXAS :STATE     
CTRY        .                                     UNITED STATES :COUNTRY   
SRVC        .                                                   :SERVICE COMPANY
DATE        .                             9/13/2023 11:18:46 AM :LOG DATE  
API         .                                    42245319210000 :API NUMBER
UWI         .                                    42245319210000 :UNIQUE WELL ID
XCOORD      .                                  1279394.73540744 :SURFACE X 
YCOORD      .                                  10819915.3695329 :SURFACE Y 
LAT         .                                        29.8083786 :LATITUDE  
LON         .                                       -94.1386839 :LONGITUDE 
ELEV        .FT                                              23 :ELEVATION VALUE
ELEV_TYPE   .                                                KB :ELEVATION REFERENCE TYPE
~Curve Information Section
#MNEM       .UNIT                                      API CODE :CURVE DESCRIPTION
#------------------------------------------------------------------------------
DEPT        .FT                                                 :DEPTH     
DCAL        .IN                                                 :          
DPSS        .V/V                                                :          
DRHO        .G/CM3                                              :          
GR          .GAPI                                               :          
GR_NORM     .GAPI                                               :GammaRay Normalized
ILD         .OHMM                                               :          
ILM         .OHMM                                               :          
NPSS        .V/V                                                :Neutron Porosity Sandstone
SFL         .OHMM                                               :          
SP          .MV                                                 :          
SP_NORM     .MV                                                 :SP Normalized
TENS        .LB                                                 :          
VSH_GR      .V/V                                                :Volume of Shale from GR
VSH_SP      .V/V                                                :Volume of Shale from SP
~A        DEPTH           DCAL           DPSS           DRHO             GR        GR_NORM            ILD            ILM           NPSS            SFL             SP        SP_NORM           TENS         VSH_GR         VSH_SP
# ...
      7070.0000          -2.88         0.3164         0.0088        73.9604       63.28039         0.3142          0.389         0.4074         0.5603       -44.0816      -43.54776       3919.192      0.6442636      0.4250303
      7070.5000          -2.88         0.3539         0.0167        67.2772        55.0576         0.3216         0.3963         0.4321         0.5946       -52.0408      -51.50812       3919.192      0.4693107      0.3174578
      7071.0000          -2.88         0.4176         0.0167        60.5941       46.83493         0.3322         0.3907         0.4588         0.6364       -58.3673      -57.83578       3919.192      0.2943603      0.2319489
      7071.5000          -2.88         0.4576         0.0118        53.4848       38.08799         0.3306         0.3799         0.4552          0.713       -63.9604      -63.43005       3919.192       0.108255      0.1563506
      7072.0000          -2.88         0.4636         0.0078        49.5455       33.24047         0.2986         0.3511         0.4442         0.7711       -67.9208      -67.39162       3919.192    0.005116402       0.102816
      7072.5000          -2.88         0.4406         0.0039        49.2424       32.86585         0.2726          0.323         0.4406         0.8109        -70.495      -69.96699       3919.192              0     0.06801368
      7073.0000          -2.88          0.411         0.0029        51.6667        35.8462         0.2466         0.2973         0.4412         0.8601       -72.6733      -72.14645       3919.192     0.06055735     0.03856143
      7073.5000          -2.88         0.3786          0.002        53.6364       38.26735         0.2231         0.2751         0.4418         0.9336       -74.4554      -73.92972       3919.192      0.1120713     0.01446327
      7074.0000          -2.88         0.3461          0.001        52.8788       37.33364            0.2         0.2558         0.4376         0.9909       -75.6436      -75.11908       3919.192     0.09220513              0
      7074.5000          -2.88         0.3321          0.001        50.7576       34.72257         0.1991         0.2356         0.4164         0.9774       -76.0396      -75.51624       3919.192     0.03665048              0
      7075.0000          -2.88           0.32          0.001        49.8485        33.6025            0.2         0.2191         0.4098         0.8798       -75.4455      -74.92332       3919.192     0.01281917    0.001036257
      7075.5000          -2.88         0.3236          0.001        49.2424       32.85516            0.2         0.2084          0.402         0.7364       -73.4653      -72.94428       3919.192              0     0.02777997
      7076.0000          -2.88         0.3321         0.0069        48.7879       32.29429            0.2         0.2084         0.3924         0.6335       -71.6832      -71.16334       3919.192              0     0.05184679
      7076.5000          -2.88         0.3473         0.0225        48.9394       32.47887            0.2         0.2084         0.3882         0.5809       -69.3069      -68.78821       3919.192              0     0.08394314
      7077.0000          -2.88         0.3479         0.0363        50.4545       34.34082            0.2         0.2122         0.3948         0.5418       -66.9307      -66.41318       3919.192     0.02852801      0.1160381
      7077.5000          -2.88         0.3382         0.0471        52.5758       36.94846            0.2         0.2272         0.4056          0.522       -64.1584      -63.64204       3919.192      0.0840097      0.1534859
      7078.0000          -2.88         0.3279          0.051        54.5455        39.3696         0.2161         0.2444          0.414         0.5317       -61.5842      -61.06901       3919.192      0.1355235      0.1882567
      7078.5000          -2.88          0.323         0.0549        54.0909       38.80861         0.2455         0.2665         0.4182         0.5835       -59.7959      -59.28187       3919.192      0.1235874      0.2124072
      7079.0000          -2.88         0.3303         0.0559        52.1212        36.3839         0.2827         0.2815         0.4248         0.6335       -58.5714      -58.05854       3919.192     0.07199778      0.2289387
      7079.5000          -2.88         0.3382         0.0471             50       33.77282         0.2973         0.2973         0.4376          0.611       -57.3469      -56.83521       3919.192     0.01644305      0.2454702
      7080.0000          -2.86         0.3424         0.0265        48.7879       32.28003          0.314         0.3198         0.4424         0.5673       -56.7347      -56.22417       3919.192              0      0.2537275
      7080.5000          -2.82         0.3424         0.0059        49.5455       33.21019         0.3227         0.3272         0.4358         0.5239       -57.1429      -56.63353       3919.192    0.004472124      0.2481955
      7081.0000          -2.78         0.3448         -0.002        51.3636       35.44485          0.314         0.3242         0.4261         0.5094       -58.5714       -58.0632       3919.192     0.05201811      0.2288757
      7081.5000          -2.72         0.3515         0.0029        53.1818       37.67964            0.3         0.3097         0.4352         0.5166       -60.7921      -60.28506       3919.192     0.09956677      0.1988505
      7082.0000          -2.72         0.3576         0.0088        54.0909       38.79614         0.2776         0.2906         0.4467         0.5289       -63.9604      -63.45453       3919.192      0.1233221      0.1560199
      7082.5000           -2.7          0.363         0.0127        53.0303       37.48971         0.2546         0.2689          0.443         0.5388       -67.1287      -66.62399       3919.192      0.0955257      0.1131893
      7083.0000          -2.66         0.3672         0.0127        51.9697       36.18328           0.24         0.2512         0.4056         0.5363       -69.1089      -68.60536       3919.192     0.06772938     0.08641402
      7083.5000           -2.7         0.3678         0.0118        51.3636       35.43594         0.2241         0.2389         0.3678         0.5313        -69.901      -69.39863       3919.192     0.05182843     0.07569421
      7084.0000          -2.74         0.3708         0.0118        51.6667         35.807         0.2191         0.2303         0.3582         0.5239       -68.9109      -68.40969       3919.192     0.05972347     0.08905824
      7084.5000          -2.78         0.3852         0.0157        52.2727       36.55066         0.2132         0.2282         0.3576         0.4955       -67.5248      -67.02476       3919.192     0.07554602      0.1077735
      7085.0000          -2.82          0.399         0.0186        51.5152       35.61708         0.2084         0.2293         0.3786         0.4565       -66.9307      -66.43182       3919.192     0.05568265      0.1157862
      7085.5000          -2.84         0.4158         0.0186             50       33.75144         0.2046         0.2356         0.3924         0.4362       -67.5248      -67.02709       3919.192     0.01598813       0.107742
      7086.0000          -2.88           0.42         0.0167        49.3939        33.0041         0.2018         0.2367          0.402         0.4606       -69.3069      -68.81036       3919.192  0.00008725106     0.08364384
      7086.5000          -2.88         0.4014         0.0147             50       33.74788         0.2009         0.2346         0.3894          0.491       -70.6931      -70.19772       3919.192     0.01591232     0.06489573
      7087.0000          -2.88         0.3798         0.0147        50.7576       34.67803         0.2009         0.2324         0.3726         0.5071       -71.8812      -71.38699       3919.192     0.03570272     0.04882452
      7087.5000          -2.88         0.3606         0.0167        50.1515       33.93068         0.2028         0.2314         0.3564         0.5264       -72.4752      -71.98215       3919.192     0.01980177      0.0407818
