#------------------------------------------------------------------------------
# Created by    : vladimir.rabinovich
# Created on    : 09/19/2023 17:22:42
#------------------------------------------------------------------------------
~Version Information Section
VERS.           2.0     :   CWLS log ASCII Standard - VERSION 2.0
WRAP.           NO      :   One line per depth step
~Well Information Section
#MNEM       .UNIT                                         VALUE :DESCRIPTION
#------------------------------------------------------------------------------
STRT        .FT                                             932 :START DEPTH
STOP        .FT                                            7546 :STOP DEPTH
STEP        .FT                                             0.5 :STEP      
NULL        .                                           -999.25 :NULL      
COMP        .                   SUN EXPLORATION & PRODUCTION CO :COMPANY   
WELL        .                                BROUSSARD & HEBERT :WELL      
FLD         .                                          LA BELLE :FIELD     
LOC         .                                                   :LOCATION  
CNTY        .                                         JEFFERSON :LOCATION  
STAT        .                                             TEXAS :STATE     
CTRY        .                                     UNITED STATES :COUNTRY   
SRVC        .                                                   :SERVICE COMPANY
DATE        .                             9/13/2023 11:18:46 AM :LOG DATE  
API         .                                    42245319210000 :API NUMBER
UWI         .                                    42245319210000 :UNIQUE WELL ID
XCOORD      .                                  1279394.73540744 :SURFACE X 
YCOORD      .                                  10819915.3695329 :SURFACE Y 
LAT         .                                        29.8083786 :LATITUDE  
LON         .                                       -94.1386839 :LONGITUDE 
ELEV        .FT                                              23 :ELEVATION VALUE
ELEV_TYPE   .                                                KB :ELEVATION REFERENCE TYPE
~Curve Information Section
#MNEM       .UNIT                                      API CODE :CURVE DESCRIPTION
#------------------------------------------------------------------------------
DEPT        .FT                                                 :DEPTH     
DCAL        .IN                                                 :          
DPSS        .V/V                                                :          
DRHO        .G/CM3                                              :          
GR          .GAPI                                               :          
GR_NORM     .GAPI                                               :GammaRay Normalized
ILD         .OHMM                                               :          
ILM         .OHMM                                               :          
NPSS        .V/V                                                :Neutron Porosity Sandstone
SFL         .OHMM                                               :          
SP          .MV                                                 :          
SP_NORM     .MV                                                 :SP Normalized
TENS        .LB                                                 :          
VSH_GR      .V/V                                                :Volume of Shale from GR
VSH_SP      .V/V                                                :Volume of Shale from SP
~A        DEPTH           DCAL           DPSS           DRHO             GR        GR_NORM            ILD            ILM           NPSS            SFL             SP        SP_NORM           TENS         VSH_GR         VSH_SP
# ...
      1886.0000        -999.25        -999.25        -999.25        47.5758       58.90406         0.4381         0.5354        -999.25         0.7963       -44.0816      -19.38272       1949.495      0.5511502      0.6248423
      1886.5000        -999.25        -999.25        -999.25        48.7879       60.21936         0.4843         0.5812        -999.25          0.789          -39.6      -14.89336       1949.495      0.5791353      0.7164621
      1887.0000        -999.25        -999.25        -999.25        52.7273         64.499         0.5527         0.6287        -999.25         0.8036          -36.2      -11.48559       1919.192      0.6701915      0.7860084
      1887.5000        -999.25        -999.25        -999.25        58.4848       70.75478         0.6228          0.687        -999.25         0.8183            -34      -9.277822       1919.192      0.8032931      0.8310648
      1888.0000        -999.25        -999.25        -999.25        64.1584       76.91937            0.7         0.7535        -999.25         0.8409            -33      -8.270056       1919.192      0.9344547      0.8516315
      1888.5000        -999.25        -999.25        -999.25         69.802       83.05135         0.7927         0.8333        -999.25         0.8759          -32.4      -7.662291       1919.192              1      0.8640349
      1889.0000        -999.25        -999.25        -999.25        71.8812       85.30912         0.8759         0.9125        -999.25         0.9293          -32.6      -7.854519       1919.192              1      0.8601118
      1889.5000        -999.25        -999.25        -999.25         70.396       83.69267         0.9379         0.9596        -999.25         0.9909          -32.4      -7.646755       1919.192              1      0.8643519
      1890.0000        -999.25        -999.25        -999.25        67.1287       80.13924         0.9954         0.9864        -999.25         1.0518          -32.2      -7.438988       1919.192              1      0.8685921
      1890.5000        -999.25        -999.25        -999.25        62.3762       74.97153         1.0232         1.0092        -999.25         1.1012          -31.8      -7.031219       1919.465      0.8930112      0.8769139
      1891.0000        -999.25        -999.25        -999.25        59.3939       71.72786         1.0518         1.0279        -999.25         1.1012          -31.4      -6.623451       1909.818       0.823997      0.8852357
      1891.5000        -999.25        -999.25        -999.25        58.3333       70.57292         1.0664          1.047        -999.25         1.0566            -31      -6.215685       1900.161      0.7994239      0.8935574
      1892.0000        -999.25        -999.25        -999.25        59.2424       71.55889         1.0615         1.0518        -999.25              1          -30.8      -6.007917       1900.615       0.820402      0.8977976
      1892.5000        -999.25        -999.25        -999.25         59.697       72.05085         1.0374         1.0327        -999.25         0.9552            -31       -6.20015       1901.068      0.8308691      0.8938745
      1893.0000        -999.25        -999.25        -999.25        59.2424        71.5546         1.0139         1.0185        -999.25         0.9552          -31.2      -6.392384       1901.522      0.8203105      0.8899513
      1893.5000        -999.25        -999.25        -999.25        58.0303       70.23499         0.9954         0.9954        -999.25         0.9864          -31.6      -6.784616       1912.112      0.7922337      0.8819466
      1894.0000        -999.25        -999.25        -999.25        56.5152       68.58606         0.9465         0.9684        -999.25         0.9864          -32.2       -7.37685       1912.572      0.7571502      0.8698602
      1894.5000        -999.25        -999.25        -999.25        55.7576       67.76046            0.9         0.9336        -999.25         1.1063            -32      -7.169081       1923.178      0.7395843      0.8741004
      1895.0000        -999.25        -999.25        -999.25        58.6364       70.88732         0.8563         0.9041        -999.25         1.2182          -31.2      -6.361315       1923.644      0.8061132      0.8905854
      1895.5000        -999.25        -999.25        -999.25        64.7525       77.53287         0.8146         0.8601        -999.25          1.258          -29.6      -4.753548       1934.267      0.9475078       0.923397
      1896.0000        -999.25        -999.25        -999.25         70.099       83.34193         0.7711         0.8183        -999.25         1.0812          -28.2      -3.345779       1934.739              1       0.952127
      1896.5000        -999.25        -999.25        -999.25        75.4592       89.16586         0.7296         0.7782        -999.25         0.9166          -26.6      -1.738012       1945.377              1      0.9849385
      1897.0000        -999.25        -999.25        -999.25        81.2755       95.48556         0.6967         0.7364        -999.25         0.7782            -26      -1.130245       1945.856              1      0.9973419
      1897.5000        -999.25        -999.25        -999.25        88.9286       103.8017         0.6588            0.7        -999.25         0.6935            -26      -1.122478       1956.511              1      0.9975004
      1898.0000        -999.25        -999.25        -999.25           93.3       108.5509         0.6287         0.6649        -999.25         0.6466            -26       -1.11471       1956.995              1       0.997659
      1898.5000        -999.25        -999.25        -999.25          91.65       106.7553         0.6085         0.6466        -999.25         0.6199          -26.2      -1.306944        1957.48              1      0.9937358
      1899.0000        -999.25        -999.25        -999.25         85.102       99.63604         0.5865         0.6435        -999.25            0.6          -26.2      -1.299177       1957.966              1      0.9938943
      1899.5000        -999.25        -999.25        -999.25        78.9796       92.97935         0.5838         0.6435        -999.25         0.6028          -26.4      -1.491409       1958.452              1      0.9899712
      1900.0000        -999.25        -999.25        -999.25        75.9184       89.64993         0.5892         0.6435        -999.25         0.6618          -26.6      -1.683641       1958.987              1      0.9860482
      1900.5000        -999.25        -999.25        -999.25        76.6837        90.4796         0.6056         0.6435        -999.25         0.6903          -27.2      -2.275875       1959.184              1      0.9739617
      1901.0000        -999.25        -999.25        -999.25         77.449       91.30927         0.5892         0.6435        -999.25            0.6          -28.6      -3.668108       1959.184              1      0.9455488
      1901.5000        -999.25        -999.25        -999.25        76.0714       89.80978         0.5892         0.6557        -999.25            0.6          -30.8      -5.860338       1959.184              1      0.9008094
      1902.0000        -999.25        -999.25        -999.25        73.6634       87.19034         0.5892         0.6649        -999.25         0.6405            -33      -8.052572       1959.184              1        0.85607
      1902.5000        -999.25        -999.25        -999.25        69.6535       82.82977         0.6056         0.6775        -999.25         0.7782          -34.2      -9.244806       1959.184              1      0.8317387
      1903.0000        -999.25        -999.25        -999.25        67.4257       80.40617         0.6142         0.6807        -999.25         0.8959          -34.4       -9.43704       1979.592              1      0.8278155
      1903.5000        -999.25        -999.25        -999.25        68.0198       81.04976         0.6228          0.687        -999.25         0.8409            -35      -10.02927       1979.592              1      0.8157292
