#------------------------------------------------------------------------------
# Created by    : vladimir.rabinovich
# Created on    : 09/19/2023 17:22:42
#------------------------------------------------------------------------------
~Version Information Section
VERS.           2.0     :   CWLS log ASCII Standard - VERSION 2.0
WRAP.           NO      :   One line per depth step
~Well Information Section
#MNEM       .UNIT                                         VALUE :DESCRIPTION
#------------------------------------------------------------------------------
STRT        .FT                                             932 :START DEPTH
STOP        .FT                                            7546 :STOP DEPTH
STEP        .FT                                             0.5 :STEP      
NULL        .                                           -999.25 :NULL      
COMP        .                   SUN EXPLORATION & PRODUCTION CO :COMPANY   
WELL        .                                BROUSSARD & HEBERT :WELL      
FLD         .                                          LA BELLE :FIELD     
LOC         .                                                   :LOCATION  
CNTY        .                                         JEFFERSON :LOCATION  
STAT        .                                             TEXAS :STATE     
CTRY        .                                     UNITED STATES :COUNTRY   
SRVC        .                                                   :SERVICE COMPANY
DATE        .                             9/13/2023 11:18:46 AM :LOG DATE  
API         .                                    42245319210000 :API NUMBER
UWI         .                                    42245319210000 :UNIQUE WELL ID
XCOORD      .                                  1279394.73540744 :SURFACE X 
YCOORD      .                                  10819915.3695329 :SURFACE Y 
LAT         .                                        29.8083786 :LATITUDE  
LON         .                                       -94.1386839 :LONGITUDE 
ELEV        .FT                                              23 :ELEVATION VALUE
ELEV_TYPE   .                                                KB :ELEVATION REFERENCE TYPE
~Curve Information Section
#MNEM       .UNIT                                      API CODE :CURVE DESCRIPTION
#------------------------------------------------------------------------------
DEPT        .FT                                                 :DEPTH     
DCAL        .IN                                                 :          
DPSS        .V/V                                                :          
DRHO        .G/CM3                                              :          
GR          .GAPI                                               :          
GR_NORM     .GAPI                                               :GammaRay Normalized
ILD         .OHMM                                               :          
ILM         .OHMM                                               :          
NPSS        .V/V                                                :Neutron Porosity Sandstone
SFL         .OHMM                                               :          
SP          .MV                                                 :          
SP_NORM     .MV                                                 :SP Normalized
TENS        .LB                                                 :          
VSH_GR      .V/V                                                :Volume of Shale from GR
VSH_SP      .V/V                                                :Volume of Shale from SP
~A        DEPTH           DCAL           DPSS           DRHO             GR        GR_NORM            ILD            ILM           NPSS            SFL             SP        SP_NORM           TENS         VSH_GR         VSH_SP
# ...
      2318.0000        -999.25        -999.25        -999.25        54.8485        68.7429         0.9336         0.9864        -999.25         1.0327       -13.8614       4.025662       2071.429      0.7604872              1
      2318.5000        -999.25        -999.25        -999.25        58.9394       73.18465         1.0046         1.0713        -999.25         1.0518       -12.8713       5.004528       2071.429      0.8549926              1
      2319.0000        -999.25        -999.25        -999.25        60.8911       75.30127         1.0861         1.1319        -999.25         1.0762       -12.0792       5.785394       2071.429       0.900027              1
      2319.5000        -999.25        -999.25        -999.25        60.8911       75.29656         1.1797         1.1851        -999.25         1.1114       -11.2871       6.566257       2071.429      0.8999268              1
      2320.0000        -999.25        -999.25        -999.25        58.6364       72.84116         1.2754         1.2126        -999.25         1.1319        -10.495       7.347123       2081.633      0.8476843              1
      2320.5000        -999.25        -999.25        -999.25        57.1212       71.18954         1.2931         1.2126        -999.25         1.1476         -9.703       8.127887       2132.653      0.8125435              1
      2321.0000        -999.25        -999.25        -999.25        56.8182       70.85549         1.3111         1.2126        -999.25         1.1689        -9.1089       8.710752       2091.837       0.805436              1
      2321.5000        -999.25        -999.25        -999.25        57.7273        71.8389         1.3171         1.2126        -999.25         1.1906        -9.1089       8.699516       2091.837      0.8263595              1
      2322.0000        -999.25        -999.25        -999.25        59.8485       74.13973         1.3292         1.2126        -999.25         1.1961        -8.9109       8.886282       2081.633      0.8753135              1
      2322.5000        -999.25        -999.25        -999.25        63.1188       77.68957         1.3354         1.2182        -999.25         1.2016        -8.9109       8.875046       2071.429      0.9508418              1
      2323.0000        -999.25        -999.25        -999.25        65.9406       80.75191         1.2991         1.1851        -999.25         1.1529        -8.9109       8.863811       2071.429              1              1
      2323.5000        -999.25        -999.25        -999.25        66.2376       81.07001         1.2696         1.1582        -999.25         1.1012        -9.3069       8.456575       2071.429              1              1
      2324.0000        -999.25        -999.25        -999.25        64.3069       78.96677         1.2408         1.1319        -999.25         1.0518        -10.099       7.653241       2071.429      0.9780165              1
      2324.5000        -999.25        -999.25        -999.25        62.9703       77.50928         1.2126         1.1012        -999.25         1.0422       -10.6931       7.047907       2091.837       0.947006              1
      2325.0000        -999.25        -999.25        -999.25         64.604       79.28027         1.1797         1.0911        -999.25         1.0422       -11.0891       6.640671       2102.041      0.9846865              1
      2325.5000        -999.25        -999.25        -999.25        71.2871       86.53954         1.1424         1.0762        -999.25         1.0422       -11.4851       6.233437       2091.837              1              1
      2326.0000        -999.25        -999.25        -999.25        76.0714       91.73495         1.1165         1.0664        -999.25         1.0327       -11.2871         6.4202       2081.633              1              1
      2326.5000        -999.25        -999.25        -999.25         80.051       96.05573         1.0615         1.0422        -999.25         0.9954       -11.2871       6.408966       2071.429              1              1
      2327.0000        -999.25        -999.25        -999.25        75.7653       91.39281         0.9909         0.9954        -999.25         0.9465       -11.8812        5.80363       2071.429              1              1
      2327.5000        -999.25        -999.25        -999.25        73.3663       88.78058         0.9251         0.9166        -999.25         0.8798       -14.0594       3.614196       2091.837              1              1
      2328.0000        -999.25        -999.25        -999.25        74.4059       89.90582          0.864         0.8258        -999.25         0.8036       -18.2178     -0.5554409       2102.041              1              1
      2328.5000        -999.25        -999.25        -999.25        75.9184       91.54507         0.7818         0.7711        -999.25          0.733            -24      -6.348875       2091.837              1      0.9093411
      2329.0000        -999.25        -999.25        -999.25        73.0693        88.4436         0.6743         0.7163        -999.25         0.7097          -29.8      -12.16011       2091.837              1      0.8108456
      2329.5000        -999.25        -999.25        -999.25        65.6436       80.36777         0.5865         0.6681        -999.25         0.7535          -35.8      -18.17134       2091.837              1      0.7089602
      2330.0000        -999.25        -999.25        -999.25        60.1485       74.39034         0.5354         0.6199        -999.25         0.7927       -41.0204      -23.40298       2091.837      0.8806455      0.6202884
      2330.5000        -999.25        -999.25        -999.25        60.5941       74.86994         0.4955         0.5838        -999.25         0.8073       -44.4898      -26.88362       2091.837      0.8908498      0.5612947
      2331.0000        -999.25        -999.25        -999.25        61.9307         76.318          0.467         0.5578        -999.25         0.8073       -46.7347      -29.13975       2071.429      0.9216596      0.5230551
      2331.5000        -999.25        -999.25        -999.25        63.2673       77.76606         0.4381         0.5378        -999.25         0.8146       -48.1633      -30.57959       2081.633      0.9524693      0.4986511
      2332.0000        -999.25        -999.25        -999.25        64.4554        79.0527         0.4111         0.5186        -999.25         0.8371       -49.3878      -31.81532       2102.041      0.9798447      0.4777065
      2332.5000        -999.25        -999.25        -999.25        65.3465       80.01653         0.4055         0.5069        -999.25         0.8759       -49.7959      -32.23466       2122.449              1       0.470599
      2333.0000        -999.25        -999.25        -999.25        65.3465       80.01182         0.3982         0.5023        -999.25         0.9083       -48.7755      -31.22549       2122.449              1      0.4877035
      2333.5000        -999.25        -999.25        -999.25        64.1584       78.71574            0.4            0.5        -999.25         0.9041       -46.5306      -28.99183       2132.653      0.9726753      0.5255622
      2334.0000        -999.25        -999.25        -999.25        62.5248       76.93542         0.4018            0.5        -999.25          0.868       -43.6735      -26.14596       2132.653      0.9347963      0.5737973
      2334.5000        -999.25        -999.25        -999.25        60.7426       74.99361         0.4018         0.5023        -999.25         0.8146       -41.4286       -23.9123       2122.449       0.893481       0.611656
      2335.0000        -999.25        -999.25        -999.25        59.2424        73.3583         0.4018         0.5069        -999.25         0.7711       -40.4082      -22.90313       2122.449      0.8586872      0.6287605
      2335.5000        -999.25        -999.25        -999.25        57.8788       71.87147         0.4018         0.5139        -999.25         0.7535       -40.8163      -23.32247       2102.041      0.8270525      0.6216531
