#------------------------------------------------------------------------------
# Created by    : vladimir.rabinovich
# Created on    : 09/19/2023 17:22:42
#------------------------------------------------------------------------------
~Version Information Section
VERS.           2.0     :   CWLS log ASCII Standard - VERSION 2.0
WRAP.           NO      :   One line per depth step
~Well Information Section
#MNEM       .UNIT                                         VALUE :DESCRIPTION
#------------------------------------------------------------------------------
STRT        .FT                                             932 :START DEPTH
STOP        .FT                                            7546 :STOP DEPTH
STEP        .FT                                             0.5 :STEP      
NULL        .                                           -999.25 :NULL      
COMP        .                   SUN EXPLORATION & PRODUCTION CO :COMPANY   
WELL        .                                BROUSSARD & HEBERT :WELL      
FLD         .                                          LA BELLE :FIELD     
LOC         .                                                   :LOCATION  
CNTY        .                                         JEFFERSON :LOCATION  
STAT        .                                             TEXAS :STATE     
CTRY        .                                     UNITED STATES :COUNTRY   
SRVC        .                                                   :SERVICE COMPANY
DATE        .                             9/13/2023 11:18:46 AM :LOG DATE  
API         .                                    42245319210000 :API NUMBER
UWI         .                                    42245319210000 :UNIQUE WELL ID
XCOORD      .                                  1279394.73540744 :SURFACE X 
YCOORD      .                                  10819915.3695329 :SURFACE Y 
LAT         .                                        29.8083786 :LATITUDE  
LON         .                                       -94.1386839 :LONGITUDE 
ELEV        .FT                                              23 :ELEVATION VALUE
ELEV_TYPE   .                                                KB :ELEVATION REFERENCE TYPE
~Curve Information Section
#MNEM       .UNIT                                      API CODE :CURVE DESCRIPTION
#------------------------------------------------------------------------------
DEPT        .FT                                                 :DEPTH     
DCAL        .IN                                                 :          
DPSS        .V/V                                                :          
DRHO        .G/CM3                                              :          
GR          .GAPI                                               :          
GR_NORM     .GAPI                                               :GammaRay Normalized
ILD         .OHMM                                               :          
ILM         .OHMM                                               :          
NPSS        .V/V                                                :Neutron Porosity Sandstone
SFL         .OHMM                                               :          
SP          .MV                                                 :          
SP_NORM     .MV                                                 :SP Normalized
TENS        .LB                                                 :          
VSH_GR      .V/V                                                :Volume of Shale from GR
VSH_SP      .V/V                                                :Volume of Shale from SP
~A        DEPTH           DCAL           DPSS           DRHO             GR        GR_NORM            ILD            ILM           NPSS            SFL             SP        SP_NORM           TENS         VSH_GR         VSH_SP
# ...
      7502.0000        -5.3672         0.5774        -0.0118        -999.25        -999.25         0.8185         0.8412        -999.25         0.8844         -4.527         -4.527       4053.694        -999.25      0.9448906
      7502.5000        -5.3492         0.5787        -0.0088        -999.25        -999.25         0.8374          0.849        -999.25         0.9134        -4.5194        -4.5194       4084.891        -999.25      0.9450094
      7503.0000        -5.3512         0.5837        -0.0077        -999.25        -999.25         0.8375         0.8569        -999.25         0.9305        -3.9161        -3.9161       4116.152        -999.25      0.9544359
      7503.5000         -5.393         0.5881        -0.0107        -999.25        -999.25         0.8299          0.857        -999.25         0.9479        -3.5108        -3.5108       4137.409        -999.25      0.9607688
      7504.0000         -5.395           0.59        -0.0106        -999.25        -999.25         0.8186         0.8493        -999.25         0.9395        -3.1051        -3.1051       4148.632        -999.25      0.9671078
      7504.5000         -5.377         0.5865        -0.0106        -999.25        -999.25         0.8111         0.8377        -999.25         0.9227         -2.699         -2.699       4180.052        -999.25      0.9734531
      7505.0000         -5.399         0.5824        -0.0065        -999.25        -999.25         0.8037         0.8263        -999.25          0.902        -2.0936        -2.0936       4201.438        -999.25      0.9829125
      7505.5000         -5.401         0.5789        -0.0045        -999.25        -999.25         0.7927         0.8187        -999.25         0.8775        -1.4875        -1.4875        4212.76        -999.25      0.9923828
      7506.0000        -5.4031         0.5796        -0.0034        -999.25        -999.25         0.7782         0.8074        -999.25         0.8656          -1.08          -1.08       4213.987        -999.25        0.99875
      7506.5000        -5.4051         0.5846        -0.0074        -999.25        -999.25         0.7605         0.7963        -999.25         0.8657        -0.6721        -0.6721       4225.344        -999.25              1
      7507.0000        -5.4071         0.5865        -0.0123        -999.25        -999.25         0.7466         0.7854        -999.25         0.8578        -0.6626        -0.6626       4216.448        -999.25              1
      7507.5000        -5.4091          0.586        -0.0133        -999.25        -999.25         0.7296         0.7746        -999.25         0.8382         -0.653         -0.653       4217.683        -999.25              1
      7508.0000        -5.4111         0.5831        -0.0122        -999.25        -999.25         0.7196         0.7605        -999.25         0.8189        -0.6434        -0.6434       4229.079        -999.25              1
      7508.5000        -5.4131          0.579        -0.0042        -999.25        -999.25         0.7097         0.7432        -999.25         0.8038        -1.2327        -1.2327       4250.667        -999.25      0.9963641
      7509.0000        -5.4151         0.5773         0.0018        -999.25        -999.25            0.7         0.7398        -999.25         0.8151        -1.4232        -1.4232        4262.12        -999.25      0.9933875
      7509.5000        -5.4171         0.5798         0.0019        -999.25        -999.25         0.6874         0.7196        -999.25         0.8306        -2.2125        -2.2125       4273.596        -999.25      0.9810547
      7510.0000        -5.4191         0.5842         -0.003        -999.25        -999.25          0.672         0.6968        -999.25         0.8191        -2.4036        -2.4036       4295.296        -999.25      0.9780688
      7510.5000           -5.4         0.5891         -0.011        -999.25        -999.25         0.6511         0.6751        -999.25         0.7964           -2.4           -2.4       4295.918        -999.25       0.978125
      7511.0000          -5.42         0.5933         -0.014        -999.25        -999.25         0.6308         0.6601        -999.25         0.7608           -2.2           -2.2       4316.327        -999.25        0.98125
      7511.5000           -5.4         0.5952         -0.016        -999.25        -999.25          0.611         0.6542        -999.25         0.7234           -1.6           -1.6       4326.531        -999.25       0.990625
      7512.0000          -5.42         0.5952          -0.02        -999.25        -999.25         0.5919         0.6395        -999.25         0.6974           -0.2           -0.2       4326.531        -999.25              1
      7512.5000          -5.42         0.5952         -0.021        -999.25        -999.25         0.5892         0.6309        -999.25         0.6944            1.2            1.2       4316.327        -999.25              1
      7513.0000          -5.42         0.5927         -0.021        -999.25        -999.25         0.5892         0.6252        -999.25         0.6882            2.6            2.6       4295.918        -999.25              1
      7513.5000          -5.42         0.5897          -0.02        -999.25        -999.25         0.5892         0.6224        -999.25         0.6883              4              4       4295.918        -999.25              1
      7514.0000          -5.42         0.5885         -0.019        -999.25        -999.25         0.5838         0.6196        -999.25         0.6916            4.2            4.2        4275.51        -999.25              1
      7514.5000          -5.44         0.5873         -0.017        -999.25        -999.25         0.5785         0.6168        -999.25         0.7079            4.2            4.2        4275.51        -999.25              1
      7515.0000          -5.46         0.5855         -0.016        -999.25        -999.25         0.5733         0.6111        -999.25          0.738            3.4            3.4       4295.918        -999.25              1
      7515.5000          -5.46         0.5812         -0.012        -999.25        -999.25         0.5655         0.6056        -999.25         0.7214            2.4            2.4       4316.327        -999.25              1
      7516.0000          -5.46          0.577         -0.005        -999.25        -999.25         0.5578            0.6        -999.25          0.689              2              2       4336.735        -999.25              1
      7516.5000          -5.44         0.5733              0        -999.25        -999.25         0.5603         0.5946        -999.25          0.646            1.4            1.4       4377.551        -999.25              1
      7517.0000          -5.44         0.5715          0.001        -999.25        -999.25         0.5603         0.5946        -999.25         0.6313            0.8            0.8       4397.959        -999.25              1
      7517.5000          -5.44         0.5715         0.0029        -999.25        -999.25         0.5655         0.5973        -999.25         0.6343            0.4            0.4       4428.571        -999.25              1
      7518.0000          -5.44         0.5715         0.0029        -999.25        -999.25         0.5733         0.6028        -999.25         0.6769            0.4            0.4       4459.184        -999.25              1
      7518.5000          -5.44         0.5715        -999.25        -999.25        -999.25         0.5812         0.6113        -999.25          0.729            0.4            0.4       4479.592        -999.25              1
      7519.0000          -5.44         0.5715        -999.25        -999.25        -999.25         0.5946          0.617        -999.25         0.7496              1              1       4479.592        -999.25              1
      7519.5000          -5.44         0.5715        -999.25        -999.25        -999.25         0.6028         0.6257        -999.25         0.7294            2.6            2.6       4479.592        -999.25              1
