#------------------------------------------------------------------------------
# Created by    : vladimir.rabinovich
# Created on    : 09/19/2023 17:22:42
#------------------------------------------------------------------------------
~Version Information Section
VERS.           2.0     :   CWLS log ASCII Standard - VERSION 2.0
WRAP.           NO      :   One line per depth step
~Well Information Section
#MNEM       .UNIT                                         VALUE :DESCRIPTION
#------------------------------------------------------------------------------
STRT        .FT                                             932 :START DEPTH
STOP        .FT                                            7546 :STOP DEPTH
STEP        .FT                                             0.5 :STEP      
NULL        .                                           -999.25 :NULL      
COMP        .                   SUN EXPLORATION & PRODUCTION CO :COMPANY   
WELL        .                                BROUSSARD & HEBERT :WELL      
FLD         .                                          LA BELLE :FIELD     
LOC         .                                                   :LOCATION  
CNTY        .                                         JEFFERSON :LOCATION  
STAT        .                                             TEXAS :STATE     
CTRY        .                                     UNITED STATES :COUNTRY   
SRVC        .                                                   :SERVICE COMPANY
DATE        .                             9/13/2023 11:18:46 AM :LOG DATE  
API         .                                    42245319210000 :API NUMBER
UWI         .                                    42245319210000 :UNIQUE WELL ID
XCOORD      .                                  1279394.73540744 :SURFACE X 
YCOORD      .                                  10819915.3695329 :SURFACE Y 
LAT         .                                        29.8083786 :LATITUDE  
LON         .                                       -94.1386839 :LONGITUDE 
ELEV        .FT                                              23 :ELEVATION VALUE
ELEV_TYPE   .                                                KB :ELEVATION REFERENCE TYPE
~Curve Information Section
#MNEM       .UNIT                                      API CODE :CURVE DESCRIPTION
#------------------------------------------------------------------------------
DEPT        .FT                                                 :DEPTH     
DCAL        .IN                                                 :          
DPSS        .V/V                                                :          
DRHO        .G/CM3                                              :          
GR          .GAPI                                               :          
GR_NORM     .GAPI                                               :GammaRay Normalized
ILD         .OHMM                                               :          
ILM         .OHMM                                               :          
NPSS        .V/V                                                :Neutron Porosity Sandstone
SFL         .OHMM                                               :          
SP          .MV                                                 :          
SP_NORM     .MV                                                 :SP Normalized
TENS        .LB                                                 :          
VSH_GR      .V/V                                                :Volume of Shale from GR
VSH_SP      .V/V                                                :Volume of Shale from SP
~A        DEPTH           DCAL           DPSS           DRHO             GR        GR_NORM            ILD            ILM           NPSS            SFL             SP        SP_NORM           TENS         VSH_GR         VSH_SP
# ...
      4046.0000        -999.25        -999.25        -999.25        44.8485       48.51427         0.2161         0.2593        -999.25         0.5603       -75.0495      -64.72048       2826.531      0.3300909      0.1615726
      4046.5000        -999.25        -999.25        -999.25        41.5152       45.18196         0.2221         0.2641        -999.25         0.5257       -74.2574      -63.92468       2816.326      0.2591907      0.1720437
      4047.0000        -999.25        -999.25        -999.25        38.1818       41.84956         0.2324         0.2702        -999.25         0.5233       -74.2574      -63.92099       2816.326      0.1882884      0.1720922
      4047.5000        -999.25        -999.25        -999.25        34.5455       38.21425         0.2389         0.2764        -999.25         0.5578       -74.4554      -64.11529       2816.326      0.1109415      0.1695357
      4048.0000        -999.25        -999.25        -999.25        31.8182       35.48794         0.2478         0.2866        -999.25         0.6165       -74.6535       -64.3097       2816.326     0.05293485      0.1669776
      4048.5000        -999.25        -999.25        -999.25          29.85       33.52072         0.2546         0.2959        -999.25         0.7196       -74.8515        -64.504       2806.122     0.01107918      0.1644211
      4049.0000        -999.25        -999.25        -999.25           29.4       33.07172         0.2558         0.3014        -999.25         0.7963       -75.2475       -64.8963       2806.122    0.001525879      0.1592592
      4049.5000        -999.25        -999.25        -999.25        31.6667       35.33941         0.2558         0.3014        -999.25         0.8371       -75.8416       -65.4867       2806.122     0.04977466      0.1514908
      4050.0000        -999.25        -999.25        -999.25        34.8485        38.5222           0.25         0.3014        -999.25         0.8183       -76.6337       -66.2751       2795.918      0.1174936      0.1411171
      4050.5000        -999.25        -999.25        -999.25        38.6364       42.31109         0.2455         0.2932        -999.25         0.7675       -78.2178      -67.85551       2806.122      0.1981083      0.1203223
      4051.0000        -999.25        -999.25        -999.25        40.7576       44.43328         0.2367         0.2739        -999.25            0.7        -79.604      -69.23801       2806.122      0.2432613      0.1021315
      4051.5000        -999.25        -999.25        -999.25        40.6061       44.28277         0.2293         0.2653        -999.25         0.6335            -81      -70.63032       2816.326       0.240059     0.08381161
      4052.0000        -999.25        -999.25        -999.25        38.3333       42.01097         0.2211         0.2581        -999.25         0.6082          -82.8      -72.42662       2806.122      0.1917227     0.06017604
      4052.5000        -999.25        -999.25        -999.25        35.9091       39.58776         0.2171         0.2546        -999.25         0.6193          -84.2      -73.82292       2816.326       0.140165     0.04180366
      4053.0000        -999.25        -999.25        -999.25        34.5455       38.22514         0.2191         0.2546        -999.25          0.651          -84.8      -74.41923       2816.326      0.1111733     0.03395753
      4053.5000        -999.25        -999.25        -999.25        33.4848       37.16543         0.2262         0.2629        -999.25         0.6937          -85.2      -74.81553       2816.326     0.08862621     0.02874304
      4054.0000        -999.25        -999.25        -999.25        33.6364       37.31802         0.2346         0.2764        -999.25         0.7605          -85.6      -75.21183       2826.531     0.09187284     0.02352855
      4054.5000        -999.25        -999.25        -999.25        34.5455       38.22812         0.2433         0.2879        -999.25         0.8719            -86      -75.60814       2826.531      0.1112366     0.01831396
      4055.0000        -999.25        -999.25        -999.25        34.5455       38.22911         0.2523         0.2973        -999.25          0.964          -86.8      -76.40444       2816.326      0.1112577    0.007836292
      4055.5000        -999.25        -999.25        -999.25        33.1818        36.8664         0.2629         0.3028        -999.25         1.0422          -87.2      -76.80074       2816.326     0.08226386    0.002621902
      4056.0000        -999.25        -999.25        -999.25        32.8788       36.56439         0.2739         0.3028        -999.25         1.0374          -86.6      -76.19704       2806.122     0.07583813     0.01056521
      4056.5000        -999.25        -999.25        -999.25        36.2121       39.89869         0.2815         0.3056        -999.25         0.9684          -85.6      -75.19334       2806.122      0.1467805     0.02377179
      4057.0000        -999.25        -999.25        -999.25        37.8788       41.56638         0.2879         0.3099        -999.25          0.868          -85.2      -74.78965       2816.326      0.1822633     0.02908355
      4057.5000        -999.25        -999.25        -999.25        36.3636       40.05216         0.2815         0.3172        -999.25         0.7746            -85      -74.58595       2826.531       0.150046     0.03176378
      4058.0000        -999.25        -999.25        -999.25        32.5758       36.26535         0.2677         0.3246        -999.25         0.7535          -85.4      -74.98226       2826.531     0.06947562     0.02654919
      4058.5000        -999.25        -999.25        -999.25        32.1212       35.81174         0.2512          0.307        -999.25            0.8          -85.6      -75.17856       2826.531     0.05982435     0.02396634
      4059.0000        -999.25        -999.25        -999.25        34.3939       38.08544         0.2389         0.2959        -999.25         0.8371          -85.2      -74.77486       2826.531      0.1082008      0.0292781
      4059.5000        -999.25        -999.25        -999.25        36.2121       39.90463         0.2367         0.2853        -999.25         0.7854            -84      -73.57117       2846.939       0.146907     0.04511622
      4060.0000        -999.25        -999.25        -999.25        36.3636       40.05712           0.24         0.2815        -999.25         0.6781          -82.2      -71.76747       2846.939      0.1501515     0.06884906
      4060.5000        -999.25        -999.25        -999.25        35.6061       39.30061         0.2411         0.2906        -999.25          0.611       -79.2079      -68.77168       2836.735      0.1340555      0.1082674
      4061.0000        -999.25        -999.25        -999.25        34.3939       38.08941         0.2411         0.2986        -999.25          0.669       -75.0495      -64.60957       2826.531      0.1082852      0.1630319
      4061.5000        -999.25        -999.25        -999.25        33.4848       37.18129         0.2433         0.3056        -999.25            0.8       -68.7129      -58.26928       2826.531     0.08896369      0.2464568
      4062.0000        -999.25        -999.25        -999.25         35.303       39.00048         0.2593         0.3187        -999.25            0.9       -56.7347      -46.28738       2826.531      0.1276698      0.4041134
      4062.5000        -999.25        -999.25        -999.25             45       48.69847         0.2946         0.3369        -999.25         0.8959       -43.6735      -33.22249       2826.531        0.33401      0.5760199
      4063.0000        -999.25        -999.25        -999.25           57.6       61.29946         0.3369         0.3562        -999.25         0.7675          -33.2      -22.74529       2816.326      0.6021162      0.7138777
      4063.5000        -999.25        -999.25        -999.25        67.2772       70.97765         0.3854         0.4092        -999.25            0.6          -25.2      -14.74159       2816.326      0.8080352      0.8191895
