#------------------------------------------------------------------------------
# Created by    : vladimir.rabinovich
# Created on    : 09/19/2023 17:22:02
#------------------------------------------------------------------------------
~Version Information Section
VERS.           2.0     :   CWLS log ASCII Standard - VERSION 2.0
WRAP.           NO      :   One line per depth step
~Well Information Section
#MNEM       .UNIT                                         VALUE :DESCRIPTION
#------------------------------------------------------------------------------
STRT        .FT                                          2944.5 :START DEPTH
STOP        .FT                                           12030 :STOP DEPTH
STEP        .FT                                             0.5 :STEP      
NULL        .                                           -999.25 :NULL      
COMP        .                                  SAMEDAN OIL CORP :COMPANY   
WELL        .                                         ROBERTSON :WELL      
FLD         .                                     HAMSHIRE WEST :FIELD     
LOC         .                                                   :LOCATION  
CNTY        .                                         JEFFERSON :LOCATION  
STAT        .                                             TEXAS :STATE     
CTRY        .                                     UNITED STATES :COUNTRY   
SRVC        .                                                   :SERVICE COMPANY
DATE        .                             9/13/2023 11:18:46 AM :LOG DATE  
API         .                                    42245321120000 :API NUMBER
UWI         .                                    42245321120000 :UNIQUE WELL ID
XCOORD      .                                  1214919.43989532 :SURFACE X 
YCOORD      .                                  10839736.7579652 :SURFACE Y 
LAT         .                                        29.8609813 :LATITUDE  
LON         .                                       -94.3427285 :LONGITUDE 
ELEV        .FT                                              38 :ELEVATION VALUE
ELEV_TYPE   .                                                KB :ELEVATION REFERENCE TYPE
~Curve Information Section
#MNEM       .UNIT                                      API CODE :CURVE DESCRIPTION
#------------------------------------------------------------------------------
DEPT        .FT                                                 :DEPTH     
CALI        .IN                                                 :          
DPSS        .%                                                  :          
DRHO        .G/CM3                                              :          
GR          .GAPI                                               :          
GR_NORM     .GAPI                                               :GammaRay Normalized
ILD         .OHMM                                               :          
ILM         .OHMM                                               :          
NPSS        .%                                                  :Neutron Porosity Sandstone
SGRD        .OHMM                                               :          
SP          .MV                                                 :          
SP_NORM     .MV                                                 :SP Normalized
TENS        .LB                                                 :          
VSH_GR      .V/V                                                :Volume of Shale from GR
VSH_SP      .V/V                                                :Volume of Shale from SP
~A        DEPTH           CALI           DPSS           DRHO             GR        GR_NORM            ILD            ILM           NPSS           SGRD             SP        SP_NORM           TENS         VSH_GR         VSH_SP
# ...
      4798.5000        -999.25        -999.25        -999.25        60.8926       69.45773         1.3001         1.4989        -999.25         1.6582       -78.9332      -12.26653       2098.089      0.7756963      0.8658746
      4799.0000        -999.25        -999.25        -999.25        64.3121       74.42073         1.3239         1.4379        -999.25         1.4781       -75.1743      -8.507637       2098.643      0.8812922      0.9106234
      4799.5000        -999.25        -999.25        -999.25        62.0807       71.18211         1.3605         1.4179        -999.25         1.3858       -68.3906      -1.723938       2079.212      0.8123853      0.9913817
      4800.0000        -999.25        -999.25        -999.25        57.4505        64.4619         1.4047         1.4505        -999.25         1.4047        -65.198       1.468666       2079.757      0.6694021              1
      4800.5000        -999.25        -999.25        -999.25        54.5973        60.3208         1.4437         1.4977        -999.25         1.4705       -64.0027       2.663963       2080.255      0.5812936              1
      4801.0000        -999.25        -999.25        -999.25        55.0421       60.96637         1.4909         1.5466        -999.25         1.4977       -64.2081       2.458565       2100.699      0.5950292              1
      4801.5000        -999.25        -999.25        -999.25         52.041       56.61062         1.5115         1.5971        -999.25         1.5115       -64.4132       2.253464       2121.123      0.5023536              1
      4802.0000        -999.25        -999.25        -999.25        47.6952       50.30318         1.5115         1.6267        -999.25         1.5046       -65.2171       1.449562       2041.702      0.3681528              1
      4802.5000        -999.25        -999.25        -999.25        47.5442       50.08402         1.5185         1.5898        -999.25         1.4504       -65.8207      0.8459625       2141.955      0.3634897              1
      4803.0000        -999.25        -999.25        -999.25        54.2742       59.85185         1.5185         1.5538        -999.25         1.3981       -65.4263       1.240364       2182.273      0.5713159              1
      4803.5000        -999.25        -999.25        -999.25        65.6133       76.30927         1.4909         1.5115        -999.25         1.3601       -65.2317       1.434967       2122.875      0.9214739              1
      4804.0000        -999.25        -999.25        -999.25        76.0396       91.44188         1.4371         1.4637        -999.25         1.3354       -64.8381       1.828568       2143.237              1              1
      4804.5000        -999.25        -999.25        -999.25        79.3069       96.18399         1.3601         1.4175        -999.25         1.3354       -64.4449       2.221764       2083.918              1              1
      4805.0000        -999.25        -999.25        -999.25         79.604        96.6152         1.2872         1.3726        -999.25         1.3354       -64.4501        2.21656       2084.374              1              1
      4805.5000        -999.25        -999.25        -999.25        78.4158       94.89066         1.2408         1.3292        -999.25         1.3354       -64.8533       1.813362       2104.725              1              1
      4806.0000        -999.25        -999.25        -999.25        76.4851       92.08847         1.2182         1.2872        -999.25         1.3354        -65.256       1.410667       2144.941              1              1
      4806.5000        -999.25        -999.25        -999.25        71.4134       84.72746         1.2126         1.2408        -999.25         1.3171       -66.6522     0.01446533       2165.242              1              1
      4807.0000        -999.25        -999.25        -999.25        67.0756       78.43163         1.2126         1.2408        -999.25         1.2931        -66.855     -0.1883392       2205.388      0.9666305              1
      4807.5000        -999.25        -999.25        -999.25        64.8279       75.16937         1.2295          1.258        -999.25         1.2638       -67.0576     -0.3909378       2185.926      0.8972207              1
      4808.0000        -999.25        -999.25        -999.25        64.3738       74.51029         1.2813         1.2991        -999.25         1.2351       -66.0692      0.5974655       2166.484      0.8831977              1
      4808.5000        -999.25        -999.25        -999.25        61.0743       69.72143         1.3292         1.3601        -999.25         1.3231       -64.6851       1.981567       2166.897       0.781307              1
      4809.0000        -999.25        -999.25        -999.25         54.665       60.41906         1.3853         1.4045        -999.25         1.4371       -63.8971       2.769566       2206.963      0.5833842              1
      4809.5000        -999.25        -999.25        -999.25        47.8237       50.48968         1.4437         1.4637        -999.25         1.5185         -63.11       3.556664        2128.09      0.3721208              1
      4810.0000        -999.25        -999.25        -999.25        42.4505       42.69109         1.5115         1.5185        -999.25         1.5609        -63.512       3.154663       2069.101      0.2061935              1
      4810.5000        -999.25        -999.25        -999.25          41.85       41.81953         1.5824          1.597        -999.25         1.5536       -63.5149       3.151764       2029.703      0.1876495              1
      4811.0000        -999.25        -999.25        -999.25        49.7525       53.28912         1.6563         1.6639        -999.25         1.5532       -63.9109       2.755764       2049.505      0.4316833              1
      4811.5000        -999.25        -999.25        -999.25        57.9208       65.14449         1.7258         1.7179        -999.25         1.5528        -64.505       2.161667       2089.109      0.6839254              1
      4812.0000        -999.25        -999.25        -999.25          63.75        73.6049         1.7736         1.7573        -999.25         1.5596        -64.901       1.765663       2128.713      0.8639342              1
      4812.5000        -999.25        -999.25        -999.25          64.95       75.34657         1.7813         1.7895        -999.25         1.5521       -65.8911      0.7755661       2168.317      0.9009909              1
      4813.0000        -999.25        -999.25        -999.25           63.6        73.3872         1.7405         1.7891        -999.25         1.5518       -66.2871      0.3795624       2168.317      0.8593021              1
      4813.5000        -999.25        -999.25        -999.25           61.2       69.90388         1.6697         1.7805        -999.25         1.5514       -66.6832     -0.0165329       2168.317      0.7851889              1
      4814.0000        -999.25        -999.25        -999.25        56.8812       63.63561         1.5944         1.7002        -999.25         1.5159       -67.2772     -0.6105347       2148.515      0.6518214              1
      4814.5000        -999.25        -999.25        -999.25        59.4059       67.29993         1.5295         1.6161        -999.25         1.4409       -67.4752     -0.8085327       2168.317      0.7297859              1
      4815.0000        -999.25        -999.25        -999.25           67.5       79.04761         1.4605         1.5432        -999.25         1.3696       -68.0693      -1.402634       2168.317      0.9797363      0.9952067
      4815.5000        -999.25        -999.25        -999.25           71.7       85.14344         1.4141         1.4669        -999.25           1.32       -68.0693      -1.402634       2089.109              1      0.9952067
      4816.0000        -999.25        -999.25        -999.25          67.95       79.70073         1.3944         1.4333        -999.25         1.3076       -67.8713      -1.204636       2049.505      0.9936326      0.9975638
