#------------------------------------------------------------------------------
# Created by    : vladimir.rabinovich
# Created on    : 09/19/2023 17:20:51
#------------------------------------------------------------------------------
~Version Information Section
VERS.           2.0     :   CWLS log ASCII Standard - VERSION 2.0
WRAP.           NO      :   One line per depth step
~Well Information Section
#MNEM       .UNIT                                         VALUE :DESCRIPTION
#------------------------------------------------------------------------------
STRT        .FT                                             126 :START DEPTH
STOP        .FT                                           15000 :STOP DEPTH
STEP        .FT                                             0.5 :STEP      
NULL        .                                           -999.25 :NULL      
COMP        .                                    MOBIL OIL CORP :COMPANY   
WELL        .                                MCFADDIN TRUST BLK :WELL      
FLD         .                                           WILDCAT :FIELD     
LOC         .                                                   :LOCATION  
CNTY        .                                         JEFFERSON :LOCATION  
STAT        .                                             TEXAS :STATE     
CTRY        .                                     UNITED STATES :COUNTRY   
SRVC        .                                                   :SERVICE COMPANY
DATE        .                             9/13/2023 11:19:11 AM :LOG DATE  
API         .                                    42245029210000 :API NUMBER
UWI         .                                    42245029210000 :UNIQUE WELL ID
XCOORD      .                                  1288949.71304085 :SURFACE X 
YCOORD      .                                  10768198.0929689 :SURFACE Y 
LAT         .                                        29.6663916 :LATITUDE  
LON         .                                       -94.1069885 :LONGITUDE 
ELEV        .FT                                              20 :ELEVATION VALUE
ELEV_TYPE   .                                                DF :ELEVATION REFERENCE TYPE
~Curve Information Section
#MNEM       .UNIT                                      API CODE :CURVE DESCRIPTION
#------------------------------------------------------------------------------
DEPT        .FT                                                 :DEPTH     
ASN         .OHMM                                               :          
LAT         .OHMM                                               :          
LN          .OHMM                                               :          
SN          .OHMM                                               :          
SP          .MV                                                 :          
SP_NORM     .MV                                                 :SP Normalized
VSH_SP      .V/V                                                :Volume of Shale from SP
~A        DEPTH            ASN            LAT             LN             SN             SP        SP_NORM         VSH_SP
# ...
     11985.0000         0.7257          0.477         0.3528         0.3312       -22.9402      -4.561291      0.9340501
     11985.5000         0.7237         0.4778         0.3526         0.3299       -22.6653      -4.265074      0.9395357
     11986.0000         0.7218         0.4786         0.3525         0.3282       -22.3905      -3.968958      0.9450193
     11986.5000         0.7199         0.4801         0.3523         0.3263       -22.3972      -3.954342        0.94529
     11987.0000          0.718         0.4815         0.3522         0.3244        -22.682      -4.217825      0.9404107
     11987.5000         0.7173         0.4829         0.3521         0.3225       -22.9674      -4.481911      0.9355202
     11988.0000         0.7185         0.4843         0.3516         0.3206       -23.2711      -4.764294      0.9302909
     11988.5000         0.7197         0.4857         0.3496         0.3194       -23.5916      -5.063478      0.9247504
     11989.0000         0.7209         0.4872         0.3476         0.3189       -23.7081      -5.158663      0.9229877
     11989.5000         0.7222         0.4901         0.3456         0.3184       -23.6684      -5.097647      0.9241176
     11990.0000         0.7234         0.4933         0.3436         0.3179       -23.6394      -5.047331      0.9250494
     11990.5000         0.7251         0.4964         0.3416         0.3174        -23.617      -5.003614       0.925859
     11991.0000         0.7269         0.4996         0.3396         0.3169       -23.5946        -4.9599      0.9266685
     11991.5000         0.7287         0.5028         0.3376         0.3177       -23.5722      -4.916183      0.9274781
     11992.0000         0.7305         0.5124         0.3355         0.3187       -23.5914      -4.914066      0.9275173
     11992.5000         0.7323         0.5228         0.3335         0.3197       -23.6142      -4.915552      0.9274898
     11993.0000         0.7325         0.5263         0.3332         0.3207       -23.5754      -4.855434      0.9286031
     11993.5000         0.7326         0.5202         0.3338          0.321       -23.2734      -4.532118      0.9345904
     11994.0000         0.7326         0.5141         0.3343         0.3211       -22.9713      -4.208702      0.9405796
     11994.5000         0.7327         0.5079         0.3349         0.3212       -22.6693      -3.885387      0.9465669
     11995.0000         0.7327         0.5018         0.3355         0.3214       -22.3605      -3.555271      0.9526802
     11995.5000         0.7321         0.4957         0.3361         0.3217       -22.0118      -3.185255      0.9595323
     11996.0000         0.7309         0.4895         0.3366         0.3225       -21.6636      -2.815741      0.9663752
     11996.5000         0.7297         0.4836         0.3372         0.3233       -21.3383      -2.469124       0.972794
     11997.0000         0.7285         0.4778         0.3378         0.3241       -21.0795      -2.189007      0.9779813
     11997.5000         0.7273          0.472         0.3384         0.3249       -20.8213      -1.909492      0.9831576
     11998.0000         0.7268         0.4661          0.339         0.3258       -20.7616      -1.828476      0.9846578
     11998.5000         0.7263         0.4603         0.3397         0.3273       -20.7852      -1.830759      0.9846156
     11999.0000         0.7257         0.4545         0.3403         0.3289       -20.8089      -1.833143      0.9845714
     11999.5000         0.7273         0.4486          0.341         0.3304       -20.8326      -1.835527      0.9845273
     12000.0000         0.7332         0.4428         0.3417          0.332       -20.8562      -1.837811       0.984485
     12000.5000         0.7392          0.437         0.3423         0.3335       -20.8798      -1.840096      0.9844427
     12001.0000         0.7457         0.4331          0.343         0.3331       -20.9357       -1.87468      0.9838023
     12001.5000         0.7523         0.4295         0.3437         0.3327       -21.0058      -1.923464      0.9828988
     12002.0000          0.759         0.4259         0.3443         0.3323       -21.0759      -1.972246      0.9819955
     12002.5000         0.7647         0.4223         0.3447         0.3319       -21.1461      -2.021132      0.9810901
     12003.0000         0.7676         0.4187          0.345         0.3316       -21.2935      -2.147217      0.9787552
     12003.5000         0.7704         0.4185         0.3452         0.3315       -21.4604      -2.292799      0.9760593
     12004.0000         0.7733         0.4196         0.3454         0.3318       -21.6273      -2.438383      0.9733633
     12004.5000         0.7749         0.4207         0.3456         0.3321       -21.8325      -2.622269       0.969958
     12005.0000         0.7735         0.4384         0.3459         0.3323       -22.0435      -2.811953      0.9664453
     12005.5000         0.7686          0.461         0.3461         0.3326       -22.2545      -3.001635      0.9629327
     12006.0000         0.7624         0.4878         0.3463         0.3323        -22.601       -3.32682      0.9569107
     12006.5000         0.7562         0.5204         0.3466         0.3305       -23.0629      -3.767405      0.9487517
     12007.0000         0.7522          0.553         0.3468         0.3287       -23.5238      -4.206987      0.9406114
     12007.5000         0.7482         0.5789          0.347          0.327       -24.0768       -4.73867      0.9307654
     12008.0000         0.7466         0.5851          0.346         0.3253       -24.6555      -5.296057      0.9204434
     12008.5000         0.7457         0.5609         0.3438         0.3237       -25.1635       -5.78274      0.9114308
     12009.0000         0.7437         0.5367         0.3416          0.322         -25.42      -6.017923      0.9070755
     12009.5000         0.7369         0.5126         0.3394         0.3205       -25.1435      -5.720108      0.9125906
     12010.0000         0.7301         0.4905         0.3373         0.3198       -24.6965      -5.251793      0.9212631
     12010.5000         0.7233         0.4693         0.3351         0.3191       -24.1768      -4.710775      0.9312819
     12011.0000         0.7165         0.4481         0.3329         0.3184       -23.9132      -4.425861      0.9365581
     12011.5000         0.7099          0.427         0.3307           0.32       -23.8371      -4.328444      0.9383622
     12012.0000         0.7113         0.4058         0.3285         0.3252       -23.7981      -4.268127      0.9394791
     12012.5000         0.7127         0.3997         0.3263         0.3305         -23.78      -4.228712       0.940209
     12013.0000         0.7142         0.3943         0.3241         0.3357       -23.7619      -4.189297      0.9409389
     12013.5000         0.7171         0.3889         0.3219         0.3408       -23.7438      -4.149879      0.9416689
     12014.0000           0.72         0.3835         0.3197         0.3445       -23.7257      -4.110464      0.9423988
     12014.5000         0.7229         0.3782         0.3175         0.3482       -23.6988      -4.062248      0.9432917
     12015.0000         0.7253         0.3728         0.3156         0.3519       -23.6716      -4.013733      0.9441901
     12015.5000         0.7245          0.373         0.3137          0.356       -23.6444      -3.965216      0.9450886
     12016.0000         0.7237         0.3744         0.3118         0.3602       -23.6172      -3.916702       0.945987
     12016.5000         0.7228         0.3759         0.3099          0.363       -23.5899      -3.868084      0.9468873
     12017.0000         0.7219         0.3773          0.308         0.3623       -23.5569      -3.813768      0.9478932
     12017.5000         0.7208         0.3787         0.3061         0.3616       -23.4854      -3.720951       0.949612
     12018.0000         0.7198         0.3802         0.3042         0.3609       -23.4138      -3.628036      0.9513326
