#------------------------------------------------------------------------------
# Created by    : vladimir.rabinovich
# Created on    : 09/19/2023 17:20:58
#------------------------------------------------------------------------------
~Version Information Section
VERS.           2.0     :   CWLS log ASCII Standard - VERSION 2.0
WRAP.           NO      :   One line per depth step
~Well Information Section
#MNEM       .UNIT                                         VALUE :DESCRIPTION
#------------------------------------------------------------------------------
STRT        .FT                                            1876 :START DEPTH
STOP        .FT                                            8575 :STOP DEPTH
STEP        .FT                                             0.5 :STEP      
NULL        .                                           -999.25 :NULL      
COMP        .                                      L G D C CORP :COMPANY   
WELL        .                                          GARTH CO :WELL      
FLD         .                                       CHEEK SOUTH :FIELD     
LOC         .                                                   :LOCATION  
CNTY        .                                         JEFFERSON :LOCATION  
STAT        .                                             TEXAS :STATE     
CTRY        .                                     UNITED STATES :COUNTRY   
SRVC        .                                                   :SERVICE COMPANY
DATE        .                             9/13/2023 11:18:46 AM :LOG DATE  
API         .                                    42245322600000 :API NUMBER
UWI         .                                    42245322600000 :UNIQUE WELL ID
XCOORD      .                                  1261779.14844878 :SURFACE X 
YCOORD      .                                  10885364.2183051 :SURFACE Y 
LAT         .                                        29.9878888 :LATITUDE  
LON         .                                       -94.1963831 :LONGITUDE 
ELEV        .FT                                            39.9 :ELEVATION VALUE
ELEV_TYPE   .                                                KB :ELEVATION REFERENCE TYPE
~Curve Information Section
#MNEM       .UNIT                                      API CODE :CURVE DESCRIPTION
#------------------------------------------------------------------------------
DEPT        .FT                                                 :DEPTH     
AT10        .OHMM                                               :          
AT30        .OHMM                                               :          
AT60        .OHMM                                               :          
AT90        .OHMM                                               :          
DCAL        .IN                                                 :          
DPSS        .V/V                                                :          
DRHO        .G/CM3                                              :          
GR          .GAPI                                               :          
GR_NORM     .GAPI                                               :GammaRay Normalized
NPSS        .V/V                                                :Neutron Porosity Sandstone
SP          .MV                                                 :          
SP_NORM     .MV                                                 :SP Normalized
TENS        .LB                                                 :          
VSH_GR      .V/V                                                :Volume of Shale from GR
VSH_SP      .V/V                                                :Volume of Shale from SP
~A        DEPTH           AT10           AT30           AT60           AT90           DCAL           DPSS           DRHO             GR        GR_NORM           NPSS             SP        SP_NORM           TENS         VSH_GR         VSH_SP
# ...
      7690.0000         0.9952         0.6056         0.5946         0.5812          -0.16         0.2532          0.003           80.7       62.11994         0.3198          -71.2      -39.10123           3420      0.6195732      0.4478083
      7690.5000         0.9087         0.5785         0.5681         0.5553          -0.16          0.258          0.011          79.95       60.88491         0.3012          -75.4      -43.30124           3420      0.5932961      0.3869386
      7691.0000          0.757         0.5354         0.5233         0.5115          -0.16         0.2634          0.012          77.85        57.4352         0.3006            -80      -47.90123           3420      0.5198978       0.320272
      7691.5000         0.6346         0.4729         0.4556         0.4451          -0.16          0.273          0.005             75       52.75512         0.3096          -85.8      -53.70124           3420      0.4203217       0.236214
      7692.0000         0.5477         0.4171         0.4019         0.3928          -0.18         0.2958         -0.002          71.55       47.09073         0.3264          -92.6      -60.50123           3420      0.2998028      0.1376633
      7692.5000         0.5139         0.3769         0.3752         0.3668          -0.18         0.3174          -0.01          69.75       44.13316         0.3402            -96      -63.90123           3420      0.2368757     0.08838792
      7693.0000         0.5139         0.3752         0.3735         0.3651          -0.18         0.3246         -0.016           70.2       44.86674         0.3462          -96.6      -64.50124           3420      0.2524838     0.07969223
      7693.5000         0.5233         0.3839         0.3769         0.3684          -0.18         0.3252         -0.016           71.7       47.32284         0.3444            -95      -62.90123           3400      0.3047412      0.1028807
      7694.0000         0.5527         0.4075            0.4          0.391          -0.18         0.3198         -0.013           74.7       52.23969         0.3438          -91.8      -59.70124           3380      0.4093552      0.1492574
      7694.5000            0.6         0.4289          0.421         0.4113          -0.18         0.3138         -0.011           78.3       58.14085         0.3456          -88.8      -56.70124           3420      0.5349117      0.1927357
      7695.0000         0.6712         0.4431         0.4349         0.4249          -0.18         0.3054         -0.008           79.8       60.59697         0.3462          -85.4      -53.30124           3420      0.5871695      0.2420111
      7695.5000         0.7466          0.462         0.4556         0.4451          -0.18         0.2922         -0.007           79.8        60.5923         0.3336          -82.4      -50.30124           3420      0.5870702      0.2854894
      7696.0000         0.7364         0.4663         0.4514          0.441          -0.18         0.2844         -0.006          78.45       58.37296         0.3192          -82.6      -50.50123           3420      0.5398502      0.2825908
      7696.5000         0.6496         0.4493         0.4289          0.419          -0.16         0.2856         -0.005           77.7       57.13792         0.3102            -83      -50.90123           3420      0.5135729      0.2767937
      7697.0000          0.687         0.4599         0.4431         0.4329          -0.16         0.2856         -0.005           78.6       58.60972         0.3078          -79.8      -47.70124           3420      0.5448877      0.3231705
      7697.5000          0.764         0.4931         0.4707         0.4599           -0.2         0.2772         -0.005          78.45       58.35899         0.3234            -78      -45.90123           3420       0.539553      0.3492575
      7698.0000         0.6557         0.4493          0.441         0.4309          -0.26          0.276         -0.005           76.5       55.15536         0.3366          -84.4      -52.30124           3420      0.4713908      0.2565039
      7698.5000         0.5428         0.3928         0.3857         0.3769          -0.32         0.2976         -0.012           74.4       51.70564         0.3402            -93      -60.90123           3420      0.3979924      0.1318662
      7699.0000         0.4451         0.3456         0.3394         0.3317          -0.32         0.3252         -0.018           72.9       49.24025         0.3378           -100      -67.90123           3420      0.3455373     0.03041696
      7699.5000         0.4037         0.3183         0.3126         0.3055          -0.32         0.3366         -0.023           73.5       50.21989          0.339      -100.7921      -68.69333           3440      0.3663807     0.01893726
      7700.0000          0.421         0.3488         0.3425         0.3347          -0.32          0.339         -0.023          74.55       51.93776         0.3288          -97.8      -65.70123           3440      0.4029311     0.06230097
      7700.5000         0.4931            0.4         0.3928         0.3839          -0.28         0.3234         -0.023          75.45       53.40955         0.3138          -89.8      -57.70124           3420      0.4342458       0.178243
      7701.0000         0.6903         0.5115         0.4862         0.4751          -0.28          0.297         -0.018          77.85        57.3421         0.3054          -78.8      -46.70124           3420       0.517917      0.3376632
      7701.5000         0.9352         0.6775            0.6         0.5865          -0.24         0.2694         -0.012          79.95       60.78251          0.303          -68.2      -36.10123           3420      0.5911171      0.4912865
      7702.0000         1.2696         0.7927         0.7963         0.7782          -0.22          0.249         -0.006           82.5       64.96115         0.2982            -62      -29.90123           3420      0.6800245      0.5811415
      7702.5000         1.3231         0.8073         0.8036         0.7854          -0.18          0.237         -0.003             84       67.41725         0.2862          -58.8      -26.70123           3420      0.7322819      0.6275184
      7703.0000         1.2754         0.8146            0.8         0.7818          -0.14         0.2322         -0.001          85.65       70.11942         0.2904          -57.4      -25.30124           3420       0.789775      0.6478082
      7703.5000         1.0232         0.7196         0.6743         0.6588          -0.14         0.2388         -0.002           85.8       70.36084          0.312          -64.6      -32.50123           3420      0.7949115      0.5434604
      7704.0000         0.8111         0.5974          0.563         0.5504          -0.16         0.2556         -0.006           82.5       64.94251         0.3228            -77      -44.90123           3420       0.679628      0.3637502
      7704.5000          0.644         0.5189         0.5003         0.4889           -0.2         0.2898         -0.017           78.6       58.53989         0.3282          -82.4      -50.30124           3420       0.543402      0.2854894
      7705.0000          0.598         0.4778          0.454         0.4436          -0.24         0.3138         -0.024          75.15       52.87552         0.3372          -85.8      -53.70124           3420      0.4228835       0.236214
      7705.5000         0.5874         0.4521         0.4356         0.4256          -0.24         0.3108         -0.022          74.25       51.39441          0.342          -83.2      -51.10123           3420      0.3913704      0.2738952
      7706.0000         0.6633         0.4828         0.4587         0.4482          -0.22         0.2976         -0.016             72       47.69862         0.3318          -80.2      -48.10123           3420      0.3127366      0.3173735
      7706.5000         0.6824          0.499         0.4763         0.4654          -0.18         0.2892         -0.011           71.7        47.2018         0.3198            -79      -46.90123           3420       0.302166      0.3347647
