#------------------------------------------------------------------------------
# Created by    : vladimir.rabinovich
# Created on    : 09/19/2023 17:20:51
#------------------------------------------------------------------------------
~Version Information Section
VERS.           2.0     :   CWLS log ASCII Standard - VERSION 2.0
WRAP.           NO      :   One line per depth step
~Well Information Section
#MNEM       .UNIT                                         VALUE :DESCRIPTION
#------------------------------------------------------------------------------
STRT        .FT                                             126 :START DEPTH
STOP        .FT                                           15000 :STOP DEPTH
STEP        .FT                                             0.5 :STEP      
NULL        .                                           -999.25 :NULL      
COMP        .                                    MOBIL OIL CORP :COMPANY   
WELL        .                                MCFADDIN TRUST BLK :WELL      
FLD         .                                           WILDCAT :FIELD     
LOC         .                                                   :LOCATION  
CNTY        .                                         JEFFERSON :LOCATION  
STAT        .                                             TEXAS :STATE     
CTRY        .                                     UNITED STATES :COUNTRY   
SRVC        .                                                   :SERVICE COMPANY
DATE        .                             9/13/2023 11:19:11 AM :LOG DATE  
API         .                                    42245029210000 :API NUMBER
UWI         .                                    42245029210000 :UNIQUE WELL ID
XCOORD      .                                  1288949.71304085 :SURFACE X 
YCOORD      .                                  10768198.0929689 :SURFACE Y 
LAT         .                                        29.6663916 :LATITUDE  
LON         .                                       -94.1069885 :LONGITUDE 
ELEV        .FT                                              20 :ELEVATION VALUE
ELEV_TYPE   .                                                DF :ELEVATION REFERENCE TYPE
~Curve Information Section
#MNEM       .UNIT                                      API CODE :CURVE DESCRIPTION
#------------------------------------------------------------------------------
DEPT        .FT                                                 :DEPTH     
ASN         .OHMM                                               :          
LAT         .OHMM                                               :          
LN          .OHMM                                               :          
SN          .OHMM                                               :          
SP          .MV                                                 :          
SP_NORM     .MV                                                 :SP Normalized
VSH_SP      .V/V                                                :Volume of Shale from SP
~A        DEPTH            ASN            LAT             LN             SN             SP        SP_NORM         VSH_SP
# ...
     11013.5000         0.3363         0.3661         0.2987         0.3195       -24.2041      -1.981878      0.9818171
     11014.0000         0.3344         0.3665         0.2994         0.3208       -24.2665      -2.044279      0.9806615
     11014.5000         0.3325         0.3668         0.3001         0.3222       -24.2983      -2.076078      0.9800726
     11015.0000         0.3306         0.3672         0.3008         0.3235       -24.2229      -2.000679      0.9814689
     11015.5000         0.3287          0.368         0.3015          0.325       -24.1475      -1.925278      0.9828652
     11016.0000         0.3268         0.3688         0.3022         0.3265       -24.0721      -1.849878      0.9842615
     11016.5000         0.3249         0.3697         0.3029          0.328       -23.9819      -1.759678      0.9859319
     11017.0000          0.323         0.3705         0.3036         0.3295       -23.8642      -1.641979      0.9881115
     11017.5000         0.3232         0.3713         0.3043         0.3311       -23.7462      -1.523979      0.9902967
     11018.0000         0.3242         0.3721          0.305         0.3325       -23.6285      -1.406279      0.9924763
     11018.5000         0.3252         0.3729         0.3049         0.3319       -23.5409      -1.318678      0.9940985
     11019.0000         0.3262         0.3737         0.3049         0.3312        -23.469      -1.246778      0.9954301
     11019.5000         0.3272         0.3745         0.3048         0.3306       -23.3972      -1.174978      0.9967597
     11020.0000         0.3312         0.3753         0.3047           0.33       -23.3253      -1.103079      0.9980912
     11020.5000         0.3363         0.3761         0.3047         0.3299       -23.2939      -1.071678      0.9986726
     11021.0000         0.3413         0.3769         0.3046           0.33       -23.2918      -1.069578      0.9987115
     11021.5000         0.3464         0.3777         0.3045         0.3302       -23.2897      -1.067478      0.9987504
     11022.0000         0.3514         0.3785         0.3044         0.3304       -23.2875      -1.065279      0.9987912
     11022.5000         0.3564         0.3793         0.3044         0.3295       -23.2854      -1.063179        0.99883
     11023.0000         0.3596         0.3801         0.3043         0.3282       -23.2898      -1.067579      0.9987485
     11023.5000         0.3609         0.3809         0.3042         0.3268       -23.3069      -1.084679      0.9984319
     11024.0000         0.3623         0.3817         0.3042         0.3255       -23.3241      -1.101879      0.9981133
     11024.5000         0.3583         0.3825         0.3041         0.3242       -23.3412      -1.118979      0.9977967
     11025.0000         0.3539         0.3833          0.304         0.3232       -23.3458      -1.123579      0.9977115
     11025.5000         0.3494         0.3842         0.3039         0.3222       -23.3437      -1.121479      0.9977504
     11026.0000          0.345         0.3832         0.3039         0.3213       -23.3416      -1.119379      0.9977893
     11026.5000         0.3405         0.3809         0.3038         0.3203       -23.3009      -1.078678       0.998543
     11027.0000         0.3361         0.3785         0.3037         0.3193       -23.2464      -1.024179      0.9995522
     11027.5000         0.3343         0.3762         0.3037         0.3184       -23.1927     -0.9704781              1
     11028.0000         0.3331         0.3738         0.3036         0.3175       -23.1722     -0.9499779              1
     11028.5000         0.3319         0.3715         0.3035         0.3166       -23.1518     -0.9295788              1
     11029.0000         0.3307         0.3691         0.3034         0.3157       -23.1313     -0.9090786              1
     11029.5000         0.3297         0.3668         0.3034         0.3148       -23.1015     -0.8792782              1
     11030.0000         0.3317         0.3644         0.3033         0.3139       -23.0121     -0.7898788              1
     11030.5000         0.3338         0.3621         0.3032          0.313       -22.9227     -0.7004795              1
     11031.0000         0.3359         0.3597         0.3032         0.3125       -22.8333     -0.6110783              1
     11031.5000          0.338         0.3574         0.3031         0.3137       -22.7495     -0.5272789              1
     11032.0000         0.3408          0.355          0.303          0.315       -22.7474     -0.5251789              1
     11032.5000         0.3455         0.3527         0.3029         0.3162       -22.7452     -0.5229778              1
     11033.0000         0.3502         0.3503         0.3029         0.3174       -22.8145     -0.5922794              1
     11033.5000         0.3549         0.3484         0.3028         0.3186       -22.9099     -0.6876793              1
     11034.0000         0.3596         0.3478         0.3027         0.3198       -23.0053     -0.7830791              1
     11034.5000         0.3643         0.3472         0.3026         0.3218       -22.9712     -0.7489796              1
     11035.0000         0.3688         0.3465         0.3026         0.3249        -22.908     -0.6857796              1
     11035.5000         0.3695         0.3459         0.3025         0.3279       -22.7253     -0.5030785              1
     11036.0000         0.3702         0.3453         0.3024          0.331       -22.4171     -0.1948795              1
     11036.5000         0.3709         0.3447         0.3024          0.334       -22.1206      0.1016216              1
     11037.0000         0.3715          0.344         0.3023         0.3371       -21.8808      0.3414211              1
     11037.5000         0.3722         0.3434         0.3022         0.3402       -21.6414       0.580822              1
     11038.0000         0.3729         0.3428         0.3021         0.3432       -21.4021      0.8201218              1
     11038.5000         0.3736         0.3422         0.3021         0.3468       -21.4757       0.746521              1
     11039.0000         0.3743         0.3416          0.302         0.3504       -21.6209      0.6013222              1
     11039.5000          0.375         0.3409         0.3021         0.3539       -21.9502      0.2720222              1
     11040.0000         0.3757         0.3403         0.3024         0.3575         -22.28    -0.05777931              1
     11040.5000         0.3743         0.3397         0.3027         0.3611       -22.5121     -0.2898788              1
     11041.0000          0.372         0.3391          0.303         0.3648       -22.7425     -0.5202789              1
     11041.5000         0.3697         0.3385         0.3033         0.3687        -22.973     -0.7507782              1
     11042.0000         0.3674         0.3378         0.3036         0.3725       -23.2034     -0.9811783              1
     11042.5000          0.365         0.3372         0.3039         0.3763       -23.2883      -1.066078      0.9987763
     11043.0000         0.3627         0.3366         0.3042         0.3768       -23.3105      -1.088278      0.9983652
     11043.5000         0.3604          0.336         0.3046          0.377       -23.3328      -1.110579      0.9979522
     11044.0000         0.3601         0.3353         0.3049         0.3772       -23.2682      -1.045979      0.9991485
     11044.5000         0.3612         0.3347         0.3052         0.3769         -23.18     -0.9577789              1
     11045.0000         0.3623         0.3341         0.3055          0.375       -23.0915      -0.869278              1
     11045.5000         0.3634         0.3358         0.3058         0.3731        -22.986     -0.7637787              1
     11046.0000         0.3651          0.339         0.3061         0.3711       -22.8616     -0.6393795              1
     11046.5000         0.3669         0.3422         0.3064         0.3692       -22.7373     -0.5150795              1
