#------------------------------------------------------------------------------
# Created by    : vladimir.rabinovich
# Created on    : 09/19/2023 17:20:58
#------------------------------------------------------------------------------
~Version Information Section
VERS.           2.0     :   CWLS log ASCII Standard - VERSION 2.0
WRAP.           NO      :   One line per depth step
~Well Information Section
#MNEM       .UNIT                                         VALUE :DESCRIPTION
#------------------------------------------------------------------------------
STRT        .FT                                            1876 :START DEPTH
STOP        .FT                                            8575 :STOP DEPTH
STEP        .FT                                             0.5 :STEP      
NULL        .                                           -999.25 :NULL      
COMP        .                                      L G D C CORP :COMPANY   
WELL        .                                          GARTH CO :WELL      
FLD         .                                       CHEEK SOUTH :FIELD     
LOC         .                                                   :LOCATION  
CNTY        .                                         JEFFERSON :LOCATION  
STAT        .                                             TEXAS :STATE     
CTRY        .                                     UNITED STATES :COUNTRY   
SRVC        .                                                   :SERVICE COMPANY
DATE        .                             9/13/2023 11:18:46 AM :LOG DATE  
API         .                                    42245322600000 :API NUMBER
UWI         .                                    42245322600000 :UNIQUE WELL ID
XCOORD      .                                  1261779.14844878 :SURFACE X 
YCOORD      .                                  10885364.2183051 :SURFACE Y 
LAT         .                                        29.9878888 :LATITUDE  
LON         .                                       -94.1963831 :LONGITUDE 
ELEV        .FT                                            39.9 :ELEVATION VALUE
ELEV_TYPE   .                                                KB :ELEVATION REFERENCE TYPE
~Curve Information Section
#MNEM       .UNIT                                      API CODE :CURVE DESCRIPTION
#------------------------------------------------------------------------------
DEPT        .FT                                                 :DEPTH     
AT10        .OHMM                                               :          
AT30        .OHMM                                               :          
AT60        .OHMM                                               :          
AT90        .OHMM                                               :          
DCAL        .IN                                                 :          
DPSS        .V/V                                                :          
DRHO        .G/CM3                                              :          
GR          .GAPI                                               :          
GR_NORM     .GAPI                                               :GammaRay Normalized
NPSS        .V/V                                                :Neutron Porosity Sandstone
SP          .MV                                                 :          
SP_NORM     .MV                                                 :SP Normalized
TENS        .LB                                                 :          
VSH_GR      .V/V                                                :Volume of Shale from GR
VSH_SP      .V/V                                                :Volume of Shale from SP
~A        DEPTH           AT10           AT30           AT60           AT90           DCAL           DPSS           DRHO             GR        GR_NORM           NPSS             SP        SP_NORM           TENS         VSH_GR         VSH_SP
# ...
      6840.0000         0.7073         0.7008          0.704         0.6846           0.22         0.2151          0.011        86.4266       81.25405         0.3535          -37.8     -0.5707626       3244.898              1              1
      6840.5000         0.7011         0.7011         0.7044          0.685            0.3         0.2247          0.011         86.274        81.0628         0.3774          -37.2     0.02661133       3244.898              1              1
      6841.0000         0.7047         0.7015         0.7047         0.6853           0.36         0.2445          0.008        85.5243       80.15264         0.3882          -36.4      0.8239822       3244.898              1              1
      6841.5000         0.7018         0.6986         0.7018         0.6824            0.4         0.2439          0.014        83.4291       77.62255         0.3834            -36       1.221355       3204.082       0.949416              1
      6842.0000         0.7021         0.6989         0.6956         0.6764            0.4         0.2386           0.02        81.6286       75.44727         0.3882          -36.2        1.01873       3204.082      0.9031333              1
      6842.5000         0.7024         0.6927         0.6895         0.6704           0.36         0.2333          0.023        81.9195       75.78998         0.3966            -37      0.2161026       3204.082      0.9104251              1
      6843.0000         0.7028         0.6866         0.6898         0.6707           0.32         0.2357          0.023        83.2595       77.39575         0.3966            -38     -0.7865257       3204.082      0.9445904              1
      6843.5000         0.6999         0.6648         0.6586         0.6404           0.28         0.2394          0.023        86.4015        81.1711         0.3864            -38     -0.7891541        3224.49              1              1
      6844.0000         0.6405         0.6199         0.6142         0.5973           0.24         0.2418          0.024          89.85       85.31547         0.3888          -36.8      0.4082222       3244.184              1              1
      6844.5000         0.6028         0.5946         0.5892         0.5733           0.22         0.2454          0.022             90       85.48853         0.3972          -35.6       1.605595       3242.917              1              1
      6845.0000         0.6028         0.5946         0.5892         0.5733           0.22          0.252          0.022           89.4       84.75861         0.3972          -34.8       2.402966       3241.652              1              1
      6845.5000         0.6028         0.5838         0.5785         0.5629           0.22         0.2556          0.023          86.25       80.95856          0.399          -34.8       2.400337       3240.389              1              1
      6846.0000         0.6028         0.6085         0.6028         0.5865           0.22         0.2538          0.024           81.9       75.71376         0.4074          -34.8       2.397713        3239.13      0.9088034              1
      6846.5000         0.6376         0.6466         0.6405         0.6228           0.22         0.2526          0.021          77.85       70.83013         0.4164          -35.6       1.595085       3237.873      0.8048964              1
      6847.0000         0.6775         0.6681         0.6618         0.6435           0.22         0.2466          0.023          75.45       67.93307         0.4074          -35.8       1.392456       3236.618      0.7432569              1
      6847.5000         0.7032         0.6838         0.6775         0.6588            0.2         0.2454          0.021          75.75       68.28672          0.396          -35.8       1.389828       3235.366      0.7507813              1
      6848.0000         0.7032         0.6838         0.6775         0.6588            0.2         0.2436          0.023          78.15       71.16872         0.3978          -35.4       1.787201       3234.116      0.8121005              1
      6848.5000         0.7196         0.7032         0.6967         0.6775           0.16         0.2436          0.021           80.7       74.23132         0.3984          -35.4       1.784573       3232.869      0.8772621              1
      6849.0000         0.7364         0.7196         0.7196            0.7           0.14         0.2412          0.019           82.8       76.75214         0.3756          -35.8       1.381947       3231.625      0.9308965              1
      6849.5000         0.7605         0.7364          0.733          0.713           0.12         0.2382          0.016             84       78.18937          0.357          -36.6      0.5793228       3230.383       0.961476              1
      6850.0000         0.7501         0.7296          0.733          0.713           0.12         0.2364          0.014          83.55       77.64005         0.3696            -37       0.176693        3269.44      0.9497883              1
      6850.5000         0.7364         0.7229         0.7263         0.7065           0.12         0.2322          0.012           83.4       77.45192         0.3972          -36.2      0.9740639       3268.163      0.9457855              1
      6851.0000         0.7466         0.7466         0.7398         0.7196           0.12         0.2316          0.016           81.9       75.63843         0.4074          -35.8       1.371437        3246.78      0.9072006              1
      6851.5000         0.8036         0.7818         0.7746         0.7535           0.12         0.2292          0.019          79.35       72.56075         0.4014          -35.8       1.368813       3225.439      0.8417181              1
      6852.0000          0.864         0.8146         0.8073         0.7854           0.12         0.2244          0.019           76.2       68.76071         0.3816          -35.8       1.366184        3224.21      0.7608662              1
      6852.5000          0.868         0.8258         0.8183         0.7963           0.12         0.2124          0.019        74.8473       67.12457           0.36          -35.8       1.363556       3222.983      0.7260545              1
      6853.0000         0.8109         0.7818         0.7746         0.7535           0.12         0.1986          0.019          75.75       68.20387          0.357          -36.4      0.7609253       3221.758      0.7490184              1
      6853.5000            0.8         0.7398          0.733          0.713           0.12         0.1968          0.021          79.95       73.25301          0.372          -37.6     -0.4416962       3200.528      0.8564471              1
      6854.0000         0.8071         0.7095          0.703         0.6837           0.12         0.2136          0.018             84       78.12157         0.3738          -38.8      -1.644325           3180      0.9600334       0.990925
      6854.5000         0.7599         0.6898         0.6833         0.6645           0.12         0.2286          0.014          87.15       81.90655         0.3702            -39      -1.846954           3180              1      0.9880711
      6855.0000         0.7596         0.6641          0.658         0.6398            0.1         0.2382           0.01           87.9         82.802         0.3684            -39      -1.849583           3220              1      0.9880341
      6855.5000         0.7593         0.6335         0.6277         0.6103           0.08         0.2394          0.008          84.75       79.00195         0.3636            -41      -3.852207           3220      0.9787648      0.9598281
      6856.0000         0.7554           0.61         0.6044          0.588           0.06         0.2424          0.005          79.95       73.21534         0.3564            -44      -6.854836           3220      0.8556455      0.9175375
      6856.5000         0.7277         0.5823          0.577         0.5615           0.06         0.2496          0.002           77.4       70.13769         0.3481          -44.8      -7.657463           3220      0.7901636      0.9062329
