#------------------------------------------------------------------------------
# Created by    : vladimir.rabinovich
# Created on    : 09/19/2023 17:20:51
#------------------------------------------------------------------------------
~Version Information Section
VERS.           2.0     :   CWLS log ASCII Standard - VERSION 2.0
WRAP.           NO      :   One line per depth step
~Well Information Section
#MNEM       .UNIT                                         VALUE :DESCRIPTION
#------------------------------------------------------------------------------
STRT        .FT                                             126 :START DEPTH
STOP        .FT                                           15000 :STOP DEPTH
STEP        .FT                                             0.5 :STEP      
NULL        .                                           -999.25 :NULL      
COMP        .                                    MOBIL OIL CORP :COMPANY   
WELL        .                                MCFADDIN TRUST BLK :WELL      
FLD         .                                           WILDCAT :FIELD     
LOC         .                                                   :LOCATION  
CNTY        .                                         JEFFERSON :LOCATION  
STAT        .                                             TEXAS :STATE     
CTRY        .                                     UNITED STATES :COUNTRY   
SRVC        .                                                   :SERVICE COMPANY
DATE        .                             9/13/2023 11:19:11 AM :LOG DATE  
API         .                                    42245029210000 :API NUMBER
UWI         .                                    42245029210000 :UNIQUE WELL ID
XCOORD      .                                  1288949.71304085 :SURFACE X 
YCOORD      .                                  10768198.0929689 :SURFACE Y 
LAT         .                                        29.6663916 :LATITUDE  
LON         .                                       -94.1069885 :LONGITUDE 
ELEV        .FT                                              20 :ELEVATION VALUE
ELEV_TYPE   .                                                DF :ELEVATION REFERENCE TYPE
~Curve Information Section
#MNEM       .UNIT                                      API CODE :CURVE DESCRIPTION
#------------------------------------------------------------------------------
DEPT        .FT                                                 :DEPTH     
ASN         .OHMM                                               :          
LAT         .OHMM                                               :          
LN          .OHMM                                               :          
SN          .OHMM                                               :          
SP          .MV                                                 :          
SP_NORM     .MV                                                 :SP Normalized
VSH_SP      .V/V                                                :Volume of Shale from SP
~A        DEPTH            ASN            LAT             LN             SN             SP        SP_NORM         VSH_SP
# ...
     10008.5000         0.3323         0.4088         0.3467         0.3621       -31.4026      -1.964174      0.9821449
     10009.0000         0.3322         0.4103          0.348         0.3633       -31.3976      -1.958609       0.982248
     10009.5000          0.332         0.4118         0.3494         0.3645       -31.4256      -1.986042      0.9817399
     10010.0000         0.3319         0.4132         0.3494         0.3657       -31.4768      -2.036678      0.9808022
     10010.5000         0.3317         0.4147         0.3489         0.3669       -31.5397       -2.09901      0.9796479
     10011.0000         0.3316         0.4162         0.3485         0.3674       -31.8079      -2.366644      0.9746918
     10011.5000         0.3315         0.4177          0.348         0.3658       -32.0794      -2.637577      0.9696745
     10012.0000         0.3313         0.4185         0.3475         0.3642       -32.3542      -2.911812      0.9645961
     10012.5000         0.3312         0.4178         0.3471         0.3626       -32.6291      -3.186148      0.9595158
     10013.0000          0.331         0.4171         0.3466          0.361       -32.9261      -3.482582      0.9540263
     10013.5000         0.3309         0.4163         0.3461         0.3594       -32.9875      -3.543413      0.9528998
     10014.0000         0.3307         0.4156         0.3456         0.3578       -32.9825      -3.537848      0.9530028
     10014.5000         0.3306         0.4148         0.3452         0.3562       -32.9775      -3.532284      0.9531059
     10015.0000         0.3304         0.4141         0.3447         0.3547       -32.9611      -3.515318        0.95342
     10015.5000         0.3303         0.4134         0.3442         0.3553       -32.8126      -3.366251      0.9561805
     10016.0000         0.3302         0.4126         0.3437          0.356       -32.6641      -3.217186       0.958941
     10016.5000           0.33         0.4119         0.3433         0.3566       -32.5156      -3.068117      0.9617015
     10017.0000         0.3299         0.4112         0.3428         0.3572        -32.367      -2.918953      0.9644638
     10017.5000         0.3297         0.4104         0.3428         0.3579       -32.2185      -2.769886      0.9672244
     10018.0000         0.3296         0.4097          0.343         0.3585       -32.0067       -2.55752       0.971157
     10018.5000         0.3296          0.409         0.3433         0.3591       -31.7579      -2.308155      0.9757749
     10019.0000         0.3298         0.4082         0.3435         0.3597       -31.5091       -2.05879      0.9803928
     10019.5000           0.33         0.4075         0.3438         0.3604       -31.2604      -1.809525      0.9850088
     10020.0000         0.3303         0.4067         0.3441          0.361       -30.9633      -1.511858      0.9905211
     10020.5000         0.3305          0.406         0.3443         0.3616       -30.6285      -1.176491      0.9967316
     10021.0000         0.3308         0.4053         0.3446         0.3623       -30.2942     -0.8416271              1
     10021.5000          0.331         0.4045         0.3448         0.3629       -29.9599     -0.5067596              1
     10022.0000         0.3313         0.4038         0.3451         0.3636       -29.6007     -0.1469936              1
     10022.5000         0.3315         0.4031         0.3453         0.3652       -29.4063     0.04797173              1
     10023.0000         0.3318         0.4023         0.3456         0.3668       -29.5974     -0.1425629              1
     10023.5000          0.332         0.4016         0.3458         0.3684       -29.7886     -0.3331966              1
     10024.0000         0.3322         0.4009         0.3461           0.37       -29.9058     -0.4498291              1
     10024.5000         0.3332         0.3998         0.3464         0.3716       -30.0021     -0.5455647              1
     10025.0000         0.3344         0.3981         0.3466         0.3732       -30.0985     -0.6413975              1
     10025.5000         0.3357         0.3965         0.3468         0.3748       -30.1411     -0.6834316              1
     10026.0000         0.3369         0.3948         0.3471         0.3776       -30.0388     -0.5805645              1
     10026.5000         0.3381         0.3931         0.3473         0.3806       -29.9365     -0.4777012              1
     10027.0000         0.3394         0.3915         0.3476         0.3836       -29.8333     -0.3739338              1
     10027.5000         0.3406         0.3898         0.3478         0.3865       -29.7287     -0.2687683              1
     10028.0000         0.3418         0.3882         0.3481         0.3895       -29.6241     -0.1636028              1
     10028.5000         0.3431         0.3865         0.3483         0.3925       -29.5195    -0.05843735              1
     10029.0000         0.3443         0.3849         0.3486         0.3957       -29.4252     0.03643036              1
     10029.5000         0.3455         0.3832         0.3488         0.3989       -29.4677   -0.005502701              1
     10030.0000         0.3468         0.3816         0.3491         0.4022       -29.5104    -0.04763985              1
     10030.5000          0.348         0.3799         0.3493         0.4055        -29.553    -0.08967209              1
     10031.0000         0.3507         0.3782         0.3495         0.4088       -29.5956     -0.1317062              1
     10031.5000         0.3534         0.3766         0.3498          0.412       -29.6612     -0.1967411              1
     10032.0000         0.3561          0.375         0.3498         0.4155       -29.7431     -0.2780743              1
     10032.5000         0.3588         0.3742         0.3498         0.4189        -29.825     -0.3594093              1
     10033.0000         0.3615         0.3735         0.3498         0.4224       -29.9069     -0.4407425              1
     10033.5000         0.3642         0.3727         0.3498         0.4258       -29.9284     -0.4616776              1
     10034.0000         0.3669          0.372         0.3498         0.4289       -29.8887     -0.4214115              1
     10034.5000         0.3696         0.3712         0.3498         0.4319        -29.849     -0.3811455              1
     10035.0000         0.3723         0.3704         0.3498         0.4349       -29.8092     -0.3407803              1
     10035.5000         0.3752         0.3697         0.3498         0.4376        -29.732     -0.2630138              1
     10036.0000         0.3781         0.3689         0.3498         0.4363       -29.5999     -0.1303463              1
     10036.5000         0.3809         0.3682         0.3498         0.4349       -29.4677    0.002420425              1
     10037.0000         0.3838         0.3674         0.3498         0.4335       -29.3358      0.1348839              1
     10037.5000         0.3867         0.3667         0.3498         0.4321       -29.2036      0.2676506              1
     10038.0000         0.3896         0.3659         0.3498         0.4295       -29.1083      0.3635178              1
     10038.5000         0.3925         0.3651         0.3498         0.4251       -29.0157      0.4566841              1
     10039.0000         0.3948         0.3644         0.3499         0.4207        -28.923      0.5499477              1
     10039.5000         0.3966         0.3641         0.3511         0.4162       -28.8304      0.6431141              1
     10040.0000         0.3984         0.3644         0.3523          0.415       -28.7465       0.727581              1
     10040.5000         0.4003         0.3646         0.3536         0.4172       -28.7799       0.694746              1
     10041.0000         0.4021         0.3648         0.3548         0.4193       -28.8133      0.6619129              1
     10041.5000         0.4039          0.365         0.3561         0.4215       -28.8468      0.6289787              1
