#------------------------------------------------------------------------------
# Created by    : vladimir.rabinovich
# Created on    : 09/19/2023 17:20:51
#------------------------------------------------------------------------------
~Version Information Section
VERS.           2.0     :   CWLS log ASCII Standard - VERSION 2.0
WRAP.           NO      :   One line per depth step
~Well Information Section
#MNEM       .UNIT                                         VALUE :DESCRIPTION
#------------------------------------------------------------------------------
STRT        .FT                                             126 :START DEPTH
STOP        .FT                                           15000 :STOP DEPTH
STEP        .FT                                             0.5 :STEP      
NULL        .                                           -999.25 :NULL      
COMP        .                                    MOBIL OIL CORP :COMPANY   
WELL        .                                MCFADDIN TRUST BLK :WELL      
FLD         .                                           WILDCAT :FIELD     
LOC         .                                                   :LOCATION  
CNTY        .                                         JEFFERSON :LOCATION  
STAT        .                                             TEXAS :STATE     
CTRY        .                                     UNITED STATES :COUNTRY   
SRVC        .                                                   :SERVICE COMPANY
DATE        .                             9/13/2023 11:19:11 AM :LOG DATE  
API         .                                    42245029210000 :API NUMBER
UWI         .                                    42245029210000 :UNIQUE WELL ID
XCOORD      .                                  1288949.71304085 :SURFACE X 
YCOORD      .                                  10768198.0929689 :SURFACE Y 
LAT         .                                        29.6663916 :LATITUDE  
LON         .                                       -94.1069885 :LONGITUDE 
ELEV        .FT                                              20 :ELEVATION VALUE
ELEV_TYPE   .                                                DF :ELEVATION REFERENCE TYPE
~Curve Information Section
#MNEM       .UNIT                                      API CODE :CURVE DESCRIPTION
#------------------------------------------------------------------------------
DEPT        .FT                                                 :DEPTH     
ASN         .OHMM                                               :          
LAT         .OHMM                                               :          
LN          .OHMM                                               :          
SN          .OHMM                                               :          
SP          .MV                                                 :          
SP_NORM     .MV                                                 :SP Normalized
VSH_SP      .V/V                                                :Volume of Shale from SP
~A        DEPTH            ASN            LAT             LN             SN             SP        SP_NORM         VSH_SP
# ...
     12990.0000         0.8624         0.6154         0.4346         0.3851       -25.6238       1.536694              1
     12990.5000         0.8681         0.6022         0.4347         0.3895        -26.148       1.012493              1
     12991.0000         0.8739          0.589         0.4336         0.3941       -25.9909       1.169594              1
     12991.5000         0.8794         0.5758         0.4325          0.399       -25.8182       1.342295              1
     12992.0000         0.8841         0.5703         0.4314         0.4039       -25.6458       1.514694              1
     12992.5000         0.8887         0.5648         0.4303         0.4088       -25.4734       1.687094              1
     12993.0000         0.8934         0.5593         0.4293         0.4137       -25.3007       1.859795              1
     12993.5000         0.8952         0.5539         0.4282         0.4137       -25.0624       2.098093              1
     12994.0000         0.8939         0.5484         0.4271         0.4133       -24.7831       2.377394              1
     12994.5000         0.8925         0.5429          0.426         0.4129       -24.5038       2.656694              1
     12995.0000         0.8862         0.5385         0.4249         0.4125       -24.2479       2.912594              1
     12995.5000         0.8793         0.5436         0.4238         0.4121       -24.4778       2.682693              1
     12996.0000         0.8725         0.5487         0.4228         0.4077       -24.7082       2.452293              1
     12996.5000         0.8656         0.5537         0.4219         0.4028       -24.9381       2.222393              1
     12997.0000          0.859         0.5588         0.4209         0.3978        -25.168       1.992495              1
     12997.5000         0.8527         0.5639         0.4199         0.3929       -25.4195       1.740993              1
     12998.0000         0.8463         0.5689          0.419         0.3877       -25.7016       1.458895              1
     12998.5000         0.8399          0.574          0.418         0.3824       -25.9836       1.176893              1
     12999.0000         0.8343          0.579          0.417         0.3771       -26.2652      0.8952942              1
     12999.5000         0.8315          0.584          0.416         0.3718       -26.4719      0.6885929              1
     13000.0000         0.8349         0.5887         0.4151         0.3693       -26.5599      0.6005936              1
     13000.5000         0.8466         0.5935         0.4141         0.3713        -26.648      0.5124931              1
     13001.0000         0.8584         0.5982         0.4131         0.3733        -26.736      0.4244938              1
     13001.5000          0.866         0.6029         0.4122         0.3752       -26.8242      0.3362942              1
     13002.0000         0.8727         0.6076         0.4112         0.3772       -26.9122      0.2482929              1
     13002.5000         0.8793         0.6114         0.4106         0.3839       -26.9257      0.2347946              1
     13003.0000         0.8859         0.6042         0.4109         0.3906       -26.9374       0.223093              1
     13003.5000         0.8925         0.5969         0.4113         0.3974       -26.9492      0.2112942              1
     13004.0000          0.898         0.5897         0.4116          0.404       -26.9401      0.2203941              1
     13004.5000          0.898         0.5824         0.4119         0.4087       -26.8751      0.2853947              1
     13005.0000          0.898         0.5752         0.4123         0.4134       -26.8102      0.3502941              1
     13005.5000          0.897          0.569         0.4126         0.4181       -26.7452      0.4152946              1
     13006.0000         0.8929         0.5673          0.413         0.4227         -26.67      0.4904938              1
     13006.5000         0.8887         0.5656         0.4133         0.4215       -26.5865      0.5739937              1
     13007.0000         0.8848         0.5639         0.4136         0.4203       -26.5031      0.6573944              1
     13007.5000         0.8803         0.5622          0.414         0.4191       -26.4197      0.7407932              1
     13008.0000         0.8691         0.5605         0.4143         0.4179       -26.3362      0.8242931              1
     13008.5000         0.8615         0.5605         0.4146         0.4151       -26.2878       0.872694              1
     13009.0000         0.8572         0.5713          0.415         0.4107       -26.2439      0.9165936              1
     13009.5000         0.8583         0.5821         0.4157         0.4064       -26.2001      0.9603939              1
     13010.0000         0.8689         0.5929         0.4169         0.4021       -26.1562       1.004293              1
     13010.5000         0.8795         0.6037          0.418         0.3978       -26.2017      0.9587936              1
     13011.0000         0.8871         0.6145         0.4192          0.394       -26.2488      0.9116936              1
     13011.5000         0.8943         0.6216         0.4204          0.392        -26.296      0.8644943              1
     13012.0000         0.9015         0.6247         0.4215           0.39       -26.3372      0.8232937              1
     13012.5000         0.9056         0.6264         0.4227          0.388       -26.3083      0.8521938              1
     13013.0000         0.9074         0.6191         0.4239          0.386       -26.2795      0.8809948              1
     13013.5000         0.9091         0.6119          0.425         0.3879       -26.2506       0.909893              1
     13014.0000         0.9109         0.6046         0.4262          0.391       -26.0792       1.081293              1
     13014.5000         0.9126         0.6006         0.4274         0.3941       -25.8632       1.297295              1
     13015.0000         0.9134          0.608         0.4285         0.3972       -25.6472       1.513294              1
     13015.5000         0.9141         0.6154         0.4297         0.3985       -25.4312       1.729294              1
     13016.0000         0.9149         0.6228         0.4296         0.3995       -25.1818       1.978693              1
     13016.5000         0.9157         0.6301         0.4286         0.4005       -24.9153       2.245193              1
     13017.0000         0.9164         0.6373         0.4276         0.4016       -24.6488       2.511694              1
     13017.5000         0.9129         0.6441         0.4267         0.4026       -24.3828       2.777695              1
     13018.0000         0.9035         0.6509         0.4257         0.4022       -24.1163       3.044193              1
     13018.5000          0.894         0.6577         0.4247         0.3998       -23.8653       3.295195              1
     13019.0000         0.8848         0.6644         0.4238         0.3974       -23.6143       3.546194              1
     13019.5000         0.8762         0.6712         0.4228         0.3949       -23.3639       3.796595              1
     13020.0000         0.8676         0.6704         0.4218         0.3925       -23.1129       4.047594              1
     13020.5000         0.8591         0.6616         0.4209         0.3905        -23.084       4.076494              1
     13021.0000         0.8519         0.6528         0.4199         0.3894       -23.4994       3.661095              1
     13021.5000         0.8446          0.644         0.4196         0.3882       -23.9147       3.245794              1
     13022.0000         0.8419         0.6352         0.4195         0.3871       -24.3734       2.787094              1
     13022.5000         0.8432         0.6264         0.4195          0.386       -24.8342       2.326294              1
     13023.0000         0.8519         0.6176         0.4194         0.3889        -25.294       1.866493              1
