#------------------------------------------------------------------------------
# Created by    : vladimir.rabinovich
# Created on    : 09/19/2023 17:22:02
#------------------------------------------------------------------------------
~Version Information Section
VERS.           2.0     :   CWLS log ASCII Standard - VERSION 2.0
WRAP.           NO      :   One line per depth step
~Well Information Section
#MNEM       .UNIT                                         VALUE :DESCRIPTION
#------------------------------------------------------------------------------
STRT        .FT                                          2944.5 :START DEPTH
STOP        .FT                                           12030 :STOP DEPTH
STEP        .FT                                             0.5 :STEP      
NULL        .                                           -999.25 :NULL      
COMP        .                                  SAMEDAN OIL CORP :COMPANY   
WELL        .                                         ROBERTSON :WELL      
FLD         .                                     HAMSHIRE WEST :FIELD     
LOC         .                                                   :LOCATION  
CNTY        .                                         JEFFERSON :LOCATION  
STAT        .                                             TEXAS :STATE     
CTRY        .                                     UNITED STATES :COUNTRY   
SRVC        .                                                   :SERVICE COMPANY
DATE        .                             9/13/2023 11:18:46 AM :LOG DATE  
API         .                                    42245321120000 :API NUMBER
UWI         .                                    42245321120000 :UNIQUE WELL ID
XCOORD      .                                  1214919.43989532 :SURFACE X 
YCOORD      .                                  10839736.7579652 :SURFACE Y 
LAT         .                                        29.8609813 :LATITUDE  
LON         .                                       -94.3427285 :LONGITUDE 
ELEV        .FT                                              38 :ELEVATION VALUE
ELEV_TYPE   .                                                KB :ELEVATION REFERENCE TYPE
~Curve Information Section
#MNEM       .UNIT                                      API CODE :CURVE DESCRIPTION
#------------------------------------------------------------------------------
DEPT        .FT                                                 :DEPTH     
CALI        .IN                                                 :          
DPSS        .%                                                  :          
DRHO        .G/CM3                                              :          
GR          .GAPI                                               :          
GR_NORM     .GAPI                                               :GammaRay Normalized
ILD         .OHMM                                               :          
ILM         .OHMM                                               :          
NPSS        .%                                                  :Neutron Porosity Sandstone
SGRD        .OHMM                                               :          
SP          .MV                                                 :          
SP_NORM     .MV                                                 :SP Normalized
TENS        .LB                                                 :          
VSH_GR      .V/V                                                :Volume of Shale from GR
VSH_SP      .V/V                                                :Volume of Shale from SP
~A        DEPTH           CALI           DPSS           DRHO             GR        GR_NORM            ILD            ILM           NPSS           SGRD             SP        SP_NORM           TENS         VSH_GR         VSH_SP
# ...
     11998.5000        11.3657        25.7143        -999.25        -999.25        -999.25         1.3364         1.4565        36.9168        -999.25        -999.25       1.165118       4335.661        -999.25              1
     11999.0000        11.3647        25.7755        -999.25        -999.25        -999.25         1.3364         1.4697        36.9783        -999.25        -999.25       1.062674       4294.529        -999.25              1
     11999.5000        11.3637        25.8367        -999.25        -999.25        -999.25         1.3303         1.4898        36.7953        -999.25        -999.25      0.9602312       4213.007        -999.25              1
     12000.0000        11.3627         26.449        -999.25        -999.25        -999.25         1.3364         1.5309        36.3673        -999.25       -77.9998      0.8577881       4293.215        -999.25              1
     12000.5000        11.3622        26.6948        -999.25        -999.25        -999.25         1.3725         1.6014        -999.25        -999.25            -78       0.870575       4394.345        -999.25              1
     12001.0000        11.3622        26.3906        -999.25        -999.25        -999.25         1.4482         1.7214        -999.25        -999.25            -78      0.8835602       4496.151        -999.25              1
     12001.5000        11.3622        26.1479        -999.25        -999.25        -999.25         1.5285         1.8594        -999.25        -999.25          -79.6     -0.7034531       4577.753        -999.25              1
     12002.0000        11.3622        25.9054        -999.25        -999.25        -999.25         1.6136         1.9909        -999.25        -999.25          -82.6      -3.690468       4659.514        -999.25        0.96977
     12002.5000        11.3622        25.7243        -999.25        -999.25        -999.25         1.6961         2.1124        -999.25        -999.25          -83.2      -4.277481       4599.616        -999.25      0.9631743
     12003.0000        11.3622        25.7265        -999.25        -999.25        -999.25           1.68         2.1124        -999.25        -999.25          -83.2      -4.264496       4559.915        -999.25      0.9633203
     12003.5000        11.3622        25.8507        -999.25        -999.25        -999.25         1.6186         2.0275        -999.25        -999.25          -83.2      -4.251511       4540.443        -999.25      0.9634662
     12004.0000        11.3622        26.0966        -999.25        -999.25        -999.25         1.5883         1.9187        -999.25        -999.25          -82.8      -3.838531       4500.672        -999.25      0.9681064
     12004.5000        11.3622        26.0376          0.136        -999.25        -999.25         1.5874         1.8235        -999.25        -999.25          -82.8      -3.825546        4481.15        -999.25      0.9682523
     12005.0000        11.3622        25.9787          0.136        -999.25        -999.25         1.5865         1.7325        -999.25        -999.25          -82.4       -3.41256       4461.609        -999.25      0.9728926
     12005.5000        11.3418        25.7981          0.135        -999.25        -999.25         1.5857         1.6765        -999.25        -999.25          -81.8      -2.799576       4442.047        -999.25        0.97978
     12006.0000        11.3418        25.8002          0.136        -999.25        -999.25         1.5922         1.6221        -999.25        -999.25          -82.4      -3.387657       4544.396        -999.25      0.9731724
     12006.5000        11.3418        25.9241          0.139        -999.25        -999.25         1.5988         1.5619        -999.25        -999.25          -82.4      -3.387657       4626.435        -999.25      0.9731724
     12007.0000        11.3418        26.0478          0.139        -999.25        -999.25         1.6129         1.5038        -999.25        -999.25          -82.4      -3.387657        4627.27        -999.25      0.9731724
     12007.5000        11.3418        26.2321          0.137        -999.25        -999.25         1.6198          1.434        -999.25        -999.25          -82.6      -3.587654       4628.106        -999.25      0.9709252
     12008.0000        11.3418        26.2948          0.136        -999.25        -999.25         1.5963         1.3996        -999.25        -999.25          -82.4      -3.387657       4628.944        -999.25      0.9731724
     12008.5000        11.3418        26.2358          0.136        -999.25        -999.25         1.5879         1.3984        -999.25        -999.25          -82.4      -3.387657       4650.155        -999.25      0.9731724
     12009.0000        11.3418        26.1163          0.136        -999.25        -999.25         1.5871         1.3906        -999.25        -999.25            -82      -2.987656       4651.004        -999.25      0.9776668
     12009.5000        11.3418         25.997          0.136        -999.25        -999.25         1.5862         1.3828        -999.25        -999.25          -82.2      -3.187653       4651.854        -999.25      0.9754196
     12010.0000        11.3418         25.997          0.136        -999.25        -999.25         1.5853         1.3751        -999.25        -999.25          -82.6      -3.587654       4591.492        -999.25      0.9709252
     12010.5000        -999.25        -999.25        -999.25        -999.25        -999.25         1.5849        -999.25        -999.25        -999.25       -83.2051      -4.192757       4531.209        -999.25      0.9641263
     12011.0000        -999.25        -999.25        -999.25        -999.25        -999.25         1.5924        -999.25        -999.25        -999.25       -83.0152      -4.002853       4471.018        -999.25      0.9662601
     12011.5000        -999.25        -999.25        -999.25        -999.25        -999.25         1.5924        -999.25        -999.25        -999.25       -82.6253      -3.612953       4410.723        -999.25       0.970641
     12012.0000        -999.25        -999.25        -999.25        -999.25        -999.25         1.5924        -999.25        -999.25        -999.25       -82.4354      -3.423058        4370.94        -999.25      0.9727746
     12012.5000        -999.25        -999.25        -999.25        -999.25        -999.25         1.5924        -999.25        -999.25        -999.25       -82.4455      -3.433159       4371.976        -999.25      0.9726611
     12013.0000        -999.25        -999.25        -999.25        -999.25        -999.25         1.5924        -999.25        -999.25        -999.25       -82.0556      -3.043259       4311.785        -999.25       0.977042
     12013.5000        -999.25        -999.25        -999.25        -999.25        -999.25         1.5924        -999.25        -999.25        -999.25       -82.0657      -3.053352       4251.593        -999.25      0.9769287
     12014.0000        -999.25        -999.25        -999.25        -999.25        -999.25         1.5924        -999.25        -999.25        -999.25       -81.6758      -2.663452       4191.401        -999.25      0.9813095
     12014.5000        -999.25        -999.25        -999.25        -999.25        -999.25         1.5924        -999.25        -999.25        -999.25       -81.6859      -2.673553       4131.209        -999.25       0.981196
     12015.0000        -999.25        -999.25        -999.25        -999.25        -999.25         1.5924        -999.25        -999.25        -999.25        -81.696      -2.683655       4071.018        -999.25      0.9810826
     12015.5000        -999.25        -999.25        -999.25        -999.25        -999.25         1.5924        -999.25        -999.25        -999.25       -81.7051      -2.692757       4010.723        -999.25      0.9809803
     12016.0000        -999.25        -999.25        -999.25        -999.25        -999.25         1.5924        -999.25        -999.25        -999.25       -81.5152      -2.502853       3930.122        -999.25       0.983114
