#------------------------------------------------------------------------------
# Created by    : vladimir.rabinovich
# Created on    : 09/19/2023 17:20:51
#------------------------------------------------------------------------------
~Version Information Section
VERS.           2.0     :   CWLS log ASCII Standard - VERSION 2.0
WRAP.           NO      :   One line per depth step
~Well Information Section
#MNEM       .UNIT                                         VALUE :DESCRIPTION
#------------------------------------------------------------------------------
STRT        .FT                                             126 :START DEPTH
STOP        .FT                                           15000 :STOP DEPTH
STEP        .FT                                             0.5 :STEP      
NULL        .                                           -999.25 :NULL      
COMP        .                                    MOBIL OIL CORP :COMPANY   
WELL        .                                MCFADDIN TRUST BLK :WELL      
FLD         .                                           WILDCAT :FIELD     
LOC         .                                                   :LOCATION  
CNTY        .                                         JEFFERSON :LOCATION  
STAT        .                                             TEXAS :STATE     
CTRY        .                                     UNITED STATES :COUNTRY   
SRVC        .                                                   :SERVICE COMPANY
DATE        .                             9/13/2023 11:19:11 AM :LOG DATE  
API         .                                    42245029210000 :API NUMBER
UWI         .                                    42245029210000 :UNIQUE WELL ID
XCOORD      .                                  1288949.71304085 :SURFACE X 
YCOORD      .                                  10768198.0929689 :SURFACE Y 
LAT         .                                        29.6663916 :LATITUDE  
LON         .                                       -94.1069885 :LONGITUDE 
ELEV        .FT                                              20 :ELEVATION VALUE
ELEV_TYPE   .                                                DF :ELEVATION REFERENCE TYPE
~Curve Information Section
#MNEM       .UNIT                                      API CODE :CURVE DESCRIPTION
#------------------------------------------------------------------------------
DEPT        .FT                                                 :DEPTH     
ASN         .OHMM                                               :          
LAT         .OHMM                                               :          
LN          .OHMM                                               :          
SN          .OHMM                                               :          
SP          .MV                                                 :          
SP_NORM     .MV                                                 :SP Normalized
VSH_SP      .V/V                                                :Volume of Shale from SP
~A        DEPTH            ASN            LAT             LN             SN             SP        SP_NORM         VSH_SP
# ...
      6055.5000         0.5305         0.4768         0.3114         0.5982       -59.6876      -24.38699      0.4561164
      6056.0000          0.512         0.4432         0.3032         0.5883       -64.2699      -28.97781      0.3493532
      6056.5000         0.4971         0.4281         0.2949         0.5783       -67.1251      -31.84153       0.282755
      6057.0000         0.4823         0.4131          0.287         0.5684       -69.7325      -34.45745      0.2219197
      6057.5000         0.4646         0.3981         0.2815         0.5585       -72.1984      -36.93188      0.1643749
      6058.0000         0.4258          0.383         0.2761         0.5465       -74.3856      -39.12759      0.1133118
      6058.5000         0.4018          0.368         0.2706         0.5274       -76.0963      -40.84681     0.07332993
      6059.0000         0.3804         0.3529         0.2652         0.5083       -77.2728      -42.03183     0.04577131
      6059.5000         0.3656         0.3398         0.2597         0.4891       -78.3411      -43.10866     0.02072889
      6060.0000         0.3508         0.3395         0.2556         0.4719       -79.3086      -44.08467              0
      6060.5000         0.3365         0.3393         0.2564         0.4575       -80.1368       -44.9214              0
      6061.0000         0.3226          0.339         0.2572         0.4431       -80.6001      -45.39321              0
      6061.5000         0.3099         0.3387          0.258         0.4287       -81.0629      -45.86453              0
      6062.0000         0.2992         0.3384         0.2588         0.4097       -80.9727      -45.78286              0
      6062.5000         0.2915         0.3381         0.2596         0.3895       -80.6908      -45.50948              0
      6063.0000         0.3009         0.3379         0.2604         0.3694       -80.1545       -44.9817              0
      6063.5000         0.3102         0.3378         0.2612         0.3501       -79.6177      -44.45341              0
      6064.0000         0.3195         0.3477         0.2619         0.3355         -79.13      -43.97423   0.0005992623
      6064.5000         0.3289         0.3575         0.2617          0.321       -78.7341      -43.58686     0.00960798
      6065.0000         0.3319         0.3674         0.2598         0.3064       -78.3383      -43.19958     0.01861448
      6065.5000         0.3187         0.3745         0.2578         0.2973       -78.4875       -43.3573     0.01494661
      6066.0000         0.3042         0.3802         0.2558         0.2976       -78.6401      -43.51841     0.01119968
      6066.5000          0.286          0.386         0.2538         0.2979       -78.7927      -43.67953    0.007452677
      6067.0000         0.2678         0.3918         0.2518         0.2982       -78.9611      -43.85645    0.003338304
      6067.5000         0.2497         0.3976         0.2499         0.2985       -79.1527      -44.05658              0
      6068.0000         0.2316         0.4041         0.2478         0.2962       -79.1185       -44.0309              0
      6068.5000         0.2201         0.4114         0.2451          0.294       -78.9344      -43.85532     0.00336474
      6069.0000         0.2105         0.4186         0.2424         0.2907       -78.7501      -43.67953    0.007452677
      6069.5000         0.2065         0.4258         0.2396         0.2844       -78.4482      -43.38615     0.01427557
      6070.0000         0.2042         0.4331         0.2369         0.2782       -77.9982      -42.94468     0.02454243
      6070.5000         0.2019         0.4403         0.2341         0.2719       -77.5487      -42.50369     0.03479785
      6071.0000         0.1996         0.4543         0.2314         0.2677       -77.1313      -42.09481     0.04430664
      6071.5000         0.2033         0.4772         0.2286         0.2656       -76.7172      -41.68924     0.05373871
      6072.0000         0.2085            0.5         0.2278         0.2635       -76.3031      -41.28365     0.06317086
      6072.5000         0.2136         0.5229         0.2354         0.2622       -75.5223      -40.51138      0.0811308
      6073.0000         0.2188         0.5457          0.243         0.2615       -74.7262      -39.72379     0.09944677
      6073.5000         0.2239         0.5685         0.2506         0.2609        -73.731      -38.73712      0.1223926
      6074.0000         0.2309         0.5914         0.2582         0.2603       -72.6198      -37.63443      0.1480365
      6074.5000         0.2417         0.5952         0.2658         0.2569         -71.64      -36.66315      0.1706243
      6075.0000         0.2525         0.5931         0.2729         0.2545       -70.7797      -35.81137      0.1904331
      6075.5000         0.2633         0.5909         0.2747         0.2606       -69.9404      -34.98059      0.2097536
      6076.0000         0.2675         0.5801         0.2765         0.2666       -69.1741      -34.22282      0.2273764
      6076.5000         0.2623         0.5635         0.2783         0.2726       -68.4089      -33.46613      0.2449737
      6077.0000         0.2539         0.5468         0.2801         0.2786       -68.4122      -33.47795      0.2446987
      6077.5000         0.2455         0.5301         0.2819          0.279       -68.5255      -33.59977      0.2418658
      6078.0000         0.2372         0.5134         0.2838         0.2784       -68.7365       -33.8193      0.2367605
      6078.5000         0.2288         0.4968         0.2862         0.2777       -69.0521      -34.14341      0.2292229
      6079.0000         0.2205         0.4801         0.2886         0.2768       -69.2551      -34.35493      0.2243039
      6079.5000         0.2123         0.4634          0.291         0.2728       -69.1608      -34.26915      0.2262988
      6080.0000         0.2041         0.4488         0.2934         0.2689       -69.0872      -34.20407      0.2278123
      6080.5000         0.1963         0.4402         0.2958         0.2649       -69.0227      -34.14809      0.2291142
      6081.0000            0.2         0.4316         0.2998          0.261       -68.9581      -34.09201      0.2304183
      6081.5000         0.2037          0.423         0.3085         0.2649       -68.9139      -34.05634       0.231248
      6082.0000         0.2103         0.4144         0.3171         0.2693       -69.0134      -34.16435      0.2287361
      6082.5000         0.2202         0.4058         0.3258         0.2748       -69.1129      -34.27237      0.2262239
      6083.0000           0.23         0.4084         0.3374         0.2818       -69.2124      -34.38039      0.2237118
      6083.5000         0.2399         0.4121          0.371         0.2889       -69.3711      -34.54762      0.2198229
      6084.0000         0.2548         0.4158         0.4046         0.2982       -69.5509      -34.73594      0.2154434
      6084.5000         0.2733         0.4195         0.4436         0.3145       -69.7308      -34.92435      0.2110616
      6085.0000         0.2927         0.4232         0.4866         0.3308       -69.9106      -35.11267      0.2066821
      6085.5000         0.3213          0.427         0.5295         0.3472        -69.916      -35.12659      0.2063583
      6086.0000         0.3608         0.4307           0.58         0.3761       -68.8523      -34.07141      0.2308973
      6086.5000         0.4329         0.4344         0.6321         0.4066       -67.3883      -32.61593      0.2647457
      6087.0000         0.4926          0.446         0.6831         0.4873       -65.5681      -30.80425      0.3068779
      6087.5000         0.5157         0.4593         0.7195         0.5507       -63.5004      -28.74507      0.3547658
      6088.0000         0.5376         0.4727         0.7559          0.621       -55.9346      -21.18779      0.5305164
      6088.5000         0.6498         0.4861         0.7817         0.7028        -52.217      -17.47871      0.6167742
