#------------------------------------------------------------------------------
# Created by    : vladimir.rabinovich
# Created on    : 09/19/2023 17:22:42
#------------------------------------------------------------------------------
~Version Information Section
VERS.           2.0     :   CWLS log ASCII Standard - VERSION 2.0
WRAP.           NO      :   One line per depth step
~Well Information Section
#MNEM       .UNIT                                         VALUE :DESCRIPTION
#------------------------------------------------------------------------------
STRT        .FT                                             932 :START DEPTH
STOP        .FT                                            7546 :STOP DEPTH
STEP        .FT                                             0.5 :STEP      
NULL        .                                           -999.25 :NULL      
COMP        .                   SUN EXPLORATION & PRODUCTION CO :COMPANY   
WELL        .                                BROUSSARD & HEBERT :WELL      
FLD         .                                          LA BELLE :FIELD     
LOC         .                                                   :LOCATION  
CNTY        .                                         JEFFERSON :LOCATION  
STAT        .                                             TEXAS :STATE     
CTRY        .                                     UNITED STATES :COUNTRY   
SRVC        .                                                   :SERVICE COMPANY
DATE        .                             9/13/2023 11:18:46 AM :LOG DATE  
API         .                                    42245319210000 :API NUMBER
UWI         .                                    42245319210000 :UNIQUE WELL ID
XCOORD      .                                  1279394.73540744 :SURFACE X 
YCOORD      .                                  10819915.3695329 :SURFACE Y 
LAT         .                                        29.8083786 :LATITUDE  
LON         .                                       -94.1386839 :LONGITUDE 
ELEV        .FT                                              23 :ELEVATION VALUE
ELEV_TYPE   .                                                KB :ELEVATION REFERENCE TYPE
~Curve Information Section
#MNEM       .UNIT                                      API CODE :CURVE DESCRIPTION
#------------------------------------------------------------------------------
DEPT        .FT                                                 :DEPTH     
DCAL        .IN                                                 :          
DPSS        .V/V                                                :          
DRHO        .G/CM3                                              :          
GR          .GAPI                                               :          
GR_NORM     .GAPI                                               :GammaRay Normalized
ILD         .OHMM                                               :          
ILM         .OHMM                                               :          
NPSS        .V/V                                                :Neutron Porosity Sandstone
SFL         .OHMM                                               :          
SP          .MV                                                 :          
SP_NORM     .MV                                                 :SP Normalized
TENS        .LB                                                 :          
VSH_GR      .V/V                                                :Volume of Shale from GR
VSH_SP      .V/V                                                :Volume of Shale from SP
~A        DEPTH           DCAL           DPSS           DRHO             GR        GR_NORM            ILD            ILM           NPSS            SFL             SP        SP_NORM           TENS         VSH_GR         VSH_SP
# ...
      6206.0000         -3.044         0.3406          0.028        77.9082        71.6853         0.5946         0.6376         0.5267         0.5578        -3.4699      -1.579409       3602.041      0.8230916      0.9921702
      6206.5000        -3.0436         0.3279          0.033        80.3571       74.63159         0.6287         0.6649         0.5048         0.5785         -5.255      -3.361744       3612.245      0.8857785      0.9680845
      6207.0000        -3.0431         0.3097         0.0438        80.5102       74.81265         0.6618         0.6935         0.4674         0.6935        -7.2413      -5.345278       3622.449      0.8896309        0.94128
      6207.5000        -3.0426         0.2958         0.0586        79.2857       73.33444         0.6967         0.7263         0.4428         0.8109        -9.4289      -7.530113       3622.449      0.8581796      0.9117552
      6208.0000        -3.0421         0.2897         0.0674        77.2959       70.93445          0.733          0.757         0.4278         0.9379       -11.4192      -9.517647       3622.449      0.8071159      0.8848966
      6208.5000        -3.0217         0.2897         0.0704        75.9184       69.27197          0.764          0.789         0.4188         0.9166       -12.8125      -10.90818       3612.245       0.771744      0.8661057
      6209.0000        -3.0412         0.2867         0.0636        77.1429       70.74351         0.7782         0.8109         0.4182         0.8879       -13.8077      -11.90062       3602.041      0.8030533      0.8526944
      6209.5000        -3.0407         0.2818         0.0558        79.5918        73.6898         0.7927         0.8183         0.4194         0.8563       -14.2041      -12.29425       3602.041      0.8657404       0.847375
      6210.0000        -3.0402          0.277         0.0441        81.1224       75.53003            0.8          0.822           0.42         0.8601       -13.4014      -11.48878       3602.041      0.9048942      0.8582597
      6210.5000          -3.04         0.2715         0.0431        79.2857       73.31445            0.8         0.8333         0.4218         0.8719          -12.2      -10.28462       3602.041      0.8577542      0.8745322
      6211.0000          -3.04         0.2679         0.0431        76.2245       69.62398            0.8         0.8333         0.4278          0.868          -11.4      -9.481854       3602.041      0.7792336      0.8853803
      6211.5000          -3.04         0.2825         0.0441        74.4059       67.43018            0.8          0.822         0.4374         0.8295          -11.4      -9.479089       3622.449      0.7325571      0.8854177
      6212.0000          -3.04         0.3164         0.0373        73.8119       66.71138            0.8         0.8183         0.4464         0.7927          -12.4      -10.47632       3622.449      0.7172634      0.8719416
      6212.5000          -3.04         0.3721         0.0343        72.7723       65.45588         0.8146         0.8109         0.4542          0.757          -13.8      -11.87356       3622.449      0.6905506        0.85306
      6213.0000          -3.08         0.3921         0.0402        71.2871       63.66365         0.8146            0.8         0.4608         0.7605          -14.4      -12.47079       3622.449      0.6524182      0.8449893
      6213.5000           -3.1         0.3964          0.052        71.4356       63.83919         0.8146            0.8          0.462         0.7927          -13.8      -11.86803       3622.449      0.6561529      0.8531348
      6214.0000          -3.12         0.3752         0.0647        73.3663       66.16134         0.8146            0.8           0.45         0.8371          -12.2      -10.26526       3622.449      0.7055604      0.8747938
      6214.5000          -3.14         0.3485         0.0696        72.7723       65.44254         0.8183            0.8         0.4314         0.8798          -10.6      -8.662497       3622.449      0.6902667      0.8964527
      6215.0000          -3.16         0.3256         0.0696        70.8416       63.11372         0.8183         0.7963         0.4236         0.9293           -9.4      -7.459731       3622.449      0.6407174      0.9127063
      6215.5000          -3.16         0.3124         0.0686        69.6535       61.67935         0.8073         0.7854         0.4356         0.9729             -8      -6.056965       3622.449       0.610199      0.9316626
      6216.0000          -3.16           0.31         0.0657        73.3663       66.14799         0.7818          0.757         0.4614         0.9509             -6        -4.0542       3622.449      0.7052765       0.958727
      6216.5000          -3.14         0.3136         0.0539        78.9796       72.90573          0.764         0.7364         0.4915         0.7854           -4.6      -2.651434       3622.449      0.8490581      0.9776833
      6217.0000          -3.14         0.3209         0.0451         80.051       74.19286         0.7466         0.7163         0.5291         0.6316           -3.4      -1.448669       3622.449      0.8764439      0.9939369
      6217.5000          -3.14         0.3263         0.0343        76.9898        70.5024         0.7196         0.6967         0.5636         0.5865             -3      -1.045904       3622.449      0.7979233      0.9993797
      6218.0000          -3.14         0.3239         0.0343        74.8515       67.92355         0.6903         0.6775          0.597         0.5919             -3      -1.043138       3622.449      0.7430542      0.9994171
      6218.5000          -3.14         0.3167         0.0382        75.7653       69.02084         0.6618         0.6557         0.6107         0.6376           -3.2      -1.240373       3622.449      0.7664009      0.9967517
      6219.0000          -3.14         0.3125         0.0382        77.9082       71.59858         0.6346         0.6376         0.5848         0.6807           -3.4      -1.437607       3622.449      0.8212464      0.9940864
      6219.5000          -3.14         0.3168         0.0314        79.1327       73.07013         0.6085         0.6199         0.5473            0.7           -3.2      -1.234842       3622.449      0.8525559      0.9968265
      6220.0000          -3.16         0.3366         0.0245        80.3571       74.54155         0.5838         0.6142         0.5152         0.6775             -3      -1.032076       3622.449      0.8838627      0.9995666
      6220.5000          -3.14           0.36         0.0196        82.9592       77.67236         0.5655         0.6056         0.5194         0.6287           -2.6     -0.6293107        3622.27      0.9504758              1
      6221.0000          -3.12         0.3588         0.0304        85.2551       80.43438         0.5655         0.6028         0.5303         0.5973           -2.4     -0.4265455       3621.951              1              1
      6221.5000          -3.12         0.3312         0.0569        87.7041       83.38081         0.5629         0.5946           0.52         0.5629           -2.6     -0.6237798       3611.442              1              1
      6222.0000          -3.08         0.3035         0.0824        89.0816       85.03662         0.5629         0.5946         0.4897         0.5378           -3.4      -1.421015       3600.944              1      0.9943106
      6222.5000          -3.06         0.2858         0.0882        86.3265       81.71485         0.5603         0.5946         0.4614         0.5603           -4.6      -2.618249       3600.636              1      0.9781318
      6223.0000          -3.04         0.2815         0.0824        82.0408       76.54951         0.5603         0.6028         0.4482         0.6376           -5.8      -3.815484       3610.504      0.9265854      0.9619529
      6223.5000          -3.04         0.2839         0.0706        78.3673       72.12154         0.5527         0.6085          0.453         0.7466           -7.6      -5.612718       3610.192      0.8323731       0.937666
