#------------------------------------------------------------------------------
# Created by    : vladimir.rabinovich
# Created on    : 09/19/2023 17:20:58
#------------------------------------------------------------------------------
~Version Information Section
VERS.           2.0     :   CWLS log ASCII Standard - VERSION 2.0
WRAP.           NO      :   One line per depth step
~Well Information Section
#MNEM       .UNIT                                         VALUE :DESCRIPTION
#------------------------------------------------------------------------------
STRT        .FT                                            1876 :START DEPTH
STOP        .FT                                            8575 :STOP DEPTH
STEP        .FT                                             0.5 :STEP      
NULL        .                                           -999.25 :NULL      
COMP        .                                      L G D C CORP :COMPANY   
WELL        .                                          GARTH CO :WELL      
FLD         .                                       CHEEK SOUTH :FIELD     
LOC         .                                                   :LOCATION  
CNTY        .                                         JEFFERSON :LOCATION  
STAT        .                                             TEXAS :STATE     
CTRY        .                                     UNITED STATES :COUNTRY   
SRVC        .                                                   :SERVICE COMPANY
DATE        .                             9/13/2023 11:18:46 AM :LOG DATE  
API         .                                    42245322600000 :API NUMBER
UWI         .                                    42245322600000 :UNIQUE WELL ID
XCOORD      .                                  1261779.14844878 :SURFACE X 
YCOORD      .                                  10885364.2183051 :SURFACE Y 
LAT         .                                        29.9878888 :LATITUDE  
LON         .                                       -94.1963831 :LONGITUDE 
ELEV        .FT                                            39.9 :ELEVATION VALUE
ELEV_TYPE   .                                                KB :ELEVATION REFERENCE TYPE
~Curve Information Section
#MNEM       .UNIT                                      API CODE :CURVE DESCRIPTION
#------------------------------------------------------------------------------
DEPT        .FT                                                 :DEPTH     
AT10        .OHMM                                               :          
AT30        .OHMM                                               :          
AT60        .OHMM                                               :          
AT90        .OHMM                                               :          
DCAL        .IN                                                 :          
DPSS        .V/V                                                :          
DRHO        .G/CM3                                              :          
GR          .GAPI                                               :          
GR_NORM     .GAPI                                               :GammaRay Normalized
NPSS        .V/V                                                :Neutron Porosity Sandstone
SP          .MV                                                 :          
SP_NORM     .MV                                                 :SP Normalized
TENS        .LB                                                 :          
VSH_GR      .V/V                                                :Volume of Shale from GR
VSH_SP      .V/V                                                :Volume of Shale from SP
~A        DEPTH           AT10           AT30           AT60           AT90           DCAL           DPSS           DRHO             GR        GR_NORM           NPSS             SP        SP_NORM           TENS         VSH_GR         VSH_SP
# ...
      4681.0000         0.3618         0.2761         0.2686         0.2613           1.14         0.3311        -0.0025          50.85       39.55435         0.3498          -97.4      -62.47419           2380      0.1394543      0.1341663
      4681.5000         0.3601         0.2736         0.2637         0.2565           1.24         0.3341        -0.0044             51       39.76789          0.363          -99.6      -64.67209           2380      0.1439978        0.10321
      4682.0000         0.3536         0.2674         0.2589         0.2518           1.18         0.3348        -0.0053          49.65       37.80712          0.375           -100      -65.06998           2380      0.1022792     0.09760585
      4682.5000          0.344         0.2661         0.2565         0.2495           0.96          0.336        -0.0022          48.15       35.62892         0.3714          -99.8      -64.86788           2380     0.05593442      0.1004524
      4683.0000         0.3651         0.2749         0.2674         0.2601           0.74         0.3396         0.0009          47.85       35.19017         0.3678          -99.6      -64.66577           2380     0.04659929       0.103299
      4683.5000         0.3928         0.2959         0.2839         0.2761           0.74         0.3408              0          48.75       36.49089         0.3618          -99.6      -64.66367           2380     0.07427418      0.1033287
      4684.0000         0.4057         0.3056         0.2973         0.2892           0.74          0.339        -0.0011          51.75       40.83565         0.3576          -97.4      -62.46157           2380       0.166716      0.1343441
      4684.5000         0.3895         0.2988          0.292         0.2841           0.78         0.3378        -0.0012           54.6       44.96298         0.3606          -93.8      -58.85947           2380      0.2545314      0.1850779
      4685.0000         0.3879         0.3017         0.2949         0.2868           0.84          0.336        -0.0013           55.8       46.69855          0.375          -90.2      -55.25736           2380      0.2914586      0.2358118
      4685.5000         0.4542         0.3368         0.3203         0.3117           0.86         0.3306        -0.0024           56.4       47.56441         0.3894          -88.8      -53.85526           2380       0.309881      0.2555597
      4686.0000         0.4964         0.3576         0.3495         0.3401           0.86         0.3222        -0.0035          56.55       47.77796         0.3864          -88.4      -53.45316           2380      0.3144246      0.2612232
      4686.5000          0.492         0.3577         0.3497         0.3402           0.92         0.3156        -0.0046          56.85       48.20894         0.3792          -85.2      -50.25105           2380      0.3235945      0.3063233
      4687.0000         0.5394         0.3798         0.3629         0.3531           0.98         0.3096        -0.0047          55.95       46.90046         0.3864          -82.4      -47.44895           2380      0.2957545      0.3457895
      4687.5000         0.5251         0.3817         0.3731          0.363           0.98         0.3078        -0.0038             54       44.06996         0.3852          -84.2      -49.24684           2380      0.2355311      0.3204671
      4688.0000         0.5251         0.3817         0.3731          0.363           0.98         0.3078        -0.0038             54       44.06608         0.3852          -84.2      -49.24474           2380      0.2354486      0.3204967
      4688.5000         0.4387         0.3422          0.327         0.3181           0.96         0.3174        -0.0029           52.2       41.45301         0.3714          -91.4      -56.44263           2380      0.1798513      0.2191178
      4689.0000         0.3838         0.3013         0.2958         0.2877           0.96         0.3288         -0.008          52.95       42.53629         0.3612          -92.2      -57.24053           2380      0.2028999      0.2078799
      4689.5000         0.4114         0.3112         0.2973         0.2892              1         0.3336        -0.0091          55.95       46.88106         0.3702          -89.4      -54.43843           2360      0.2953416      0.2473461
      4690.0000         0.4799         0.3381          0.323         0.3002              1          0.324        -0.0052           58.5       50.57352         0.3948          -85.8      -50.83633           2360      0.3739048      0.2980799
      4690.5000         0.4801         0.3492         0.3276         0.3031           0.94         0.3162        -0.0003           57.3       48.83018         0.4146          -91.8      -56.83422           2380      0.3368124      0.2136025
      4691.0000         0.4101         0.3233         0.3019          0.287           0.84          0.324        -0.0014           53.1       42.73818         0.3954            -96      -61.03212           2380      0.2071953      0.1544772
      4691.5000         0.3918         0.3048         0.2871         0.2704           0.88         0.3348         0.0005          49.05       36.86362         0.3858          -97.2      -62.23001           2380      0.0822047      0.1376055
      4692.0000         0.4143         0.3049         0.2912         0.2768              1         0.3342         0.0034          48.15       35.55515          0.393            -96      -61.02791           2380     0.05436487      0.1545365
      4692.5000         0.4383         0.3065         0.2995         0.2874           1.14          0.327         0.0033           50.4       38.81276         0.3894          -94.8      -59.82581           2380      0.1236758      0.1714675
      4693.0000         0.4551          0.308         0.2969         0.2875            1.3         0.3264         0.0023           52.2       41.41806         0.3834          -95.4       -60.4237           2340      0.1791077      0.1630464
      4693.5000          0.466         0.3196         0.2943         0.2863            1.3           0.33        -0.0019           52.8       42.28391         0.3792          -95.6      -60.62159           2340        0.19753      0.1602592
      4694.0000         0.5161         0.3347         0.3027         0.2931           1.18         0.3318         -0.003           52.8       42.28003          0.375          -95.2      -60.21949           2380      0.1974473      0.1659227
      4694.5000         0.5785         0.3504         0.3112         0.2986           1.04         0.3306         -0.002        52.8077       42.28732         0.3708       -94.9887      -60.00609           2380      0.1976025      0.1689283
      4695.0000         0.5233         0.3317         0.2905         0.2852           0.94         0.3294         -0.002        51.9229       41.00087          0.366       -96.5686      -61.58389           2380      0.1702313      0.1467058
      4695.5000          0.439         0.2986         0.2649         0.2577            0.9         0.3294         -0.002         50.888       39.49684         0.3612       -99.5486      -64.56178           2380      0.1382306      0.1047636
      4696.0000         0.3839         0.2698         0.2472         0.2405           1.14         0.3276          0.001        48.6529       36.25308           0.36      -100.3249      -65.33598           2380     0.06921443      0.0938595
      4696.5000         0.3378         0.2553         0.2318         0.2255           1.32         0.3264          0.005        45.8178       32.13957         0.3594      -101.6927      -66.70168           2380              0     0.07462429
      4697.0000         0.3242         0.2416         0.2213         0.2153           1.56           0.33          0.005        43.4487       28.70157         0.3624      -103.0585      -68.06537           2380              0     0.05541734
      4697.5000         0.3169         0.2372         0.2203         0.2143           1.88         0.3384          0.003        41.2362       25.49056          0.375      -103.4343      -68.43907           2380              0     0.05015392
