#------------------------------------------------------------------------------
# Created by    : vladimir.rabinovich
# Created on    : 09/19/2023 17:20:58
#------------------------------------------------------------------------------
~Version Information Section
VERS.           2.0     :   CWLS log ASCII Standard - VERSION 2.0
WRAP.           NO      :   One line per depth step
~Well Information Section
#MNEM       .UNIT                                         VALUE :DESCRIPTION
#------------------------------------------------------------------------------
STRT        .FT                                            1876 :START DEPTH
STOP        .FT                                            8575 :STOP DEPTH
STEP        .FT                                             0.5 :STEP      
NULL        .                                           -999.25 :NULL      
COMP        .                                      L G D C CORP :COMPANY   
WELL        .                                          GARTH CO :WELL      
FLD         .                                       CHEEK SOUTH :FIELD     
LOC         .                                                   :LOCATION  
CNTY        .                                         JEFFERSON :LOCATION  
STAT        .                                             TEXAS :STATE     
CTRY        .                                     UNITED STATES :COUNTRY   
SRVC        .                                                   :SERVICE COMPANY
DATE        .                             9/13/2023 11:18:46 AM :LOG DATE  
API         .                                    42245322600000 :API NUMBER
UWI         .                                    42245322600000 :UNIQUE WELL ID
XCOORD      .                                  1261779.14844878 :SURFACE X 
YCOORD      .                                  10885364.2183051 :SURFACE Y 
LAT         .                                        29.9878888 :LATITUDE  
LON         .                                       -94.1963831 :LONGITUDE 
ELEV        .FT                                            39.9 :ELEVATION VALUE
ELEV_TYPE   .                                                KB :ELEVATION REFERENCE TYPE
~Curve Information Section
#MNEM       .UNIT                                      API CODE :CURVE DESCRIPTION
#------------------------------------------------------------------------------
DEPT        .FT                                                 :DEPTH     
AT10        .OHMM                                               :          
AT30        .OHMM                                               :          
AT60        .OHMM                                               :          
AT90        .OHMM                                               :          
DCAL        .IN                                                 :          
DPSS        .V/V                                                :          
DRHO        .G/CM3                                              :          
GR          .GAPI                                               :          
GR_NORM     .GAPI                                               :GammaRay Normalized
NPSS        .V/V                                                :Neutron Porosity Sandstone
SP          .MV                                                 :          
SP_NORM     .MV                                                 :SP Normalized
TENS        .LB                                                 :          
VSH_GR      .V/V                                                :Volume of Shale from GR
VSH_SP      .V/V                                                :Volume of Shale from SP
~A        DEPTH           AT10           AT30           AT60           AT90           DCAL           DPSS           DRHO             GR        GR_NORM           NPSS             SP        SP_NORM           TENS         VSH_GR         VSH_SP
# ...
      2964.0000         1.0924         1.2502         1.2737         1.3281           0.64          0.276         -0.001        69.2424       75.53517         0.4176          -46.4      0.4965096        -999.25      0.9050037              1
      2964.5000         1.1498         1.2856         1.3158         1.3657           0.68         0.2652              0        70.9091       77.95468         0.3876          -47.8     -0.9056435        -999.25      0.9564826              1
      2965.0000         1.2214         1.3158         1.3405         1.3657           0.72         0.2526              0        73.1818       81.25262         0.3558          -49.2        -2.3078        -999.25              1      0.9789065
      2965.5000         1.2386         1.3343         1.3531         1.3721           0.78         0.2436              0           75.3       84.32661          0.351          -50.4      -3.509956        -999.25              1      0.9595168
      2966.0000         1.2045         1.3158         1.3594         1.3785           0.84         0.2442          0.001          77.25       87.15678         0.3558          -51.2      -4.312115        -999.25              1      0.9465788
      2966.5000         1.0673         1.1989         1.2502         1.2678           0.82         0.2556         -0.001           75.9       85.20343          0.369          -50.8      -3.914268        -999.25              1      0.9529957
      2967.0000         0.9465         1.0975         1.1391         1.1551            0.6         0.2694         -0.002        74.2424       82.80421         0.4182          -49.4      -2.516426        -999.25              1      0.9755415
      2967.5000         0.9684         1.0924         1.1129         1.1286           0.38         0.2808         -0.001        71.0606       78.19561         0.4416            -48       -1.11858        -999.25      0.9616087      0.9980874
      2968.0000         1.0428         1.1659         1.2045         1.2214           0.24         0.2796          0.001        67.4242       72.92802         0.4092          -46.6      0.2792664        -999.25      0.8495324              1
      2968.5000         1.1078         1.2386         1.2737         1.2916           0.24           0.27          0.003        62.8788       66.34278         0.3804          -45.6       1.277111        -999.25      0.7094209              1
      2969.0000         1.1391         1.2737         1.3531         1.3721           0.24          0.261          0.004        60.6061       63.05196         0.3756          -44.8       2.074951        -999.25      0.6394035              1
      2969.5000         1.1286         1.2976         1.3914         1.4109           0.24         0.2568          0.006          59.55       61.52464          0.375          -44.4       2.472794        -999.25      0.6069073              1
      2970.0000         1.1026         1.3036         1.3979         1.4175           0.26         0.2598          0.008         60.303       62.61971         0.3732          -44.4       2.470638        -999.25      0.6302065              1
      2970.5000         1.0574         1.2737         1.3657         1.3849           0.14         0.2646          0.008        62.2727       65.47844         0.3858          -44.8       2.068485        -999.25      0.6910306              1
      2971.0000         1.0141         1.2214          1.322         1.3405           0.06         0.2736          0.005        64.3939       68.55677          0.393          -45.2       1.666328        -999.25       0.756527              1
      2971.5000         0.9864         1.1714         1.2916         1.3097           0.06         0.2856          0.004        65.1515        69.6585         0.4014          -45.2       1.664169        -999.25      0.7799681              1
      2972.0000         0.9684         1.1551         1.2737         1.3036           0.06          0.297          0.003        64.0909       68.12466         0.4068            -45       1.862015        -999.25      0.7473333              1
      2972.5000         0.9684         1.1659         1.2796         1.3158           0.06         0.3042          0.003        62.7273       66.15161         0.4122          -44.8        2.05986        -999.25      0.7053534              1
      2973.0000         0.9729         1.1878         1.3097         1.3531           0.06         0.3114              0        63.6364       67.47295         0.4188          -44.8       2.057705        -999.25      0.7334669              1
      2973.5000         0.9774         1.1934          1.322         1.3531           0.02          0.312         -0.001        65.6061       70.33168         0.4152          -44.8        2.05555        -999.25      0.7942911              1
      2974.0000         0.9774         1.1989          1.322         1.3531          -0.02         0.3066              0        66.8182       72.09223         0.4044          -44.8       2.053394        -999.25      0.8317496              1
      2974.5000         0.9774         1.1934         1.3343         1.3657          -0.06         0.3036          0.001        68.3333       74.29198         0.4038          -44.8       2.051235        -999.25      0.8785527              1
      2975.0000         0.9684         1.1659         1.3343         1.3531          -0.08         0.3048          0.001        69.0909       75.39371          0.405          -44.8        2.04908        -999.25      0.9019939              1
      2975.5000         0.9509         1.1338         1.3036          1.322          -0.04         0.3096          0.001        69.0909       75.39728         0.4062          -44.8       2.046925        -999.25      0.9020697              1
      2976.0000         0.9293         1.0975         1.2678         1.2856           0.02         0.3042          0.001        67.8788       73.64383         0.4098          -44.8       2.044769        -999.25      0.8647623              1
      2976.5000         0.9251         1.1129         1.2796         1.2976           0.02         0.3012          0.001        65.1515       69.69404         0.4206          -44.8       2.042614        -999.25      0.7807242              1
      2977.0000         0.9596         1.1338         1.3158         1.3343           0.02            0.3          0.003        63.6364       67.50137         0.4392          -44.8       2.040455        -999.25      0.7340716              1
      2977.5000         0.9909         1.1605         1.3343         1.3531           0.02         0.3006          0.006        63.9394       67.94413         0.4308          -45.2       1.638298        -999.25      0.7434921              1
      2978.0000         1.0188         1.1878         1.3468         1.3657           0.02            0.3           0.01        65.6061       70.36366         0.4224          -45.2       1.636143        -999.25      0.7949714              1
      2978.5000         1.0673         1.1989         1.3468         1.3657           0.02         0.2994          0.011        67.1212       72.56342         0.4122          -45.4       1.433987        -999.25      0.8417748              1
      2979.0000         1.1286         1.2502         1.3594         1.3785           0.02         0.2982          0.008        66.0606       71.02957         0.4026          -45.8       1.031834        -999.25      0.8091398              1
      2979.5000         1.1934         1.3281         1.3914         1.4109           0.02         0.2892          0.005             65       69.49574          0.387          -46.8     0.02967453        -999.25       0.776505              1
      2980.0000         1.2386         1.3594         1.4241         1.4241           0.02         0.2766          0.003         64.697       69.06008         0.3378            -48      -1.172482        -999.25      0.7672358       0.997218
      2980.5000         1.2501         1.3404         1.3783         1.3466           0.04          0.264          0.002        65.7576       70.60101         0.3264            -49      -2.174637        -999.25      0.8000215      0.9810542
