#------------------------------------------------------------------------------
# Created by    : vladimir.rabinovich
# Created on    : 09/19/2023 17:20:51
#------------------------------------------------------------------------------
~Version Information Section
VERS.           2.0     :   CWLS log ASCII Standard - VERSION 2.0
WRAP.           NO      :   One line per depth step
~Well Information Section
#MNEM       .UNIT                                         VALUE :DESCRIPTION
#------------------------------------------------------------------------------
STRT        .FT                                             126 :START DEPTH
STOP        .FT                                           15000 :STOP DEPTH
STEP        .FT                                             0.5 :STEP      
NULL        .                                           -999.25 :NULL      
COMP        .                                    MOBIL OIL CORP :COMPANY   
WELL        .                                MCFADDIN TRUST BLK :WELL      
FLD         .                                           WILDCAT :FIELD     
LOC         .                                                   :LOCATION  
CNTY        .                                         JEFFERSON :LOCATION  
STAT        .                                             TEXAS :STATE     
CTRY        .                                     UNITED STATES :COUNTRY   
SRVC        .                                                   :SERVICE COMPANY
DATE        .                             9/13/2023 11:19:11 AM :LOG DATE  
API         .                                    42245029210000 :API NUMBER
UWI         .                                    42245029210000 :UNIQUE WELL ID
XCOORD      .                                  1288949.71304085 :SURFACE X 
YCOORD      .                                  10768198.0929689 :SURFACE Y 
LAT         .                                        29.6663916 :LATITUDE  
LON         .                                       -94.1069885 :LONGITUDE 
ELEV        .FT                                              20 :ELEVATION VALUE
ELEV_TYPE   .                                                DF :ELEVATION REFERENCE TYPE
~Curve Information Section
#MNEM       .UNIT                                      API CODE :CURVE DESCRIPTION
#------------------------------------------------------------------------------
DEPT        .FT                                                 :DEPTH     
ASN         .OHMM                                               :          
LAT         .OHMM                                               :          
LN          .OHMM                                               :          
SN          .OHMM                                               :          
SP          .MV                                                 :          
SP_NORM     .MV                                                 :SP Normalized
VSH_SP      .V/V                                                :Volume of Shale from SP
~A        DEPTH            ASN            LAT             LN             SN             SP        SP_NORM         VSH_SP
# ...
     14966.5000         0.6193         0.8137         0.6471         0.6775       -29.1411      -1.980606      0.9818406
     14967.0000         0.6212          0.808          0.647         0.6771       -29.2904      -2.129906      0.9790758
     14967.5000         0.6258         0.8023         0.6477         0.6767       -28.6463      -1.485806      0.9910036
     14968.0000         0.6304         0.7966         0.6488         0.6762       -27.5096     -0.3491058              1
     14968.5000         0.6253         0.7865           0.65         0.6757       -26.5424      0.6180935              1
     14969.0000         0.6186         0.7756         0.6511         0.6749       -25.6018       1.558693              1
     14969.5000         0.6126         0.7647         0.6523         0.6741       -24.7326       2.427895              1
     14970.0000         0.6076         0.7539         0.6534          0.674       -23.9581       3.202394              1
     14970.5000         0.6026          0.743         0.6546         0.6768        -23.343       3.817493              1
     14971.0000         0.5988         0.7321         0.6559         0.6796       -22.8415       4.318995              1
     14971.5000         0.5994         0.7248         0.6591         0.6824       -22.4604       4.700094              1
     14972.0000            0.6         0.7215         0.6623         0.6852       -22.2969       4.863594              1
     14972.5000         0.6006         0.7181         0.6655         0.6842        -22.198       4.962494              1
     14973.0000         0.6012         0.7148         0.6687         0.6823       -22.1071       5.053394              1
     14973.5000         0.6022         0.7115         0.6719         0.6804       -22.0266       5.133894              1
     14974.0000         0.6069         0.7082         0.6751         0.6504       -21.9458       5.214693              1
     14974.5000         0.6116         0.7108         0.6783         0.6607       -21.9019       5.258595              1
     14975.0000         0.6163         0.7189         0.6758         0.6709       -21.8944       5.266094              1
     14975.5000         0.6245          0.727         0.6732         0.6813       -21.8869       5.273594              1
     14976.0000         0.6352         0.7351         0.6706         0.6916       -21.9553       5.205194              1
     14976.5000          0.645         0.7431          0.668         0.7018       -22.0882       5.072294              1
     14977.0000         0.6475         0.7512         0.6654         0.7071       -22.5195       4.640993              1
     14977.5000           0.65         0.7593         0.6628         0.7075       -22.9518       4.208694              1
     14978.0000         0.6517         0.7674         0.6602         0.7079       -23.4644       3.696095              1
     14978.5000          0.649         0.7755         0.6575         0.7106       -24.0083       3.152193              1
     14979.0000         0.6464         0.7797         0.6548         0.7155       -24.5343       2.626194              1
     14979.5000          0.641         0.7832         0.6521         0.7203       -25.0112       2.149294              1
     14980.0000         0.6347         0.7868         0.6494         0.7252       -25.4882       1.672295              1
     14980.5000         0.6285         0.7904         0.6467         0.7283       -25.6754       1.485094              1
     14981.0000         0.6177         0.7939         0.6435         0.7302       -25.6852       1.475294              1
     14981.5000         0.6057         0.7975         0.6394         0.7299        -25.695       1.465494              1
     14982.0000         0.5987         0.7973         0.6354         0.7201       -25.7048       1.455694              1
     14982.5000         0.5917         0.7903         0.6313          0.714       -25.6068       1.553694              1
     14983.0000         0.5874         0.7834          0.627         0.7089       -25.3962       1.764294              1
     14983.5000         0.5846         0.7764         0.6218         0.7044       -25.1856       1.974894              1
     14984.0000         0.5819         0.7694         0.6166         0.7026       -24.9756       2.184895              1
     14984.5000         0.5822         0.7624         0.6115         0.7007       -24.5855       2.574993              1
     14985.0000         0.5842         0.7554         0.6073         0.6988       -24.0852       3.075294              1
     14985.5000         0.5862         0.7485         0.6062         0.6917       -23.5848       3.575693              1
     14986.0000         0.5882          0.747         0.6052         0.6846       -23.0878       4.072695              1
     14986.5000         0.5902         0.7456         0.6074         0.6774       -22.6365       4.523994              1
     14987.0000         0.5915         0.7441         0.6136         0.6706         -22.31       4.850494              1
     14987.5000         0.5921         0.7427         0.6198         0.6647       -22.0726       5.087894              1
     14988.0000         0.5927         0.7413          0.626         0.6589       -21.8436       5.316895              1
     14988.5000         0.5933         0.7398         0.6349          0.653       -21.6112       5.549294              1
     14989.0000         0.5964         0.7384           0.65         0.6504        -21.258       5.902494              1
     14989.5000         0.6044          0.737         0.6651         0.6583       -20.9036       6.256893              1
     14990.0000          0.615         0.7391         0.6802         0.6662       -20.7771       6.383394              1
     14990.5000           0.63          0.743         0.6954         0.6742       -21.0735       6.086994              1
     14991.0000         0.6593         0.7469         0.7147         0.6901       -21.3705       5.789993              1
     14991.5000         0.6916         0.7508         0.7352         0.7147       -21.7461       5.414394              1
     14992.0000         0.7116         0.7547         0.7558         0.7401       -22.1667       4.993793              1
     14992.5000         0.7507         0.7585         0.7764         0.7704       -22.4091       4.751394              1
     14993.0000         0.7904         0.7624          0.797         0.8007       -22.6515       4.508993              1
     14993.5000          0.802         0.7663         0.8188         0.8293       -22.8983       4.262194              1
     14994.0000         0.8135          0.769         0.8405         0.8554       -23.0995       4.060993              1
     14994.5000         0.8255         0.7713         0.8623         0.8806       -23.2817       3.878794              1
     14995.0000         0.8378         0.7737         0.8841         0.8915       -23.4639       3.696594              1
     14995.5000         0.8506          0.776         0.8956         0.9023       -23.6233       3.537193              1
     14996.0000         0.8619         0.7783         0.9061         0.9069       -23.7358       3.424694              1
     14996.5000         0.8712         0.7807         0.9151         0.9088       -23.8484       3.312094              1
     14997.0000         0.8705          0.783          0.914         0.9085       -23.9308       3.229694              1
     14997.5000        -999.25        -999.25        -999.25         0.9035       -23.9562       3.204294              1
     14998.0000        -999.25        -999.25        -999.25         0.8985       -23.9949       3.165594              1
     14998.5000        -999.25        -999.25        -999.25         0.8934       -24.0932       3.067293              1
     14999.0000        -999.25        -999.25        -999.25         0.8883       -24.1919       2.968594              1
     14999.5000        -999.25        -999.25        -999.25         0.8846       -24.2905       2.869993              1
