#------------------------------------------------------------------------------
# Created by    : vladimir.rabinovich
# Created on    : 09/19/2023 17:22:24
#------------------------------------------------------------------------------
~Version Information Section
VERS.           2.0     :   CWLS log ASCII Standard - VERSION 2.0
WRAP.           NO      :   One line per depth step
~Well Information Section
#MNEM       .UNIT                                         VALUE :DESCRIPTION
#------------------------------------------------------------------------------
STRT        .FT                                            1850 :START DEPTH
STOP        .FT                                            8215 :STOP DEPTH
STEP        .FT                                             0.5 :STEP      
NULL        .                                           -999.25 :NULL      
COMP        .                                  NOBLE ENERGY INC :COMPANY   
WELL        .                                           MEADOWS :WELL      
FLD         .                                          BINDWEED :FIELD     
LOC         .                                                   :LOCATION  
CNTY        .                                         JEFFERSON :LOCATION  
STAT        .                                             TEXAS :STATE     
CTRY        .                                     UNITED STATES :COUNTRY   
SRVC        .                                                   :SERVICE COMPANY
DATE        .                             9/13/2023 11:18:46 AM :LOG DATE  
API         .                                    42245325230000 :API NUMBER
UWI         .                                    42245325230000 :UNIQUE WELL ID
XCOORD      .                                  1273245.27472043 :SURFACE X 
YCOORD      .                                  10899721.9019567 :SURFACE Y 
LAT         .                                           30.0277 :LATITUDE  
LON         .                                       -94.1606194 :LONGITUDE 
ELEV        .FT                                              29 :ELEVATION VALUE
ELEV_TYPE   .                                                KB :ELEVATION REFERENCE TYPE
~Curve Information Section
#MNEM       .UNIT                                      API CODE :CURVE DESCRIPTION
#------------------------------------------------------------------------------
DEPT        .FT                                                 :DEPTH     
CALX        .IN                                                 :          
DPSS        .%                                                  :          
DRHO        .G/CM3                                              :          
DT24        .US/FT                                              :          
GR          .GAPI                                               :          
GR_NORM     .GAPI                                               :GammaRay Normalized
M2R1        .OHMM                                               :          
M2R2        .OHMM                                               :          
M2R3        .OHMM                                               :          
M2R6        .OHMM                                               :          
M2R9        .OHMM                                               :          
M2RX        .OHMM                                               :          
NPSS        .%                                                  :Neutron Porosity Sandstone
SP          .MV                                                 :          
SP_NORM     .MV                                                 :SP Normalized
TENS        .LB                                                 :          
VSH_GR      .V/V                                                :Volume of Shale from GR
VSH_SP      .V/V                                                :Volume of Shale from SP
~A        DEPTH           CALX           DPSS           DRHO           DT24             GR        GR_NORM           M2R1           M2R2           M2R3           M2R6           M2R9           M2RX           NPSS             SP        SP_NORM           TENS         VSH_GR         VSH_SP
# ...
      6540.0000          9.995          22.56          0.058       115.5102        68.2653       63.30899         0.6866         0.6801         0.6866         0.6866         0.6933         0.7063        30.3673          -11.6      -9.130865         2.0408      0.6448721      0.8821614
      6540.5000          9.955        23.2832          0.056       117.7551        77.6909       71.64503         0.6357         0.6481         0.6543         0.6543         0.6607         0.6735        32.6959       -10.4073      -7.938164         2.0408      0.8222346      0.8994469
      6541.0000          9.755        24.2497          0.056       120.3922        83.3758       76.67152         0.6058         0.6236         0.6296         0.6296         0.6357         0.6481             36        -9.6146      -7.145464       -18.3673      0.9291812      0.9109353
      6541.5000          9.555        25.3358          0.054       122.7451        89.0606       81.69792         0.5892         0.5946            0.6            0.6         0.6058         0.6176        39.6735        -8.0204      -5.551264       -18.3673              1      0.9340397
      6542.0000          9.435        26.7818          0.054       124.1176        93.5455       85.66273         0.5785         0.5892         0.5946         0.5946            0.6         0.6117        41.8776        -6.8243      -4.355164       -38.7755              1      0.9513744
      6542.5000          9.475        27.7479          0.052       124.7059        95.9303       87.76951         0.5838            0.6         0.6058         0.6058         0.6117         0.6236             44        -6.0276      -3.558464       -18.3673              1      0.9629208
      6543.0000          9.515        27.8739          0.054       124.7059        95.9152       87.75301         0.5838         0.6058         0.6117         0.6117         0.6176         0.6296        46.1176        -6.0338      -3.564664       -18.3673              1       0.962831
      6543.5000          9.515           27.4           0.06       124.3137           94.7       86.67474         0.5946         0.6058         0.6117         0.6117         0.6176         0.6296        47.6471        -5.6373      -3.168164         2.0408              1      0.9685773
      6544.0000          9.635        26.6861           0.07       121.5686        94.6848       86.65815         0.5946         0.6058         0.6117         0.6117         0.6176         0.6296        45.2941        -5.2399      -2.770764        42.8571              1      0.9743367
      6544.5000          9.715        25.9721          0.074       118.5714        94.6697       86.64165         0.5946         0.6176         0.6236         0.6236         0.6296         0.6419        43.2941        -5.2453      -2.776164        63.2653              1      0.9742585
      6545.0000          9.795        25.6182          0.076       116.1224        95.2545       87.15591            0.6         0.6236         0.6296         0.6296         0.6357         0.6481        43.0588        -5.2506      -2.781464        63.2653              1      0.9741817
      6545.5000          9.795         25.383          0.078       115.7143        94.9424       86.87665            0.6         0.6176         0.6236         0.6236         0.6296         0.6419        43.7647         -5.256      -2.786864        42.8571              1      0.9741034
      6546.0000          9.755        25.6291          0.078       117.7551        93.7273       85.79845         0.5838            0.6         0.6058         0.6058         0.6117         0.6236        42.9412        -5.6661      -3.196964         22.449              1      0.9681599
      6546.5000          9.715        26.1152          0.076       120.3922        92.2121       84.45477         0.5629         0.5838         0.5892         0.5892         0.5946         0.6058        41.8776         -6.077      -3.607864         22.449              1      0.9622049
      6547.0000          9.675        26.4812          0.074        122.549         91.897       84.17284         0.5578         0.5838         0.5892         0.5892         0.5946         0.6058        41.1429        -5.6777      -3.208564         22.449              1      0.9679918
      6547.5000          9.715        26.9673           0.07       123.3333        90.9818       83.35999         0.5578         0.5838         0.5892         0.5892         0.5946         0.6058        42.1176        -5.2775      -2.808364         22.449              1      0.9737918
      6548.0000          9.755        27.4533          0.068       124.3137        90.3667       82.81265         0.5578         0.5733         0.5785         0.5785         0.5838         0.5946        43.1765        -5.2819      -2.812764         22.449              1      0.9737281
      6548.5000          9.795        27.8194          0.066       125.6863        89.1515       81.73438         0.5578         0.5733         0.5785         0.5785         0.5838         0.5946        44.3529        -5.2873      -2.818164         22.449              1      0.9736498
      6549.0000          9.875        28.0655          0.068       126.8627        90.6364       83.04499         0.5681         0.5785         0.5838         0.5838         0.5892            0.6        44.3529        -4.4785      -2.009364         2.0408              1      0.9853715
      6549.5000          9.875        27.9515           0.07       126.8627        93.9212       85.94803         0.5785         0.5892         0.5946         0.5946            0.6         0.6117        44.2353        -4.0756      -1.606464       -38.7755              1      0.9912106
      6550.0000          9.875        27.4776          0.072       124.3137        95.1061       86.99321         0.5946         0.6058         0.6117         0.6117         0.6176         0.6296             44        -3.6718      -1.202664       -18.3673              1      0.9970629
      6550.5000          9.915        26.6364          0.074       121.5695           94.8       86.71925         0.6176         0.6235         0.6296         0.6296         0.6356          0.648        43.0594        -2.8571     -0.3879642         2.6531              1              1
      6551.0000          9.915        25.5504          0.074       118.5737           93.6       85.65443         0.6416         0.6416         0.6478         0.6478         0.6541         0.6667         40.044        -2.8571     -0.3879642         3.6735              1              1
      6551.5000          9.955        24.5844          0.074       115.7255           91.8       84.05875         0.6665         0.6602         0.6665         0.6665         0.6729         0.6859        36.8706        -3.2653     -0.7961643         4.6939              1              1
      6552.0000          9.955        23.8566          0.074       113.6964             90        82.4631         0.6922         0.6791         0.6856         0.6856         0.6922         0.7051        35.5381        -3.2653     -0.7961643         5.7143              1              1
      6552.5000          9.955        23.3655          0.072       112.2808           88.2       80.86743         0.6986         0.7048         0.7111         0.7111         0.7175         0.7303        34.8166        -3.2653     -0.7961643         6.7347              1              1
      6553.0000          9.995        22.9976           0.07       112.2885             87        79.8026         0.7108         0.6982         0.7045         0.7045         0.7171           0.73        35.3056        -3.6735      -1.204364         7.7551      0.9958001      0.9970382
      6553.5000         10.035        22.7519          0.068       113.7154           87.6        80.3303         0.7105         0.6912         0.6979         0.6979         0.6979         0.7105         35.675        -3.6735      -1.204364       -11.6327              1      0.9970382
