#------------------------------------------------------------------------------
# Created by    : vladimir.rabinovich
# Created on    : 09/19/2023 17:22:56
#------------------------------------------------------------------------------
~Version Information Section
VERS.           2.0     :   CWLS log ASCII Standard - VERSION 2.0
WRAP.           NO      :   One line per depth step
~Well Information Section
#MNEM       .UNIT                                         VALUE :DESCRIPTION
#------------------------------------------------------------------------------
STRT        .FT                                             120 :START DEPTH
STOP        .FT                                           15526 :STOP DEPTH
STEP        .FT                                             0.5 :STEP      
NULL        .                                           -999.25 :NULL      
COMP        .                                    MOBIL OIL CORP :COMPANY   
WELL        .                                MCFADDIN TRUST BLK :WELL      
FLD         .                                           WILDCAT :FIELD     
LOC         .                                                   :LOCATION  
CNTY        .                                         JEFFERSON :LOCATION  
STAT        .                                             TEXAS :STATE     
CTRY        .                                     UNITED STATES :COUNTRY   
SRVC        .                                                   :SERVICE COMPANY
DATE        .                             9/13/2023 11:19:11 AM :LOG DATE  
API         .                                    42245021130000 :API NUMBER
UWI         .                                    42245021130000 :UNIQUE WELL ID
XCOORD      .                                  1317150.22331494 :SURFACE X 
YCOORD      .                                   10814678.490982 :SURFACE Y 
LAT         .                                        29.7949472 :LATITUDE  
LON         .                                       -94.0194715 :LONGITUDE 
ELEV        .FT                                              18 :ELEVATION VALUE
ELEV_TYPE   .                                                DF :ELEVATION REFERENCE TYPE
~Curve Information Section
#MNEM       .UNIT                                      API CODE :CURVE DESCRIPTION
#------------------------------------------------------------------------------
DEPT        .FT                                                 :DEPTH     
SN          .OHMM                                               :          
SP          .MV                                                 :          
SP_NORM     .MV                                                 :SP Normalized
VSH_SP      .V/V                                                :Volume of Shale from SP
~A        DEPTH             SN             SP        SP_NORM         VSH_SP
# ...
      6268.0000          0.735       -35.4897       1.971584              1
      6268.5000         0.7315       -35.8527       1.601627              1
      6269.0000         0.7278       -36.2156        1.23177              1
      6269.5000         0.7211       -36.5786      0.8618088              1
      6270.0000         0.7144       -36.9413      0.4921532              1
      6270.5000         0.7078       -37.3043      0.1221962              1
      6271.0000         0.7011       -37.2283      0.1912384              1
      6271.5000         0.6944       -36.9184      0.4941788              1
      6272.0000         0.6878       -36.6085      0.7971153              1
      6272.5000         0.6811       -36.2986        1.10006              1
      6273.0000         0.6767       -36.1317       1.260002              1
      6273.5000         0.6722       -36.0193       1.365444              1
      6274.0000         0.6677       -35.9807       1.397083              1
      6274.5000         0.6632       -36.3073       1.063526              1
      6275.0000         0.6587       -36.7354      0.6284676              1
      6275.5000         0.6543       -37.5692     -0.2122879              1
      6276.0000          0.653       -38.5919      -1.241947      0.9971197
      6276.5000         0.6547       -40.2639      -2.920906      0.9771321
      6277.0000         0.6564       -42.7452      -5.409164      0.9475099
      6277.5000         0.6581       -47.7726      -10.44352      0.8875772
      6278.0000         0.6598       -62.4814      -25.15928      0.7123895
      6278.5000         0.6615       -72.7283      -35.41314      0.5903198
      6279.0000         0.6648       -74.2819      -36.97369      0.5717418
      6279.5000          0.673       -57.2193      -19.91805      0.7747851
      6280.0000         0.6813       -51.6979      -14.40361      0.8404332
      6280.5000         0.6896       -46.1273       -8.83997      0.9066671
      6281.0000         0.6979       -40.8965      -3.616127      0.9688556
      6281.5000         0.7062       -39.9565      -2.683086      0.9799632
      6282.0000         0.7161       -40.3958      -3.129345      0.9746507
      6282.5000          0.737       -41.1492      -3.889702      0.9655988
      6283.0000         0.7579       -42.1014      -4.848858      0.9541802
      6283.5000         0.7788       -43.6595      -6.413918      0.9355486
      6284.0000         0.7997       -45.2153      -7.976677      0.9169443
      6284.5000         0.8206       -47.0081      -9.776436      0.8955186
      6285.0000         0.8415       -48.9104       -11.6857      0.8727893
      6285.5000         0.8628       -51.3469      -14.12915      0.8437005
      6286.0000          0.893       -53.3699      -16.15911      0.8195344
      6286.5000         0.9232       -55.5294      -18.32557      0.7937433
      6287.0000         0.9534       -59.4815      -22.28463      0.7466116
      6287.5000         0.9579       -64.3278      -27.13788      0.6888347
      6288.0000         0.9507       -68.2352      -31.05224      0.6422352
      6288.5000         0.9436       -70.6763       -33.5003      0.6130916
      6289.0000         0.9355       -72.8557      -35.68666      0.5870636
      6289.5000         0.9225       -74.8049      -37.64282       0.563776
      6290.0000         0.9095       -74.7715      -37.61637      0.5640908
      6290.5000         0.8965       -72.8446      -35.69643      0.5869473
      6291.0000         0.9209       -69.7776      -32.63639      0.6233763
      6291.5000         0.9541       -64.7704      -27.63615       0.682903
      6292.0000         0.9874       -51.2866      -14.15931      0.8433416
      6292.5000         1.0476       -44.1848      -7.064465       0.927804
      6293.0000         1.1219       -41.5202      -4.406822      0.9594426
      6293.5000         1.1961       -40.4885       -3.38208      0.9716419
      6294.0000         1.2699       -40.3971      -3.297638      0.9726472
      6294.5000          1.343       -40.1522      -3.059696      0.9754798
      6295.0000         1.3009       -39.7146      -2.629055      0.9806065
      6295.5000         1.2118       -39.2776      -2.199013      0.9857261
      6296.0000         1.1226       -38.7489      -1.677273      0.9919372
      6296.5000         1.0541       -38.1286      -1.063931      0.9992389
      6297.0000         1.0004       -37.7103     -0.6525917              1
      6297.5000         0.9468       -37.7855     -0.7347488              1
      6298.0000         0.8931       -38.4298      -1.386005      0.9954047
      6298.5000           0.85       -39.6492      -2.612366      0.9808052
      6299.0000         0.8188       -41.2744      -4.244522      0.9613748
      6299.5000         0.7875       -43.9724      -6.949482      0.9291728
      6300.0000         0.7555       -48.2331      -11.21714      0.8783674
      6300.5000         0.7235       -54.6575       -17.6485      0.8018036
      6301.0000         0.6914       -61.3995      -24.39746      0.7214589
      6301.5000         0.6579       -67.1265      -30.13142      0.6531974
      6302.0000         0.6224       -74.6418      -37.65367      0.5636468
      6302.5000         0.5869       -85.9976      -49.01643      0.4283759
      6303.0000         0.5514      -102.3605      -65.38628      0.2334966
      6303.5000         0.5159      -109.2544      -72.28715      0.1513435
      6304.0000         0.4804      -113.2289       -76.2686      0.1039452
      6304.5000         0.4519      -116.1528      -79.19946     0.06905401
      6305.0000         0.4261      -118.3077      -81.36132     0.04331761
      6305.5000         0.4426      -120.3732      -83.43378     0.01864551
      6306.0000         0.4743      -122.2324      -85.29993              0
      6306.5000          0.506      -121.9144      -84.98889   0.0001322428
      6307.0000         0.5377      -120.6749      -83.75635     0.01480538
      6307.5000         0.5694      -118.5178      -81.60621     0.04040227
      6308.0000          0.596      -116.3607      -79.45607     0.06599917
      6308.5000         0.6193      -113.8727      -76.97503     0.09553537
      6309.0000         0.6426      -111.2909      -74.40018      0.1261883
      6309.5000         0.6659      -108.7068      -71.82304      0.1568685
      6310.0000         0.6892      -107.4717      -70.59491      0.1714892
      6310.5000         0.7125      -108.2418      -71.37196      0.1622385
      6311.0000         0.7358      -109.0118      -72.14893       0.152989
      6311.5000         0.7591      -109.8356      -72.97968      0.1430991
      6312.0000         0.7824      -110.7711      -73.92213      0.1318794
      6312.5000         0.7927      -111.7067       -74.8647      0.1206583
      6313.0000         0.8018      -111.1221      -74.28705      0.1275351
      6313.5000         0.8109      -110.2156      -73.38751      0.1382439
      6314.0000         0.8201      -109.3014      -72.48027      0.1490444
      6314.5000         0.8198      -108.3882      -71.57402      0.1598331
      6315.0000         0.8128       -107.323      -70.51578      0.1724312
      6315.5000         0.8058      -106.0779      -69.27765      0.1871708
      6316.0000         0.7988      -104.8329       -68.0396      0.2019096
      6316.5000         0.7918      -103.5878      -66.80145      0.2166494
      6317.0000         0.7848      -102.2197      -65.44032      0.2328533
      6317.5000         0.7692      -102.2644      -65.49197      0.2322384
      6318.0000         0.7522      -104.1801      -67.41463      0.2093497
      6318.5000         0.7351      -106.6301      -69.87158      0.1801002
      6319.0000         0.7181      -109.5048      -72.75325      0.1457946
      6319.5000         0.7011      -114.7714      -78.02681     0.08301417
      6320.0000          0.683      -113.1887      -76.45107       0.101773
      6320.5000          0.664      -107.9221      -71.19142      0.1643878
