#------------------------------------------------------------------------------
# Created by    : vladimir.rabinovich
# Created on    : 09/19/2023 17:22:02
#------------------------------------------------------------------------------
~Version Information Section
VERS.           2.0     :   CWLS log ASCII Standard - VERSION 2.0
WRAP.           NO      :   One line per depth step
~Well Information Section
#MNEM       .UNIT                                         VALUE :DESCRIPTION
#------------------------------------------------------------------------------
STRT        .FT                                          2944.5 :START DEPTH
STOP        .FT                                           12030 :STOP DEPTH
STEP        .FT                                             0.5 :STEP      
NULL        .                                           -999.25 :NULL      
COMP        .                                  SAMEDAN OIL CORP :COMPANY   
WELL        .                                         ROBERTSON :WELL      
FLD         .                                     HAMSHIRE WEST :FIELD     
LOC         .                                                   :LOCATION  
CNTY        .                                         JEFFERSON :LOCATION  
STAT        .                                             TEXAS :STATE     
CTRY        .                                     UNITED STATES :COUNTRY   
SRVC        .                                                   :SERVICE COMPANY
DATE        .                             9/13/2023 11:18:46 AM :LOG DATE  
API         .                                    42245321120000 :API NUMBER
UWI         .                                    42245321120000 :UNIQUE WELL ID
XCOORD      .                                  1214919.43989532 :SURFACE X 
YCOORD      .                                  10839736.7579652 :SURFACE Y 
LAT         .                                        29.8609813 :LATITUDE  
LON         .                                       -94.3427285 :LONGITUDE 
ELEV        .FT                                              38 :ELEVATION VALUE
ELEV_TYPE   .                                                KB :ELEVATION REFERENCE TYPE
~Curve Information Section
#MNEM       .UNIT                                      API CODE :CURVE DESCRIPTION
#------------------------------------------------------------------------------
DEPT        .FT                                                 :DEPTH     
CALI        .IN                                                 :          
DPSS        .%                                                  :          
DRHO        .G/CM3                                              :          
GR          .GAPI                                               :          
GR_NORM     .GAPI                                               :GammaRay Normalized
ILD         .OHMM                                               :          
ILM         .OHMM                                               :          
NPSS        .%                                                  :Neutron Porosity Sandstone
SGRD        .OHMM                                               :          
SP          .MV                                                 :          
SP_NORM     .MV                                                 :SP Normalized
TENS        .LB                                                 :          
VSH_GR      .V/V                                                :Volume of Shale from GR
VSH_SP      .V/V                                                :Volume of Shale from SP
~A        DEPTH           CALI           DPSS           DRHO             GR        GR_NORM            ILD            ILM           NPSS           SGRD             SP        SP_NORM           TENS         VSH_GR         VSH_SP
# ...
     11404.5000           9.75          20.16          0.056          79.35       87.79514         1.6299         1.6678        38.4944         1.6151          -68.4      -1.271484       4271.437              1      0.9969496
     11405.0000           9.73           19.8          0.056          77.85       86.01797          1.586         1.6378        39.6313         1.5429          -68.2      -1.061745       4270.437              1      0.9993063
     11405.5000           9.71          19.14           0.06           75.6       83.35806         1.5362         1.6158        39.5083         1.5152          -68.4      -1.252007       4309.435              1      0.9971685
     11406.0000           9.69          19.08          0.066          76.65       84.58227         1.5086         1.5868        38.3654         1.4948          -68.6      -1.442268       4308.435              1      0.9950307
     11406.5000           9.69          19.68          0.061          78.45       86.68921          1.502         1.5799        38.1224         1.4747          -68.6      -1.432526       4307.435              1      0.9951401
     11407.0000           9.69          20.16          0.053          75.45       83.14655         1.4955         1.5802        37.9994         1.5024          -68.4      -1.222786       4306.435              1      0.9974968
     11407.5000           9.69           20.4          0.045        73.9604       81.38164         1.4958         1.5806        38.1764         1.5447            -68     -0.8130493       4305.435              1              1
     11408.0000           9.71          20.64          0.035        74.4059       81.89433         1.4962         1.5809        38.8334         1.5169          -68.2      -1.003304       4284.436              1      0.9999629
     11408.5000           9.73             21          0.031        72.7723       79.95992         1.4897         1.5597        39.4903         1.5243          -68.2     -0.9935684       4283.436      0.9991471              1
     11409.0000           9.77          21.12          0.031        70.8416       77.67582         1.4832         1.5387        40.3273         1.5458          -68.4       -1.18383       4262.437      0.9505494      0.9979345
     11409.5000           9.81          20.82          0.033        69.3564       75.91608         1.4768          1.518        40.6243         1.5461          -68.6      -1.374092       4261.437       0.913108      0.9957967
     11410.0000           9.85          20.46          0.037        69.9505       76.60368         1.4436         1.4976        40.2013         1.5114            -68     -0.7643509       4240.438      0.9277378              1
     11410.5000           9.85          20.58          0.042        71.5842       78.51488          1.424         1.4772           39.9         1.5046          -67.4     -0.1546173           4240      0.9684018              1
     11411.0000           9.87             21           0.04        73.2178       80.42599         1.4045          1.457          40.38         1.4977            -68      -0.744873           4220              1              1
     11411.5000           9.93          21.18          0.035           75.3       82.86509         1.3917          1.457           40.8          1.484          -68.2     -0.9351349           4220              1              1
     11412.0000           9.91          21.36          0.031          76.35       84.08929          1.379          1.457           40.2          1.484          -68.2     -0.9253922           4200              1              1
     11412.5000           9.85          21.18          0.031        73.9604       81.26507         1.3726          1.457          40.56         1.4909          -68.2      -0.915657           4200              1              1
     11413.0000           9.73          20.82          0.034        73.5149       80.72905         1.3664          1.457          40.92         1.4909          -68.4      -1.105919           4180              1      0.9988099
     11413.5000           9.73          20.52          0.036          76.35       84.05431         1.3664          1.457           41.4         1.4909            -68     -0.6961746           4200              1              1
     11414.0000           9.71          20.28          0.038          80.25       88.63297         1.3664          1.457          41.58         1.4772          -67.8     -0.4864426           4200              1              1
     11414.5000           9.69          20.34           0.04          79.65       87.91511         1.3664         1.4504          40.14         1.4705          -68.8        -1.4767           4220              1      0.9946438
     11415.0000           9.69          20.34          0.042          75.15       82.60694         1.3726         1.4437          38.16          1.457            -69      -1.666962           4220              1       0.992506
     11415.5000           9.77          19.98          0.046        73.5149       80.67077          1.379         1.4437          37.02          1.457            -69      -1.657219           4200              1      0.9926155
     11416.0000           9.85          19.38          0.047           75.6       83.11327         1.3853         1.4504           36.6         1.4977          -68.4      -1.047485           4180              1      0.9994665
     11416.5000           9.93          18.66          0.045          77.25       85.04368         1.3853         1.4772           36.3         1.5753          -68.4      -1.037743           4180              1      0.9995759
     11417.0000           9.97          18.12          0.039          76.35       83.97271         1.3917         1.4909          35.94         1.6119          -68.6      -1.228004           4180              1      0.9974381
     11417.5000          10.01          18.54          0.035          77.25       85.02036         1.3981         1.4909           36.6         1.5826            -69      -1.618263           4180              1      0.9930532
     11418.0000          10.01          18.96          0.033           76.2       83.77285         1.3981         1.4909          37.38         1.5396          -68.8      -1.408531           4180              1      0.9954098
     11418.5000          10.01          19.56          0.033        73.8119       80.95039         1.4045         1.4909          38.46         1.4909          -68.6      -1.198784           4180              1      0.9977665
     11419.0000          10.05          19.74          0.033          75.15       82.51369         1.3853         1.4772          39.12          1.484          -68.4     -0.9890518           4180              1              1
     11419.5000          10.09           19.8          0.034          79.35       87.44545         1.3477          1.457          39.66         1.4705          -68.2     -0.7793045           4180              1              1
     11420.0000          10.17          19.92          0.035           81.3       89.72894         1.3171         1.4437           39.9         1.4909          -68.2     -0.7695694           4180              1              1
     11420.5000          10.15        19.8584          0.036           81.6       90.07039         1.3171         1.4437          40.08         1.5046          -68.6      -1.159828       4199.775              1      0.9982042
     11421.0000          10.11        19.0754          0.037          79.35       87.41046         1.3354         1.4437          40.02         1.5185          -68.2     -0.7500839       4199.373              1              1
     11421.5000          10.09        18.1725          0.039          75.75       83.16161         1.3853         1.4637          39.48         1.5255            -68     -0.5403519        4198.97              1              1
     11422.0000          10.11        17.9894           0.04          75.15       82.44375         1.4637         1.5115          38.64         1.5325          -68.4     -0.9306107       4218.602              1              1
