#------------------------------------------------------------------------------
# Created by    : vladimir.rabinovich
# Created on    : 09/19/2023 17:22:56
#------------------------------------------------------------------------------
~Version Information Section
VERS.           2.0     :   CWLS log ASCII Standard - VERSION 2.0
WRAP.           NO      :   One line per depth step
~Well Information Section
#MNEM       .UNIT                                         VALUE :DESCRIPTION
#------------------------------------------------------------------------------
STRT        .FT                                             120 :START DEPTH
STOP        .FT                                           15526 :STOP DEPTH
STEP        .FT                                             0.5 :STEP      
NULL        .                                           -999.25 :NULL      
COMP        .                                    MOBIL OIL CORP :COMPANY   
WELL        .                                MCFADDIN TRUST BLK :WELL      
FLD         .                                           WILDCAT :FIELD     
LOC         .                                                   :LOCATION  
CNTY        .                                         JEFFERSON :LOCATION  
STAT        .                                             TEXAS :STATE     
CTRY        .                                     UNITED STATES :COUNTRY   
SRVC        .                                                   :SERVICE COMPANY
DATE        .                             9/13/2023 11:19:11 AM :LOG DATE  
API         .                                    42245021130000 :API NUMBER
UWI         .                                    42245021130000 :UNIQUE WELL ID
XCOORD      .                                  1317150.22331494 :SURFACE X 
YCOORD      .                                   10814678.490982 :SURFACE Y 
LAT         .                                        29.7949472 :LATITUDE  
LON         .                                       -94.0194715 :LONGITUDE 
ELEV        .FT                                              18 :ELEVATION VALUE
ELEV_TYPE   .                                                DF :ELEVATION REFERENCE TYPE
~Curve Information Section
#MNEM       .UNIT                                      API CODE :CURVE DESCRIPTION
#------------------------------------------------------------------------------
DEPT        .FT                                                 :DEPTH     
SN          .OHMM                                               :          
SP          .MV                                                 :          
SP_NORM     .MV                                                 :SP Normalized
VSH_SP      .V/V                                                :Volume of Shale from SP
~A        DEPTH             SN             SP        SP_NORM         VSH_SP
# ...
      1127.0000         2.0042       -59.1378      -10.76137      0.7288508
      1127.5000           1.97       -58.3979      -10.03028      0.7491589
      1128.0000         1.9358       -56.9526      -8.593788      0.7890614
      1128.5000         1.9016       -54.9247      -6.574699      0.8451473
      1129.0000         1.8675       -52.8968      -4.555607      0.9012331
      1129.5000         1.8333       -50.8689      -2.536518       0.957319
      1130.0000         1.7991       -49.3631      -1.039524      0.9989021
      1130.5000         1.7669       -48.3063    0.008464813              1
      1131.0000         1.7483       -47.2498       1.056156              1
      1131.5000         1.7296       -46.1929       2.104248              1
      1132.0000         1.7312       -45.3929       2.895443              1
      1132.5000         1.7634        -44.881       3.398533              1
      1133.0000         1.7956       -44.3691       3.901627              1
      1133.5000         1.8278       -43.8573       4.404617              1
      1134.0000           1.86       -43.3454       4.907707              1
      1134.5000         1.8787       -42.8934       5.350903              1
      1135.0000         1.8931       -42.5116       5.723892              1
      1135.5000         1.9075       -42.1298       6.096886              1
      1136.0000         1.9219        -41.748       6.469875              1
      1136.5000         1.9363       -41.3662       6.842869              1
      1137.0000         1.9508       -40.9653       7.234959              1
      1137.5000         1.9657       -40.2911       7.900352              1
      1138.0000         1.9806       -39.7272       8.455441              1
      1138.5000         1.9955       -41.2197       6.954132              1
      1139.0000         2.0103       -43.2163       4.948723              1
      1139.5000         2.0252        -45.213       2.943214              1
      1140.0000         2.0401       -47.2097       0.937706              1
      1140.5000         2.0549       -49.1786      -1.040001      0.9988889
      1141.0000         2.0804       -51.1216       -2.99181      0.9446719
      1141.5000         2.1089        -53.053      -4.932018      0.8907773
      1142.0000         2.1373       -54.8325      -6.720325      0.8411021
      1142.5000         2.1559        -56.001      -7.897633      0.8083991
      1143.0000         2.1218       -56.1183      -8.023743      0.8048961
      1143.5000          2.088       -56.2355       -8.14975      0.8013958
      1144.0000         2.0608       -56.6494      -8.572456       0.789654
      1144.5000         2.0335        -57.136      -9.067867      0.7758926
      1145.0000         2.0063       -58.2556      -10.19627       0.744548
      1145.5000         1.9791       -60.7846      -12.73408      0.6740533
      1146.0000         1.9706       -62.6079      -14.56619      0.6231614
      1146.5000         1.9942        -64.181       -16.1481      0.5792194
      1147.0000         2.0178       -65.6133      -17.58921      0.5391887
      1147.5000         2.0414       -67.0453      -19.03002      0.4991661
      1148.0000         2.0576       -67.8981      -19.89163      0.4752325
      1148.5000         2.0714       -68.7316      -20.73393      0.4518352
      1149.0000         2.0853       -68.1187      -20.12984      0.4686155
      1149.5000         2.0612       -64.3002      -16.32015      0.5744402
      1150.0000         2.0358       -59.5074      -11.53616      0.7073289
      1150.5000         2.0103       -52.2468      -4.284367      0.9087676
      1151.0000         1.9848       -51.2361      -3.282475      0.9365979
      1151.5000         1.9707       -50.2254      -2.280582      0.9644282
      1152.0000         1.9618       -49.2187      -1.282692      0.9921474
      1152.5000         1.9529       -49.0154        -1.0882        0.99755
      1153.0000         1.9439       -48.8121     -0.8937073              1
      1153.5000         1.9495       -48.6089     -0.6993141              1
      1154.0000         1.9558       -48.4056     -0.5048256              1
      1154.5000         1.9621       -48.2023     -0.3103333              1
      1155.0000         1.9684        -47.999     -0.1158447              1
      1155.5000         1.9747       -47.6935      0.1808472              1
      1156.0000          1.981        -47.259      0.6065407              1
      1156.5000         1.9901       -46.8245        1.03223              1
      1157.0000         2.0031       -46.3899         1.4613              1
      1157.5000         2.0161       -46.6551       1.193253              1
      1158.0000         2.0292       -47.0529      0.7926102              1
      1158.5000         2.0422       -47.4507       0.391964              1
      1159.0000         2.0318       -47.8484   -0.008579254              1
      1159.5000         2.0162       -48.2462     -0.4092255              1
      1160.0000         1.9985        -48.517      -0.682869              1
      1160.5000         1.9785        -48.126     -0.2947121              1
      1161.0000         1.9585        -47.735     0.09344101              1
      1161.5000         1.9384       -47.3439      0.4816971              1
      1162.0000         1.9184       -46.9572      0.8655548              1
      1162.5000         1.9005       -46.5924       1.227509              1
      1163.0000         1.8911       -46.2276       1.589462              1
      1163.5000         1.8817       -45.8629       1.951317              1
      1164.0000         1.8722       -45.4981       2.313274              1
      1164.5000         1.8628       -45.1334       2.675129              1
      1165.0000         1.8534       -44.7685       3.037182              1
      1165.5000         1.8471       -44.4037       3.399139              1
      1166.0000         1.8477       -44.2076       3.592396              1
      1166.5000         1.8484       -44.1356       3.661549              1
      1167.0000          1.849       -44.0636       3.730709              1
      1167.5000         1.8548       -43.9916       3.799862              1
      1168.0000           1.87       -43.9197       3.868916              1
      1168.5000         1.8853       -43.8477       3.938072              1
      1169.0000         1.9005       -43.7972       3.985729              1
      1169.5000         1.9157       -44.3431       3.436981              1
      1170.0000          1.931        -44.889       2.888237              1
      1170.5000         1.9374       -45.6312       2.143196              1
      1171.0000         1.9371        -47.999     -0.2274513              1
      1171.5000         1.9247       -49.9942      -2.225498      0.9659584
      1172.0000         1.8935       -51.8754      -4.109539      0.9136239
      1172.5000         1.8624       -54.8114      -7.048386      0.8319893
      1173.0000         1.8312       -57.5928       -9.83263      0.7546492
      1173.5000            1.8       -59.8203      -12.06298      0.6926951
      1174.0000          1.785       -55.7681      -8.013618      0.8051773
      1174.5000         1.7756       -50.9333      -3.181664      0.9393982
      1175.0000         1.7662       -48.4914     -0.7426109              1
      1175.5000         1.7568       -46.4037       1.342247              1
      1176.0000         1.7474       -45.4161       2.327003              1
      1176.5000         1.7379       -44.4284       3.311859              1
      1177.0000         1.7314       -43.5351       4.202316              1
      1177.5000         1.7282       -43.0096       4.724968              1
      1178.0000         1.7251       -42.4843       5.247425              1
      1178.5000         1.7219       -41.9589       5.769978              1
      1179.0000         1.7234       -41.4334       6.292637              1
      1179.5000         1.7267       -40.9923       6.730892              1
