#------------------------------------------------------------------------------
# Created by    : vladimir.rabinovich
# Created on    : 09/19/2023 17:20:51
#------------------------------------------------------------------------------
~Version Information Section
VERS.           2.0     :   CWLS log ASCII Standard - VERSION 2.0
WRAP.           NO      :   One line per depth step
~Well Information Section
#MNEM       .UNIT                                         VALUE :DESCRIPTION
#------------------------------------------------------------------------------
STRT        .FT                                             126 :START DEPTH
STOP        .FT                                           15000 :STOP DEPTH
STEP        .FT                                             0.5 :STEP      
NULL        .                                           -999.25 :NULL      
COMP        .                                    MOBIL OIL CORP :COMPANY   
WELL        .                                MCFADDIN TRUST BLK :WELL      
FLD         .                                           WILDCAT :FIELD     
LOC         .                                                   :LOCATION  
CNTY        .                                         JEFFERSON :LOCATION  
STAT        .                                             TEXAS :STATE     
CTRY        .                                     UNITED STATES :COUNTRY   
SRVC        .                                                   :SERVICE COMPANY
DATE        .                             9/13/2023 11:19:11 AM :LOG DATE  
API         .                                    42245029210000 :API NUMBER
UWI         .                                    42245029210000 :UNIQUE WELL ID
XCOORD      .                                  1288949.71304085 :SURFACE X 
YCOORD      .                                  10768198.0929689 :SURFACE Y 
LAT         .                                        29.6663916 :LATITUDE  
LON         .                                       -94.1069885 :LONGITUDE 
ELEV        .FT                                              20 :ELEVATION VALUE
ELEV_TYPE   .                                                DF :ELEVATION REFERENCE TYPE
~Curve Information Section
#MNEM       .UNIT                                      API CODE :CURVE DESCRIPTION
#------------------------------------------------------------------------------
DEPT        .FT                                                 :DEPTH     
ASN         .OHMM                                               :          
LAT         .OHMM                                               :          
LN          .OHMM                                               :          
SN          .OHMM                                               :          
SP          .MV                                                 :          
SP_NORM     .MV                                                 :SP Normalized
VSH_SP      .V/V                                                :Volume of Shale from SP
~A        DEPTH            ASN            LAT             LN             SN             SP        SP_NORM         VSH_SP
# ...
      4079.0000         0.7014         0.6765         0.9277         0.7701       -45.3892       -10.2464      0.7945246
      4079.5000          0.712         0.6494          0.921          0.761       -44.3408      -9.196072      0.8178651
      4080.0000         0.7268         0.6346         0.9061          0.757       -40.7698      -5.623146      0.8972634
      4080.5000         0.7416         0.6253         0.8911         0.7531       -39.0903      -3.941727      0.9346283
      4081.0000         0.7515          0.616         0.8761         0.7577        -37.433      -2.282501         0.9715
      4081.5000         0.7561         0.6067         0.8607         0.7624       -35.7664     -0.6139793              1
      4082.0000         0.7607         0.5974         0.8454         0.7671       -34.6394       0.514946              1
      4082.5000         0.7652         0.5881           0.83          0.772       -33.7846        1.37167              1
      4083.0000         0.7705         0.5788         0.8147         0.7813       -33.2084       1.949791              1
      4083.5000         0.7776         0.5702         0.8043         0.7905       -32.9999       2.160213              1
      4084.0000         0.7922         0.5871         0.8122         0.7997       -33.1956       1.966438              1
      4084.5000         0.8068         0.6039         0.8201         0.8118       -34.1398       1.024158              1
      4085.0000         0.8184         0.6208          0.828         0.8263       -35.3587     -0.1928139              1
      4085.5000         0.8292         0.6377         0.8359         0.8409       -36.7595       -1.59169      0.9868513
      4086.0000           0.84         0.6546         0.8438         0.8554        -38.303       -3.13327       0.952594
      4086.5000         0.8507         0.6715         0.8488         0.8634       -39.9379      -4.766247      0.9163056
      4087.0000         0.8542         0.6884         0.8527         0.8699       -41.3152      -6.141624      0.8857417
      4087.5000         0.8438         0.7174         0.8565         0.8765       -42.3362      -7.160702      0.8630955
      4088.0000         0.8211         0.7508         0.8604         0.8782       -43.3226      -8.145176      0.8412183
      4088.5000         0.7983         0.7843         0.8638         0.8748        -44.207      -9.027653      0.8216077
      4089.0000         0.7765         0.8178         0.8529         0.8714       -44.8591       -9.67783      0.8071594
      4089.5000         0.7547         0.8512          0.842         0.8642       -45.2642      -10.08101      0.7981999
      4090.0000         0.7272         0.8847         0.8305         0.8534       -45.0811      -9.895985      0.8023115
      4090.5000         0.6999         0.9181         0.8123         0.8427       -44.7708      -9.583759      0.8092498
      4091.0000         0.7015         0.9568         0.8013          0.832       -44.0051      -8.816135      0.8263081
      4091.5000         0.7156         0.9967         0.7968         0.8217       -43.2396      -8.048714      0.8433619
      4092.0000         0.7368         1.0365         0.7923         0.8114       -42.4739       -7.28109      0.8604202
      4092.5000          0.758         1.0763         0.7878         0.8146       -41.5015      -6.306767      0.8820719
      4093.0000         0.7789         1.1162         0.7834         0.8284       -40.4643      -5.267643      0.9051635
      4093.5000         0.7965         1.1575         0.7788         0.8428       -39.4271      -4.228519      0.9282551
      4094.0000         0.8141         1.2026         0.7732         0.8593       -38.6938      -3.493298      0.9445934
      4094.5000         0.8317         1.2476         0.7676         0.8757       -38.1708      -2.968372      0.9562584
      4095.0000         0.8456         1.2926         0.7619         0.8922       -38.2972       -3.09285      0.9534922
      4095.5000         0.8558         1.3376         0.7339         0.9032       -38.5912       -3.38493      0.9470016
      4096.0000         0.8661         1.3827         0.7034          0.909       -39.2687      -4.060501      0.9319888
      4096.5000         0.8511         1.4058         0.6728         0.9147       -39.3452      -4.135078      0.9303316
      4097.0000         0.8162         1.4221         0.6402         0.9127       -38.7178      -3.505756      0.9443165
      4097.5000         0.7851         1.4384          0.597         0.9103       -38.0911      -2.877132      0.9582859
      4098.0000         0.7542         1.4548         0.5538         0.9058       -37.4927       -2.27681      0.9716265
      4098.5000         0.7324         1.4711          0.512         0.8927        -37.003      -1.785187      0.9825514
      4099.0000         0.7103         1.4656         0.4712         0.8795       -37.1817      -1.961964       0.978623
      4099.5000          0.684         1.4326         0.4327         0.8662       -37.3604      -2.138741      0.9746947
      4100.0000         0.6461         1.3995         0.4015         0.8368       -38.8628      -3.639217      0.9413507
      4100.5000         0.6347         1.3664         0.3704         0.8073       -40.4197      -5.194195      0.9067957
      4101.0000         0.6475         1.3305         0.3436         0.7795       -41.9855      -6.758072      0.8720428
      4101.5000          0.658         1.2837         0.3286         0.7534       -44.8193      -9.589947      0.8091123
      4102.0000         0.6645         1.2369         0.3135         0.7273       -47.0319      -11.80062      0.7599862
      4102.5000         0.6709         1.1901         0.2985         0.7136       -50.1668       -14.9336      0.6903644
      4103.0000         0.6774         1.1433         0.2865         0.7011       -52.2568      -17.02168      0.6439627
      4103.5000         0.6231         1.0965         0.2813          0.697       -54.7303      -19.49326      0.5890388
      4104.0000         0.5695         1.0508          0.276         0.6933       -58.1452      -22.90623      0.5131949
      4104.5000         0.5288         1.0064         0.2707         0.6896       -61.3415      -26.10061      0.4422088
      4105.0000         0.4879         0.9621         0.2654         0.6833       -63.9779      -28.73508      0.3836648
      4105.5000         0.4494         0.9178         0.2602         0.6693       -65.8805      -30.63576      0.3414275
      4106.0000         0.4191         0.8735         0.2561         0.6462       -67.4987      -32.25204      0.3055102
      4106.5000         0.3993         0.8292         0.2528         0.6139       -69.0265      -33.77791      0.2716019
      4107.0000         0.3863         0.7908         0.2496         0.5831       -70.4563      -35.20579      0.2398714
      4107.5000         0.3732         0.7551         0.2463         0.5558       -71.8849      -36.63247      0.2081673
      4108.0000         0.3604         0.7194          0.243         0.5284       -72.8925      -37.63815       0.185819
      4108.5000         0.3478         0.6836         0.2397         0.5036       -73.8075      -38.55122      0.1655284
      4109.0000         0.3353         0.6479         0.2377         0.4835       -74.6395       -39.3813      0.1470822
      4109.5000          0.323         0.6122         0.2363         0.4633       -75.3511      -40.09097      0.1313117
      4110.0000         0.3172         0.5808         0.2348         0.4438        -76.062      -40.79995      0.1155568
      4110.5000         0.3114         0.5729         0.2333         0.4268       -76.7397      -41.47573      0.1005394
      4111.0000         0.3059         0.5649         0.2319         0.4097       -77.2843      -42.01841     0.08847987
      4111.5000         0.3051         0.5569         0.2304         0.3927       -77.8289      -42.56108     0.07642034
      4112.0000         0.3044         0.5489          0.229         0.3796        -78.373      -43.10326       0.064372
