#------------------------------------------------------------------------------
# Created by    : vladimir.rabinovich
# Created on    : 09/19/2023 17:20:51
#------------------------------------------------------------------------------
~Version Information Section
VERS.           2.0     :   CWLS log ASCII Standard - VERSION 2.0
WRAP.           NO      :   One line per depth step
~Well Information Section
#MNEM       .UNIT                                         VALUE :DESCRIPTION
#------------------------------------------------------------------------------
STRT        .FT                                             126 :START DEPTH
STOP        .FT                                           15000 :STOP DEPTH
STEP        .FT                                             0.5 :STEP      
NULL        .                                           -999.25 :NULL      
COMP        .                                    MOBIL OIL CORP :COMPANY   
WELL        .                                MCFADDIN TRUST BLK :WELL      
FLD         .                                           WILDCAT :FIELD     
LOC         .                                                   :LOCATION  
CNTY        .                                         JEFFERSON :LOCATION  
STAT        .                                             TEXAS :STATE     
CTRY        .                                     UNITED STATES :COUNTRY   
SRVC        .                                                   :SERVICE COMPANY
DATE        .                             9/13/2023 11:19:11 AM :LOG DATE  
API         .                                    42245029210000 :API NUMBER
UWI         .                                    42245029210000 :UNIQUE WELL ID
XCOORD      .                                  1288949.71304085 :SURFACE X 
YCOORD      .                                  10768198.0929689 :SURFACE Y 
LAT         .                                        29.6663916 :LATITUDE  
LON         .                                       -94.1069885 :LONGITUDE 
ELEV        .FT                                              20 :ELEVATION VALUE
ELEV_TYPE   .                                                DF :ELEVATION REFERENCE TYPE
~Curve Information Section
#MNEM       .UNIT                                      API CODE :CURVE DESCRIPTION
#------------------------------------------------------------------------------
DEPT        .FT                                                 :DEPTH     
ASN         .OHMM                                               :          
LAT         .OHMM                                               :          
LN          .OHMM                                               :          
SN          .OHMM                                               :          
SP          .MV                                                 :          
SP_NORM     .MV                                                 :SP Normalized
VSH_SP      .V/V                                                :Volume of Shale from SP
~A        DEPTH            ASN            LAT             LN             SN             SP        SP_NORM         VSH_SP
# ...
      3107.5000         0.8348         1.1278         0.9839         0.8426       -42.4388      -9.594406      0.7796306
      3108.0000         0.8181         1.1164         0.9852         0.8304       -40.9572      -8.096676      0.8180339
      3108.5000         0.7991         1.1142         0.9866         0.8182       -39.4756      -6.598953      0.8564371
      3109.0000         0.7812         1.1137         0.9879         0.8059       -38.2678      -5.375023      0.8878199
      3109.5000         0.7726         1.1132         0.9893         0.7937       -37.1542      -4.245296      0.9167873
      3110.0000         0.7641         1.1127         0.9907         0.7926       -36.0402      -3.115166       0.945765
      3110.5000         0.7557         1.1122          0.992         0.7916        -36.323       -3.38184      0.9389272
      3111.0000         0.7474         1.1117         0.9934         0.7906        -36.623      -3.665714      0.9316484
      3111.5000         0.7429         1.1172         0.9947         0.7931        -36.923      -3.949585      0.9243696
      3112.0000         0.7461         1.1271         0.9946         0.7974       -37.3873      -4.397755      0.9128781
      3112.5000         0.7531          1.137         0.9938         0.8018       -38.0685      -5.062828      0.8958249
      3113.0000          0.761         1.1468         0.9929         0.8067       -38.7493      -5.727501       0.878782
      3113.5000          0.769         1.1567          0.992         0.8128       -39.4305      -6.392574      0.8617288
      3114.0000         0.7769         1.1666         0.9911          0.819       -39.9359      -6.881847      0.8491834
      3114.5000         0.7849         1.1765         0.9902         0.8251       -40.4163      -7.346119       0.837279
      3115.0000         0.7928          1.179         0.9894         0.8284       -40.8967       -7.81039      0.8253746
      3115.5000         0.8007         1.1762         0.9885          0.831       -41.3068      -8.204365      0.8152727
      3116.0000         0.8086         1.1734         0.9876         0.8335       -41.5639      -8.445335       0.809094
      3116.5000         0.8166         1.1705         0.9867         0.8361       -41.8208      -8.686108      0.8029203
      3117.0000         0.8214         1.1621         0.9857         0.8418       -42.0779      -8.927078      0.7967416
      3117.5000         0.8151         1.1528         0.9846         0.8509       -42.3596      -9.192654       0.789932
      3118.0000         0.8072         1.1434         0.9836         0.8601       -42.7622      -9.579124      0.7800224
      3118.5000         0.8028         1.1341         0.9825         0.8759       -43.1648      -9.965595      0.7701129
      3119.0000         0.8104         1.1247         0.9814         0.8942       -43.5677      -10.35237      0.7601957
      3119.5000         0.8179         1.1154         0.9803         0.9124       -44.0905      -10.85904      0.7472041
      3120.0000         0.8289         1.1129         0.9792          0.926       -44.6417      -11.39412      0.7334842
      3120.5000         0.8409         1.1219         0.9782         0.9329       -45.1929      -11.92919      0.7197644
      3121.0000          0.853          1.131         0.9771         0.9398       -45.6041      -12.32426      0.7096344
      3121.5000         0.8656         1.1401         0.9773         0.9453       -45.6588      -12.36283      0.7086455
      3122.0000          0.881         1.1492         0.9774         0.9473       -45.1951        -11.883      0.7209488
      3122.5000         0.8952         1.1583         0.9776         0.9493       -44.7318      -11.40358      0.7332416
      3123.0000         0.8983         1.1674         0.9778         0.9513       -44.2684      -10.92405      0.7455373
      3123.5000         0.9013         1.1756          0.978         0.9523       -43.6728      -10.31232      0.7612227
      3124.0000         0.8919         1.1832         0.9781         0.9524        -43.024      -9.647388      0.7782721
      3124.5000          0.882         1.1908         0.9783         0.9524       -42.3752      -8.982464      0.7953215
      3125.0000         0.8721         1.1984         0.9782         0.9525       -41.7264      -8.317535      0.8123709
      3125.5000         0.8714          1.206         0.9773         0.9565       -41.5724      -8.147408      0.8167331
      3126.0000         0.8782         1.2136         0.9763         0.9614       -41.7755      -8.334381      0.8119389
      3126.5000          0.886         1.2212         0.9754         0.9662       -42.5166      -9.059353      0.7933499
      3127.0000          0.895         1.2266         0.9744         0.9707       -43.2577      -9.784328      0.7747608
      3127.5000         0.9039         1.2283         0.9735         0.9718       -43.9985        -10.509      0.7561795
      3128.0000         0.9129           1.23         0.9725         0.9729       -44.7596      -11.25397      0.7370777
      3128.5000         0.9219         1.2316         0.9711          0.974       -45.5258      -12.00404      0.7178451
      3129.0000         0.9308         1.2333         0.9696         0.9721       -46.2919      -12.75402       0.698615
      3129.5000         0.9388          1.235         0.9681          0.968       -46.4415      -12.88749      0.6951926
      3130.0000         0.9463         1.2367         0.9666         0.9638       -46.2797      -12.70956      0.6997548
      3130.5000         0.9553         1.2315         0.9651         0.9597       -45.7625      -12.17623        0.71343
      3131.0000         0.9454         1.2203         0.9636         0.9555       -45.2004        -11.598      0.7282563
      3131.5000         0.9219          1.209         0.9621         0.9513       -44.6386      -11.02008       0.743075
      3132.0000         0.9063         1.1978         0.9606         0.9472       -44.0765      -10.44185      0.7579013
      3132.5000         0.9001         1.1917         0.9587         0.9444       -43.4745      -9.823719      0.7737508
      3133.0000         0.8961         1.1936         0.9562         0.9417       -42.8701       -9.20319      0.7896618
      3133.5000         0.8857         1.1955         0.9536         0.9391       -42.2657      -8.582664      0.8055727
      3134.0000         0.8753         1.1974         0.9511         0.9365       -41.7974       -8.09824      0.8179938
      3134.5000         0.8718         1.1992         0.9485         0.9355        -41.538      -7.822708      0.8250588
      3135.0000         0.8735         1.2011          0.946         0.9346       -41.2786       -7.54718      0.8321236
      3135.5000         0.8752         1.2067         0.9434         0.9337        -41.365      -7.617455      0.8303217
      3136.0000         0.8762         1.2195         0.9298         0.9317        -41.653      -7.889328      0.8233505
      3136.5000         0.8771         1.2323         0.9135         0.9281        -41.941      -8.161201      0.8163794
      3137.0000         0.8781         1.2452         0.8929         0.9246       -42.2289      -8.432972       0.809411
      3137.5000         0.8723          1.258         0.8662         0.9134       -43.1185      -9.306442      0.7870143
      3138.0000         0.8619         1.2708         0.8395         0.8937       -44.2896      -10.46141      0.7573996
      3138.5000         0.8242         1.2836         0.8165         0.8616       -45.6278      -11.78349      0.7235003
      3139.0000         0.7978         1.2759         0.7957         0.8169       -47.3486      -13.48816      0.6797908
      3139.5000         0.7642         1.2512         0.7782         0.7714       -49.1542      -15.27763      0.6339068
      3140.0000         0.7159         1.2216         0.7717          0.718       -51.0334      -17.14071      0.5861357
      3140.5000         0.6635         1.1834         0.7651         0.6688       -53.3397      -19.43088      0.5274134
