#------------------------------------------------------------------------------
# Created by    : vladimir.rabinovich
# Created on    : 09/19/2023 17:20:58
#------------------------------------------------------------------------------
~Version Information Section
VERS.           2.0     :   CWLS log ASCII Standard - VERSION 2.0
WRAP.           NO      :   One line per depth step
~Well Information Section
#MNEM       .UNIT                                         VALUE :DESCRIPTION
#------------------------------------------------------------------------------
STRT        .FT                                            1876 :START DEPTH
STOP        .FT                                            8575 :STOP DEPTH
STEP        .FT                                             0.5 :STEP      
NULL        .                                           -999.25 :NULL      
COMP        .                                      L G D C CORP :COMPANY   
WELL        .                                          GARTH CO :WELL      
FLD         .                                       CHEEK SOUTH :FIELD     
LOC         .                                                   :LOCATION  
CNTY        .                                         JEFFERSON :LOCATION  
STAT        .                                             TEXAS :STATE     
CTRY        .                                     UNITED STATES :COUNTRY   
SRVC        .                                                   :SERVICE COMPANY
DATE        .                             9/13/2023 11:18:46 AM :LOG DATE  
API         .                                    42245322600000 :API NUMBER
UWI         .                                    42245322600000 :UNIQUE WELL ID
XCOORD      .                                  1261779.14844878 :SURFACE X 
YCOORD      .                                  10885364.2183051 :SURFACE Y 
LAT         .                                        29.9878888 :LATITUDE  
LON         .                                       -94.1963831 :LONGITUDE 
ELEV        .FT                                            39.9 :ELEVATION VALUE
ELEV_TYPE   .                                                KB :ELEVATION REFERENCE TYPE
~Curve Information Section
#MNEM       .UNIT                                      API CODE :CURVE DESCRIPTION
#------------------------------------------------------------------------------
DEPT        .FT                                                 :DEPTH     
AT10        .OHMM                                               :          
AT30        .OHMM                                               :          
AT60        .OHMM                                               :          
AT90        .OHMM                                               :          
DCAL        .IN                                                 :          
DPSS        .V/V                                                :          
DRHO        .G/CM3                                              :          
GR          .GAPI                                               :          
GR_NORM     .GAPI                                               :GammaRay Normalized
NPSS        .V/V                                                :Neutron Porosity Sandstone
SP          .MV                                                 :          
SP_NORM     .MV                                                 :SP Normalized
TENS        .LB                                                 :          
VSH_GR      .V/V                                                :Volume of Shale from GR
VSH_SP      .V/V                                                :Volume of Shale from SP
~A        DEPTH           AT10           AT30           AT60           AT90           DCAL           DPSS           DRHO             GR        GR_NORM           NPSS             SP        SP_NORM           TENS         VSH_GR         VSH_SP
# ...
      8557.0000         0.5973         0.5892         0.5785         0.5603         6.4615         0.3712          0.048           93.3       81.81502         0.4401          -23.8      -2.358116           3720              1      0.9691337
      8557.5000         0.5946         0.5785         0.5681         0.5603         5.1043         0.3209         0.0816          92.85       81.44242         0.4371          -23.8      -2.499334           3760              1      0.9659242
      8558.0000         0.5946         0.5707         0.5603         0.5578         4.2271         0.3143         0.0949          92.85       81.46745         0.4426          -23.8      -2.640553           3760              1      0.9627147
      8558.5000         0.5733         0.5655         0.5553         0.5502         4.0213         0.3609         0.0949           92.1       80.82978          0.453          -23.4      -2.381773           3760              1       0.968596
      8559.0000         0.5655         0.5553         0.5452         0.5452         3.4447         0.4073         0.0653        87.6251       76.90079         0.4848            -23      -2.122992           3760      0.9340593      0.9744775
      8559.5000         0.5603         0.5553         0.5452         0.5428           1.94         0.4678         0.0347        83.3274       73.12837         0.5157          -22.6       -1.86421           3760      0.8537952      0.9803588
      8560.0000         0.5578         0.5655         0.5553         0.5477           -0.5         0.4746         0.0214        80.3705       70.54068         0.5305          -22.6      -2.005428           3760      0.7987379      0.9771494
      8560.5000         0.5733         0.5733         0.5629         0.5578          -3.36         0.4722         0.0173        79.9361       70.18187         0.5234          -22.6      -2.146646           3760      0.7911036      0.9739398
      8561.0000         0.5919         0.5838         0.5733         0.5681          -4.52         0.4649         0.0194         79.946       70.21566         0.5181          -22.6      -2.287865           3760      0.7918226      0.9707304
      8561.5000            0.6         0.5946         0.5838         0.5785             -5         0.4545         0.0173        79.9559       70.24143         0.5175          -22.6      -2.429083           3760      0.7923709      0.9675208
      8562.0000         0.6028         0.6056         0.5946         0.5865           -5.2         0.4477         0.0122        -999.25        -999.25         0.5223          -21.8        -1.7703           3740        -999.25      0.9824932
      8562.5000         0.6142         0.6142         0.6028         0.5946           -5.3         0.4422         0.0092        -999.25        -999.25         0.5323          -21.2       -1.31152           3720        -999.25        0.99292
      8563.0000         0.6258         0.6228         0.6113         0.5973          -5.28         0.4367         0.0061        -999.25        -999.25         0.5376          -20.8      -1.052736           3720        -999.25      0.9988015
      8563.5000         0.6376         0.6346         0.6228         0.6028          -5.28         0.4287         0.0235        -999.25        -999.25           0.53          -20.6     -0.9939556           3720        -999.25              1
      8564.0000         0.6287         0.6376         0.6258         0.6056        -5.2795         0.4018         0.0459        -999.25        -999.25         0.4964          -20.6      -1.135174       3739.563        -999.25      0.9969279
      8564.5000         0.6171         0.6228         0.6113         0.5919        -5.2785         0.4102         0.0541        -999.25        -999.25         0.4564          -20.2     -0.8763924       3758.674        -999.25              1
      8565.0000         0.6056         0.6085         0.5973         0.5785        -5.2775          0.439         0.0541        -999.25        -999.25         0.3926          -19.8      -0.617609       3757.792        -999.25              1
      8565.5000         0.6085         0.6085         0.5973         0.5785        -5.2565         0.4625         0.0388        -999.25        -999.25         0.2998          -19.8     -0.7588272        3756.91        -999.25              1
      8566.0000         0.6228         0.6142         0.6028         0.5838        -5.2555         0.4593         0.0337        -999.25        -999.25         0.2481          -19.8     -0.9000454       3756.029        -999.25              1
      8566.5000         0.6199         0.6085         0.6085         0.5892        -5.2545         0.4493         0.0255        -999.25        -999.25         0.2416            -20      -1.241264       3755.149        -999.25      0.9945167
      8567.0000         0.5812         0.5812         0.5785         0.5603        -5.2535         0.4468         0.0143        -999.25        -999.25         0.2392          -20.4      -1.782482       3734.335        -999.25      0.9822163
      8567.5000         0.5603         0.5578         0.5553         0.5378        -5.2525          0.456         0.0102        -999.25        -999.25         0.2386          -20.4        -1.9237       3713.542        -999.25      0.9790068
      8568.0000         0.5553         0.5403         0.5477         0.5305        -5.2515         0.4776         0.0143        -999.25        -999.25         0.2391          -20.2       -1.86492       3712.685        -999.25      0.9803427
      8568.5000         0.5707         0.5681         0.5629         0.5452        -5.2505         0.5025         0.0071        -999.25        -999.25         0.2385          -20.2      -2.006138       3731.733        -999.25      0.9771332
      8569.0000         0.5973         0.5759         0.5785         0.5603        -5.2495         0.5125         -0.001        -999.25        -999.25         0.2372          -20.2      -2.147356       3750.762        -999.25      0.9739237
      8569.5000         0.6028         0.5812         0.5892         0.5707        -5.2485          0.516        -0.0088        -999.25        -999.25         0.2372          -20.2      -2.288574       3749.888        -999.25      0.9707142
      8570.0000         0.6028         0.5919         0.5973         0.5785        -5.2475         0.5207        -0.0176        -999.25        -999.25         0.2372          -19.8      -2.029791       3729.139        -999.25      0.9765956
      8570.5000         0.6056         0.5865         0.5892         0.5707        -5.2465         0.5248        -0.0196        -999.25        -999.25         0.2371          -20.2      -2.571012        3708.41        -999.25      0.9642951
      8571.0000         0.5892         0.5733         0.5733         0.5553        -5.2455         0.5259        -0.0225        -999.25        -999.25         0.2371          -20.2      -2.712231       3727.413        -999.25      0.9610857
      8571.5000         0.5865         0.5629         0.5603         0.5428        -5.2445         0.5265        -0.0245        -999.25        -999.25         0.2371          -20.2      -2.853449       3746.397        -999.25      0.9578761
      8572.0000         0.5892         0.5838         0.5733         0.5553        -5.2435         0.5265        -0.0245        -999.25        -999.25          0.237          -20.2       -2.91605       3765.363        -999.25      0.9564534
      8572.5000         0.6056         0.6142         0.6028         0.5838        -5.2425         0.5264        -0.0216        -999.25        -999.25          0.237          -19.8      -2.516048       3724.832        -999.25      0.9655443
      8573.0000         0.6346         0.6228         0.6113         0.5919        -5.2415         0.5139        -0.0157        -999.25        -999.25          0.237          -19.8      -2.516048       3704.157        -999.25      0.9655443
      8573.5000         0.6028         0.6028         0.5919         0.5733        -5.2405         0.4889              0        -999.25        -999.25          0.237          -19.8      -2.516048       3703.309        -999.25      0.9655443
