#------------------------------------------------------------------------------
# Created by    : vladimir.rabinovich
# Created on    : 09/19/2023 17:20:58
#------------------------------------------------------------------------------
~Version Information Section
VERS.           2.0     :   CWLS log ASCII Standard - VERSION 2.0
WRAP.           NO      :   One line per depth step
~Well Information Section
#MNEM       .UNIT                                         VALUE :DESCRIPTION
#------------------------------------------------------------------------------
STRT        .FT                                            1876 :START DEPTH
STOP        .FT                                            8575 :STOP DEPTH
STEP        .FT                                             0.5 :STEP      
NULL        .                                           -999.25 :NULL      
COMP        .                                      L G D C CORP :COMPANY   
WELL        .                                          GARTH CO :WELL      
FLD         .                                       CHEEK SOUTH :FIELD     
LOC         .                                                   :LOCATION  
CNTY        .                                         JEFFERSON :LOCATION  
STAT        .                                             TEXAS :STATE     
CTRY        .                                     UNITED STATES :COUNTRY   
SRVC        .                                                   :SERVICE COMPANY
DATE        .                             9/13/2023 11:18:46 AM :LOG DATE  
API         .                                    42245322600000 :API NUMBER
UWI         .                                    42245322600000 :UNIQUE WELL ID
XCOORD      .                                  1261779.14844878 :SURFACE X 
YCOORD      .                                  10885364.2183051 :SURFACE Y 
LAT         .                                        29.9878888 :LATITUDE  
LON         .                                       -94.1963831 :LONGITUDE 
ELEV        .FT                                            39.9 :ELEVATION VALUE
ELEV_TYPE   .                                                KB :ELEVATION REFERENCE TYPE
~Curve Information Section
#MNEM       .UNIT                                      API CODE :CURVE DESCRIPTION
#------------------------------------------------------------------------------
DEPT        .FT                                                 :DEPTH     
AT10        .OHMM                                               :          
AT30        .OHMM                                               :          
AT60        .OHMM                                               :          
AT90        .OHMM                                               :          
DCAL        .IN                                                 :          
DPSS        .V/V                                                :          
DRHO        .G/CM3                                              :          
GR          .GAPI                                               :          
GR_NORM     .GAPI                                               :GammaRay Normalized
NPSS        .V/V                                                :Neutron Porosity Sandstone
SP          .MV                                                 :          
SP_NORM     .MV                                                 :SP Normalized
TENS        .LB                                                 :          
VSH_GR      .V/V                                                :Volume of Shale from GR
VSH_SP      .V/V                                                :Volume of Shale from SP
~A        DEPTH           AT10           AT30           AT60           AT90           DCAL           DPSS           DRHO             GR        GR_NORM           NPSS             SP        SP_NORM           TENS         VSH_GR         VSH_SP
# ...
      7265.0000         0.5069         0.4535         0.4514         0.4369           0.52          0.315         0.0107        88.0312       78.66585         0.4406       -34.8259       1.438118           3340      0.9716138              1
      7265.5000         0.5069         0.4431         0.4349          0.421           0.52         0.3186         0.0076        88.6236       79.57344         0.4509        -36.835     -0.5674248           3340      0.9909242              1
      7266.0000         0.5046         0.4309         0.4229         0.4094           0.54         0.3264         0.0045        86.0661       75.62365         0.4794       -39.8452      -3.574074           3340      0.9068862      0.9652152
      7266.5000         0.5281         0.4269          0.419         0.4056           0.58         0.3348         0.0044        79.0085       64.73435         0.4971       -50.0553      -13.78062           3340       0.675199      0.8272889
      7267.0000         0.5733         0.4309         0.4075         0.3946           0.42         0.3336         0.0043         72.242       54.29398         0.4764       -72.1049      -35.82666           3320      0.4530633      0.5293694
      7267.5000         0.5305         0.4056         0.3787         0.3668           0.22         0.3222         0.0002        65.4575       43.82584         0.3923       -89.8496      -53.56782           3300      0.2303371      0.2896241
      7268.0000         0.5046         0.3735         0.3668         0.3552           0.02         0.3138        -0.0069        59.8713       35.20558           0.33      -104.2981      -68.01277           3300     0.04692727     0.09442201
      7268.5000         0.5092         0.3618         0.3552          0.344          -0.16          0.306         -0.012        59.2492       34.24031         0.3048      -107.6448      -71.35591           3280     0.02638967     0.04924444
      7269.0000            0.5         0.3504          0.344         0.3332          -0.16         0.3084        -0.0161        60.5948       36.30939         0.3078      -109.6082      -73.31576           3280     0.07041249     0.02276003
      7269.5000         0.4885         0.3378         0.3317         0.3213          -0.16         0.3144        -0.0192        62.3904       39.07238         0.3138      -109.4135      -73.11751           3280      0.1291997     0.02543908
      7270.0000         0.5069          0.344         0.3302         0.3198          -0.16         0.3204        -0.0213        65.0936       43.23497         0.3156      -108.0489      -71.74935           3280      0.2177654     0.04392768
      7270.5000         0.5281          0.344         0.3317         0.3213          -0.14         0.3198        -0.0224        66.5912       45.53846         0.3168      -106.6897       -70.3866           3280      0.2667757     0.06234329
      7271.0000         0.5233          0.344         0.3332         0.3227          -0.18         0.3144        -0.0215        66.5793       45.51416         0.3144      -106.3075      -70.00085           3300      0.2662587     0.06755602
      7271.5000         0.5069          0.344         0.3332         0.3227          -0.24         0.3156        -0.0216        65.2069       43.39188         0.3174      -106.1207      -69.81049           3300      0.2211038     0.07012846
      7272.0000         0.5305          0.344         0.3363         0.3257          -0.22         0.3174        -0.0217        62.7743       39.63467         0.3288      -105.5476      -69.23384           3340      0.1411632     0.07792107
      7272.5000         0.5023         0.3456         0.3302         0.3198           -0.2         0.3198        -0.0228        60.0365       35.40684           0.33      -105.5562      -69.23889           3340     0.05120939     0.07785282
      7273.0000         0.4369         0.3227         0.3069         0.2972          -0.18         0.3222        -0.0239         58.356       32.80945         0.3258      -105.9505      -69.62964           3340              0     0.07257245
      7273.5000         0.4113         0.3028         0.2918         0.2826          -0.16         0.3246         -0.028        58.6438       33.24731         0.3234      -107.1131      -70.78868           3340    0.005261928     0.05690972
      7274.0000          0.421         0.3014         0.2959         0.2865        -0.1599         0.3264        -0.0279        59.3899       34.39192         0.3234      -107.5078      -71.17982           3340     0.02961528     0.05162399
      7274.5000         0.4369         0.3126         0.3069         0.2972        -0.1598         0.3228        -0.0298        60.7467       36.47826         0.3228      -107.9078      -71.57628           3340     0.07400545      0.0462665
      7275.0000         0.4493         0.3213         0.3155         0.3055        -0.1396         0.3216        -0.0277        62.8634       39.73642         0.3162      -108.8836      -72.54852           3360      0.1433281     0.03312807
      7275.5000         0.4451         0.3213         0.3155         0.3055        -0.0996          0.321        -0.0276        65.5893       43.93402         0.3132      -109.4746      -73.13597           3380      0.2326387     0.02518958
      7276.0000         0.4451         0.3213         0.3155         0.3055        -0.0995          0.318        -0.0275        68.4699       48.37018         0.3114      -108.9136      -72.57142           3380      0.3270251     0.03281866
      7276.5000         0.4556         0.3242         0.3183         0.3083        -0.0994         0.3192        -0.0274        68.9224       49.06202         0.3102      -107.3941      -71.04837           3380      0.3417452      0.0534004
      7277.0000         0.4862         0.3394         0.3287         0.3183        -0.0795         0.3216        -0.0293        70.4395       51.39556         0.3132      -103.9589      -67.60962           3360      0.3913948     0.09987001
      7277.5000         0.5115         0.3601          0.344         0.3332        -0.0794         0.3168        -0.0292        72.5665       54.66961         0.3156       -98.7345      -62.38166           3340      0.4610554      0.1705181
      7278.0000         0.5527         0.3821         0.3618         0.3504        -0.0991         0.3108        -0.0291         74.087       57.00839         0.3246       -95.7104      -59.35402           3340      0.5108168      0.2114322
      7278.5000         0.5162         0.3769         0.3536         0.3425        -0.1189         0.3048         -0.027        72.1073       53.94961         0.3192       -96.9467      -60.58676           3340      0.4457363      0.1947735
      7279.0000         0.4493         0.3472         0.3347         0.3242         -0.099         0.3054        -0.0269        64.7941       42.66617         0.3108      -100.2009       -63.8374           3340      0.2056632      0.1508459
      7279.5000         0.4019         0.3198         0.3155         0.3055        -0.0791         0.3096        -0.0278        59.6071        34.6615         0.3108      -101.9413      -65.57425           3320     0.03535112       0.127375
      7280.0000         0.4019         0.3126         0.3112         0.3014        -0.0593         0.3132        -0.0277        60.0567       35.34888          0.315       -98.4263       -62.0557           3340     0.04997611       0.174923
      7280.5000         0.3982         0.3287         0.3227         0.3126         0.0592         0.3096        -0.0216        64.6259       42.38897         0.3252       -86.6474      -50.27325           3320      0.1997654      0.3341453
      7281.0000         0.4577          0.352         0.3456         0.3347         0.1774         0.3018        -0.0125        73.7789       56.49763         0.3402       -70.3794       -34.0017           3320      0.4999496      0.5540311
      7281.5000         0.5257          0.421         0.4132            0.4         0.3348         0.2952        -0.0024           82.8       70.40289         0.3582          -55.8      -19.41874           3340      0.7958062      0.7510981
