#------------------------------------------------------------------------------
# Created by    : vladimir.rabinovich
# Created on    : 09/19/2023 17:22:24
#------------------------------------------------------------------------------
~Version Information Section
VERS.           2.0     :   CWLS log ASCII Standard - VERSION 2.0
WRAP.           NO      :   One line per depth step
~Well Information Section
#MNEM       .UNIT                                         VALUE :DESCRIPTION
#------------------------------------------------------------------------------
STRT        .FT                                            1850 :START DEPTH
STOP        .FT                                            8215 :STOP DEPTH
STEP        .FT                                             0.5 :STEP      
NULL        .                                           -999.25 :NULL      
COMP        .                                  NOBLE ENERGY INC :COMPANY   
WELL        .                                           MEADOWS :WELL      
FLD         .                                          BINDWEED :FIELD     
LOC         .                                                   :LOCATION  
CNTY        .                                         JEFFERSON :LOCATION  
STAT        .                                             TEXAS :STATE     
CTRY        .                                     UNITED STATES :COUNTRY   
SRVC        .                                                   :SERVICE COMPANY
DATE        .                             9/13/2023 11:18:46 AM :LOG DATE  
API         .                                    42245325230000 :API NUMBER
UWI         .                                    42245325230000 :UNIQUE WELL ID
XCOORD      .                                  1273245.27472043 :SURFACE X 
YCOORD      .                                  10899721.9019567 :SURFACE Y 
LAT         .                                           30.0277 :LATITUDE  
LON         .                                       -94.1606194 :LONGITUDE 
ELEV        .FT                                              29 :ELEVATION VALUE
ELEV_TYPE   .                                                KB :ELEVATION REFERENCE TYPE
~Curve Information Section
#MNEM       .UNIT                                      API CODE :CURVE DESCRIPTION
#------------------------------------------------------------------------------
DEPT        .FT                                                 :DEPTH     
CALX        .IN                                                 :          
DPSS        .%                                                  :          
DRHO        .G/CM3                                              :          
DT24        .US/FT                                              :          
GR          .GAPI                                               :          
GR_NORM     .GAPI                                               :GammaRay Normalized
M2R1        .OHMM                                               :          
M2R2        .OHMM                                               :          
M2R3        .OHMM                                               :          
M2R6        .OHMM                                               :          
M2R9        .OHMM                                               :          
M2RX        .OHMM                                               :          
NPSS        .%                                                  :Neutron Porosity Sandstone
SP          .MV                                                 :          
SP_NORM     .MV                                                 :SP Normalized
TENS        .LB                                                 :          
VSH_GR      .V/V                                                :Volume of Shale from GR
VSH_SP      .V/V                                                :Volume of Shale from SP
~A        DEPTH           CALX           DPSS           DRHO           DT24             GR        GR_NORM           M2R1           M2R2           M2R3           M2R6           M2R9           M2RX           NPSS             SP        SP_NORM           TENS         VSH_GR         VSH_SP
# ...
      3236.0000          9.555        -999.25           0.07          140.8           71.7       86.02541         0.9352         1.0767         1.1381          1.192         1.2368         1.3074        -999.25            -12      -2.595364       -38.7755              1      0.9742683
      3236.5000          9.555        -999.25          0.072          143.4           71.1       84.97637         0.8601         0.9717         1.0377         1.0767         1.1277          1.192        -999.25          -12.8       -3.39835       -38.7755              1      0.9613169
      3237.0000          9.555        -999.25          0.082          146.6           71.4       85.49802         0.7849          0.868         0.9442          0.981         1.0281         1.0767        -999.25          -13.2      -3.801335       -38.7755              1      0.9548172
      3237.5000          9.555        -999.25          0.076          148.4           71.7       86.01965         0.7412         0.7924         0.8601         0.8838         0.9262          0.981        -999.25          -13.6      -4.204321       -38.7755              1      0.9483174
      3238.0000          9.595        -999.25          0.076          149.2           71.1        84.9706            0.7         0.7701          0.822         0.8447         0.8919         0.8919        -999.25          -13.6      -4.207307       -38.7755              1      0.9482692
      3238.5000          9.675        -999.25          0.076          148.2           68.1       79.73306         0.6937         0.7555            0.8         0.8371          0.868         0.8759        -999.25          -13.6      -4.210292       -38.7755      0.9943205      0.9482211
      3239.0000          9.715        -999.25           0.08          138.8           64.2        72.9248         0.7483         0.7924         0.8295         0.8838         0.8838         0.9442        -999.25            -14      -4.613277       -38.7755      0.8494639      0.9417213
      3239.5000          9.795        -999.25          0.086            124           60.3       66.11654          0.868         0.9262         0.9532              1         1.0377         1.0867        -999.25          -14.4      -5.016263       -38.7755      0.7046072      0.9352216
      3240.0000          9.795        -999.25          0.094          114.8        54.4898       55.97458         1.0377         1.1173         1.1487          1.181         1.2368         1.2834        -999.25          -15.6      -6.219249       -38.7755      0.4888208      0.9158186
      3240.5000          9.795        -999.25         0.1143       105.5102        48.0612       44.75336         1.2599         1.3074         1.3692         1.4077         1.4077          1.434        -999.25          -17.2      -7.822235       -38.7755      0.2500714      0.8899639
      3241.0000          9.795        -999.25         0.1224       106.3265         47.449       43.68304          1.192         1.3819         1.3947         1.3947          1.434          1.544        -999.25            -18       -8.62522       -38.7755      0.2272987      0.8770126
      3241.5000          9.795        -999.25         0.1163          120.6        52.3469       52.22902         0.8524         1.0281          1.057          1.057         1.0767          1.192        -999.25          -17.2      -7.828206       -38.7755       0.409128      0.8898677
      3242.0000          9.795        -999.25          0.092          133.2           61.5       68.20126         0.7145         0.7777         0.8371         0.8371         0.8371         0.9174        -999.25          -16.4      -7.031191       -38.7755      0.7489629      0.9027227
      3242.5000          9.835        -999.25          0.078          144.4           69.3       81.81203         0.6111         0.6824         0.7422         0.7422         0.7491         0.7633        -999.25          -15.2      -5.834176       -38.7755              1      0.9220294
      3243.0000          9.835        -999.25           0.07          147.8             75       91.75783         0.5832          0.658         0.7084         0.7084         0.7218         0.7423        -999.25          -14.8      -5.437162       -38.7755              1      0.9284329
      3243.5000          9.835        -999.25           0.07          149.6           76.2       93.85019         0.5888         0.6581         0.6893         0.6893         0.7154         0.7288        -999.25          -14.4      -5.040148       -38.7755              1      0.9348363
      3244.0000          9.835        -999.25          0.074          149.6           75.9       93.32473         0.6112         0.6583         0.6896         0.6896         0.7157         0.7291        -999.25          -13.6      -4.243134       -38.7755              1      0.9476914
      3244.5000          9.875        -999.25          0.078          148.6           73.8       89.65784         0.6286         0.6585         0.6899         0.6899         0.7094         0.7293        -999.25          -13.6      -4.246119       -38.7755              1      0.9476432
      3245.0000          9.995        -999.25           0.08          146.4           73.2       88.60878         0.6465         0.6587         0.6838         0.6966         0.7031         0.7096        -999.25          -14.4      -5.049104       -38.7755              1      0.9346918
      3245.5000         10.075        -999.25           0.08          140.4           70.2       83.37125         0.6713         0.6905         0.6905         0.7099         0.7099         0.7164        -999.25          -15.2       -5.85209       -38.7755              1      0.9217405
      3246.0000         10.115        -999.25          0.088          134.4             66       76.03943         0.7783         0.7642         0.7435         0.7572         0.7435         0.7503        -999.25          -16.8      -7.455075       -38.7755      0.9157325      0.8958859
      3246.5000         10.115        -999.25          0.092          124.8           61.2       67.66044         0.9442         0.8601         0.8447         0.8447         0.8524          0.822        -999.25          -20.8      -11.45806       -38.7755      0.7374561      0.8313216
      3247.0000         10.115        -999.25          0.096          115.2        56.3265       59.15324         1.1173          0.981         0.9624         0.9442          0.981         0.8838        -999.25          -24.4      -15.06105       -38.7755       0.556452      0.7732089
      3247.5000         10.115        -999.25          0.098       106.1224        54.1837       55.41167         1.2599          1.057         1.0281         1.0377         1.0281         0.9532        -999.25          -29.6      -20.26403       -38.7755      0.4768441      0.6892897
      3248.0000         10.115        -999.25          0.098           94.4        54.1837       55.40976         1.3318         1.0473         0.9905         0.9905              1          0.981        -999.25          -32.8      -23.46702       -38.7755      0.4768035      0.6376287
      3248.5000         10.115        -999.25          0.102       101.8367        56.3265       59.14751         1.1277         0.9532         0.8838         0.9174         0.8838          0.868        -999.25          -35.2         -25.87       -38.7755      0.5563301      0.5988709
      3249.0000         10.115        -999.25            0.1          110.8        59.3878       64.48821         0.8601         0.8295         0.8295         0.8295         0.7858         0.7718        -999.25          -34.8      -25.47299       -38.7755       0.669962      0.6052744
      3249.5000         10.075        -999.25          0.096          131.6             63       70.79039         0.7316         0.7448         0.7316         0.7316         0.7058         0.6928        -999.25          -28.8      -19.47598       -59.1837      0.8040509      0.7020004
