#------------------------------------------------------------------------------
# Created by    : vladimir.rabinovich
# Created on    : 09/19/2023 17:22:02
#------------------------------------------------------------------------------
~Version Information Section
VERS.           2.0     :   CWLS log ASCII Standard - VERSION 2.0
WRAP.           NO      :   One line per depth step
~Well Information Section
#MNEM       .UNIT                                         VALUE :DESCRIPTION
#------------------------------------------------------------------------------
STRT        .FT                                          2944.5 :START DEPTH
STOP        .FT                                           12030 :STOP DEPTH
STEP        .FT                                             0.5 :STEP      
NULL        .                                           -999.25 :NULL      
COMP        .                                  SAMEDAN OIL CORP :COMPANY   
WELL        .                                         ROBERTSON :WELL      
FLD         .                                     HAMSHIRE WEST :FIELD     
LOC         .                                                   :LOCATION  
CNTY        .                                         JEFFERSON :LOCATION  
STAT        .                                             TEXAS :STATE     
CTRY        .                                     UNITED STATES :COUNTRY   
SRVC        .                                                   :SERVICE COMPANY
DATE        .                             9/13/2023 11:18:46 AM :LOG DATE  
API         .                                    42245321120000 :API NUMBER
UWI         .                                    42245321120000 :UNIQUE WELL ID
XCOORD      .                                  1214919.43989532 :SURFACE X 
YCOORD      .                                  10839736.7579652 :SURFACE Y 
LAT         .                                        29.8609813 :LATITUDE  
LON         .                                       -94.3427285 :LONGITUDE 
ELEV        .FT                                              38 :ELEVATION VALUE
ELEV_TYPE   .                                                KB :ELEVATION REFERENCE TYPE
~Curve Information Section
#MNEM       .UNIT                                      API CODE :CURVE DESCRIPTION
#------------------------------------------------------------------------------
DEPT        .FT                                                 :DEPTH     
CALI        .IN                                                 :          
DPSS        .%                                                  :          
DRHO        .G/CM3                                              :          
GR          .GAPI                                               :          
GR_NORM     .GAPI                                               :GammaRay Normalized
ILD         .OHMM                                               :          
ILM         .OHMM                                               :          
NPSS        .%                                                  :Neutron Porosity Sandstone
SGRD        .OHMM                                               :          
SP          .MV                                                 :          
SP_NORM     .MV                                                 :SP Normalized
TENS        .LB                                                 :          
VSH_GR      .V/V                                                :Volume of Shale from GR
VSH_SP      .V/V                                                :Volume of Shale from SP
~A        DEPTH           CALI           DPSS           DRHO             GR        GR_NORM            ILD            ILM           NPSS           SGRD             SP        SP_NORM           TENS         VSH_GR         VSH_SP
# ...
      5392.5000        -999.25        -999.25        -999.25          63.75       69.24438         0.6113          0.764        -999.25         1.3853      -130.2475      -66.29059        2217.21       0.771157      0.3054193
      5393.0000        -999.25        -999.25        -999.25           61.2         65.535         0.6142         0.7364        -999.25          1.379      -133.8119      -69.85633         2216.6       0.692234      0.2674858
      5393.5000        -999.25        -999.25        -999.25           60.6       64.65586         0.6171         0.7296        -999.25          1.484      -131.2376      -67.28336       2215.991       0.673529      0.2948579
      5394.0000        -999.25        -999.25        -999.25           59.7       63.34129         0.6113         0.7398        -999.25         1.6493      -129.2574       -65.3045       2315.066      0.6455594      0.3159095
      5394.5000        -999.25        -999.25        -999.25           59.4       62.89755            0.6         0.7432        -999.25         1.7427      -130.4455      -66.49394       2314.408      0.6361181      0.3032559
      5395.0000        -999.25        -999.25        -999.25             63       68.11421         0.5838         0.7364        -999.25         1.6569      -132.4257      -68.47549       2313.751      0.7471109      0.2821756
      5395.5000        -999.25        -999.25        -999.25           67.5       74.63714         0.5578         0.7032        -999.25         1.4504      -134.2079      -70.25903       2313.094      0.8858966      0.2632018
      5396.0000        -999.25        -999.25        -999.25           71.7       80.72463         0.5281         0.6526        -999.25         1.2238         -136.8      -72.85247       2312.438              1       0.235612
      5396.5000        -999.25        -999.25        -999.25           69.9       78.10383          0.491            0.6        -999.25         1.0762         -138.6      -74.65381       2291.908      0.9596559      0.2164488
      5397.0000        -999.25        -999.25        -999.25           65.1       71.12884         0.4462         0.5477        -999.25         1.0185         -140.4      -76.45514       2271.398      0.8112519      0.1972858
      5397.5000        -999.25        -999.25        -999.25           57.3       59.79971         0.3982         0.5069        -999.25         1.0232         -142.4      -78.45648       2231.054      0.5702066      0.1759949
      5398.0000        -999.25        -999.25        -999.25           51.6       51.51847         0.3568         0.4799        -999.25          1.047         -144.2      -80.25783       2170.904        0.39401      0.1568316
      5398.5000        -999.25        -999.25        -999.25             51       50.63931         0.3287         0.4649        -999.25         1.0812         -145.4      -81.45917        2130.65      0.3753044      0.1440514
      5399.0000        -999.25        -999.25        -999.25           54.6         55.856         0.3097         0.4628        -999.25         1.1216         -146.2      -82.26051       2308.516      0.4862978      0.1355265
      5399.5000        -999.25        -999.25        -999.25          61.65       66.07993         0.3055         0.4649        -999.25         1.1476         -147.8      -83.86185       2387.126      0.7038284       0.118491
      5400.0000        -999.25        -999.25        -999.25          64.35       69.99037         0.3069         0.4691        -999.25         1.1424         -149.8      -85.86319        2366.63      0.7870292     0.09720011
      5400.5000        -999.25        -999.25        -999.25           58.8       61.92683         0.3112         0.4734        -999.25         1.1424         -150.6      -86.66454       2346.535      0.6154646     0.08867516
      5401.0000        -999.25        -999.25        -999.25          53.25       53.86333         0.3169         0.4734        -999.25         1.1742         -151.4      -87.46587       2306.931      0.4439007     0.08015036
      5401.5000        -999.25        -999.25        -999.25          49.65       48.63002         0.3183         0.4713        -999.25         1.2463           -154      -90.06721       2267.327      0.3325535     0.05247652
      5402.0000        -999.25        -999.25        -999.25          48.75       47.31545         0.3213          0.467        -999.25         1.3288         -156.2      -92.26855       2267.327      0.3045841     0.02905801
      5402.5000        -999.25        -999.25        -999.25          47.25       45.13005         0.3227          0.467        -999.25         1.4102         -158.2      -94.26988       2267.327      0.2580861    0.007767211
      5403.0000        -999.25        -999.25        -999.25        41.7327       37.11398         0.3242          0.467        -999.25          1.456         -159.2      -95.27122       2247.525     0.08753156              0
      5403.5000        -999.25        -999.25        -999.25        35.9406       28.69908         0.3317         0.4649        -999.25         1.4492         -159.8      -95.87257       2247.525              0              0
      5404.0000        -999.25        -999.25        -999.25         34.604       26.75085         0.3378         0.4628        -999.25         1.4162         -159.8      -95.87392       2227.723              0              0
      5404.5000        -999.25        -999.25        -999.25        37.5743       31.05357         0.3472         0.4628        -999.25         1.3714         -159.8      -95.87525       2207.921              0              0
      5405.0000        -999.25        -999.25        -999.25        38.6139       32.55411         0.3536         0.4628        -999.25         1.3526         -159.8      -95.87659       2346.535              0              0
      5405.5000        -999.25        -999.25        -999.25        40.6931       35.56351         0.3552         0.4628        -999.25         1.3463         -159.4      -95.47792       2386.139     0.05454271              0
      5406.0000        -999.25        -999.25        -999.25          46.05       43.33014         0.3585          0.467        -999.25         1.3585           -159      -95.07927       2386.139      0.2197901              0
      5406.5000        -999.25        -999.25        -999.25          47.25       45.06347         0.3552          0.467        -999.25         1.3898           -159      -95.08061       2326.733      0.2566695              0
      5407.0000        -999.25        -999.25        -999.25        39.6535       34.02969         0.3488          0.467        -999.25         1.4024           -158      -94.08195       2287.129     0.02190837    0.009766436
      5407.5000        -999.25        -999.25        -999.25        35.7921       28.41698         0.3425          0.467        -999.25         1.3643         -156.8      -92.88329       2247.525              0     0.02251816
      5408.0000        -999.25        -999.25        -999.25         40.099       34.65963         0.3394         0.4628        -999.25         1.3152         -155.6      -91.68464       2247.525     0.03531119      0.0352698
      5408.5000        -999.25        -999.25        -999.25         44.703        41.3335         0.3394         0.4628        -999.25         1.2737         -154.6      -90.68597       2227.723      0.1773085     0.04589389
      5409.0000        -999.25        -999.25        -999.25          46.05       43.28019         0.3409         0.4628        -999.25         1.2971         -154.8      -90.88731       2227.723      0.2187274     0.04375198
      5409.5000        -999.25        -999.25        -999.25           46.5         43.925         0.3472          0.467        -999.25         1.3575         -155.6      -91.68866       2306.931      0.2324468     0.03522702
      5410.0000        -999.25        -999.25        -999.25          48.45       46.74688         0.3552         0.4777        -999.25         1.4208         -155.4      -91.48999       2346.535      0.2924867     0.03734053
