#------------------------------------------------------------------------------
# Created by    : vladimir.rabinovich
# Created on    : 09/19/2023 17:22:56
#------------------------------------------------------------------------------
~Version Information Section
VERS.           2.0     :   CWLS log ASCII Standard - VERSION 2.0
WRAP.           NO      :   One line per depth step
~Well Information Section
#MNEM       .UNIT                                         VALUE :DESCRIPTION
#------------------------------------------------------------------------------
STRT        .FT                                             120 :START DEPTH
STOP        .FT                                           15526 :STOP DEPTH
STEP        .FT                                             0.5 :STEP      
NULL        .                                           -999.25 :NULL      
COMP        .                                    MOBIL OIL CORP :COMPANY   
WELL        .                                MCFADDIN TRUST BLK :WELL      
FLD         .                                           WILDCAT :FIELD     
LOC         .                                                   :LOCATION  
CNTY        .                                         JEFFERSON :LOCATION  
STAT        .                                             TEXAS :STATE     
CTRY        .                                     UNITED STATES :COUNTRY   
SRVC        .                                                   :SERVICE COMPANY
DATE        .                             9/13/2023 11:19:11 AM :LOG DATE  
API         .                                    42245021130000 :API NUMBER
UWI         .                                    42245021130000 :UNIQUE WELL ID
XCOORD      .                                  1317150.22331494 :SURFACE X 
YCOORD      .                                   10814678.490982 :SURFACE Y 
LAT         .                                        29.7949472 :LATITUDE  
LON         .                                       -94.0194715 :LONGITUDE 
ELEV        .FT                                              18 :ELEVATION VALUE
ELEV_TYPE   .                                                DF :ELEVATION REFERENCE TYPE
~Curve Information Section
#MNEM       .UNIT                                      API CODE :CURVE DESCRIPTION
#------------------------------------------------------------------------------
DEPT        .FT                                                 :DEPTH     
SN          .OHMM                                               :          
SP          .MV                                                 :          
SP_NORM     .MV                                                 :SP Normalized
VSH_SP      .V/V                                                :Volume of Shale from SP
~A        DEPTH             SN             SP        SP_NORM         VSH_SP
# ...
     13423.0000          0.696       -39.3046       -1.90144      0.9869357
     13423.5000         0.7146       -39.2647      -1.867016      0.9874346
     13424.0000         0.7333       -39.2248      -1.832588      0.9879335
     13424.5000          0.752       -39.1849      -1.798161      0.9884325
     13425.0000         0.7706        -39.145      -1.763737      0.9889314
     13425.5000         0.7893       -39.1051      -1.729309      0.9894303
     13426.0000          0.808       -39.0653      -1.694984      0.9899278
     13426.5000          0.829       -39.0232       -1.65836      0.9904585
     13427.0000         0.8525       -38.9807      -1.621334      0.9909952
     13427.5000         0.8761       -38.9382      -1.584309      0.9915317
     13428.0000         0.8997       -38.8957      -1.547279      0.9920684
     13428.5000         0.9233       -38.8532      -1.510258       0.992605
     13429.0000         0.9463       -38.8107      -1.473232      0.9931415
     13429.5000         0.9529       -38.7739      -1.441906      0.9935955
     13430.0000         0.9452       -38.7451      -1.418579      0.9939336
     13430.5000         0.9182       -38.7161      -1.395054      0.9942746
     13431.0000         0.8913       -38.6871      -1.371529      0.9946156
     13431.5000         0.8643       -38.6583      -1.348202      0.9949536
     13432.0000         0.8374       -38.6486      -1.343979      0.9950148
     13432.5000          0.818       -38.6426      -1.343452      0.9950224
     13433.0000         0.8031       -38.6366      -1.342926        0.99503
     13433.5000         0.7882       -38.6306        -1.3424      0.9950377
     13434.0000         0.7733       -38.6246      -1.341877      0.9950452
     13434.5000         0.7584       -38.6187       -1.34145      0.9950514
     13435.0000         0.7435       -38.6127      -1.340927       0.995059
     13435.5000         0.7399       -38.6068        -1.3405      0.9950652
     13436.0000         0.7388       -38.6016      -1.340775      0.9950612
     13436.5000         0.7378       -38.6113      -1.355949      0.9948413
     13437.0000         0.7367        -38.621       -1.37112      0.9946215
     13437.5000         0.7357       -38.6308      -1.386395      0.9944001
     13438.0000         0.7346       -38.6405      -1.401569      0.9941801
     13438.5000         0.7336       -38.6503      -1.416843      0.9939588
     13439.0000         0.7315         -38.66      -1.432018      0.9937389
     13439.5000          0.725       -38.6697      -1.447193      0.9935189
     13440.0000         0.7184       -38.6795      -1.462471      0.9932975
     13440.5000         0.7119       -38.6893      -1.477745      0.9930761
     13441.0000         0.7053       -38.6698      -1.463718      0.9932795
     13441.5000         0.6988       -38.6362      -1.435593       0.993687
     13442.0000         0.6922       -38.6027      -1.407566      0.9940932
     13442.5000         0.6857       -38.5691       -1.37944      0.9945009
     13443.0000         0.6857       -38.5355      -1.351315      0.9949085
     13443.5000         0.6861        -38.502      -1.323288      0.9953147
     13444.0000         0.6864       -38.4684      -1.295162      0.9957223
     13444.5000         0.6867       -38.4348      -1.267036      0.9961299
     13445.0000          0.687       -38.4257      -1.263412      0.9961824
     13445.5000         0.6874       -38.4279      -1.271084      0.9960712
     13446.0000         0.6877         -38.43      -1.278664      0.9959614
     13446.5000          0.688       -38.4321      -1.286236      0.9958516
     13447.0000         0.6883       -38.4343      -1.293911      0.9957404
     13447.5000         0.6886       -38.4364      -1.301487      0.9956306
     13448.0000          0.689       -38.4385      -1.309059      0.9955209
     13448.5000         0.6893       -38.4407      -1.316734      0.9954097
     13449.0000         0.6896       -38.4604      -1.341908      0.9950448
     13449.5000         0.6899       -38.4974       -1.38438      0.9944293
     13450.0000         0.6902       -38.5345      -1.426956      0.9938122
     13450.5000         0.6905       -38.5715      -1.469429      0.9931967
     13451.0000           0.69       -38.6085      -1.511906      0.9925811
     13451.5000         0.6821       -38.6455      -1.554379      0.9919655
     13452.0000         0.6741       -38.6825      -1.596855      0.9913499
     13452.5000         0.6661       -38.7195      -1.639332      0.9907343
     13453.0000         0.6582       -38.7452      -1.670506      0.9902825
     13453.5000          0.651       -38.7474      -1.678177      0.9901714
     13454.0000          0.653       -38.7495      -1.685753      0.9900616
     13454.5000         0.6549       -38.7516      -1.693325      0.9899518
     13455.0000         0.6569       -38.7538         -1.701      0.9898406
     13455.5000         0.6588       -38.7559      -1.708576      0.9897308
     13456.0000         0.6608       -38.7581      -1.716248      0.9896196
     13456.5000         0.6705       -38.7602      -1.723824      0.9895098
     13457.0000         0.6816       -38.7623      -1.731396      0.9894001
     13457.5000         0.6927       -38.7645      -1.739071      0.9892888
     13458.0000         0.7038       -38.7666      -1.746651       0.989179
     13458.5000         0.7149       -38.7688      -1.754322      0.9890678
     13459.0000         0.7246       -38.7709      -1.761898       0.988958
     13459.5000         0.7322       -38.7731      -1.769573      0.9888468
     13460.0000         0.7398       -38.7752      -1.777145       0.988737
     13460.5000         0.7475       -38.7773      -1.784721      0.9886273
     13461.0000         0.7551       -38.7795      -1.792393       0.988516
     13461.5000         0.7545       -38.7816      -1.799969      0.9884062
     13462.0000         0.7518       -38.7838       -1.80764      0.9882951
     13462.5000         0.7492       -38.7659      -1.795216      0.9884751
     13463.0000         0.7402       -38.7324      -1.767189      0.9888813
     13463.5000         0.7312       -38.6987      -1.738964      0.9892904
     13464.0000         0.7221       -38.6652      -1.710941      0.9896965
     13464.5000         0.7131       -38.6316      -1.682816      0.9901041
     13465.0000         0.7041        -38.598       -1.65469      0.9905117
     13465.5000         0.7061       -38.5848      -1.646965      0.9906237
     13466.0000         0.7113       -38.5869      -1.654537       0.990514
     13466.5000         0.7164       -38.5891      -1.662212      0.9904027
     13467.0000         0.7216       -38.5912      -1.669788      0.9902929
     13467.5000         0.7268       -38.5933      -1.677361      0.9901832
     13468.0000         0.7311       -38.5955      -1.685036       0.990072
     13468.5000          0.734       -38.5976      -1.692608      0.9899622
     13469.0000         0.7368       -38.5997      -1.700184      0.9898524
     13469.5000         0.7397       -38.6019      -1.707855      0.9897412
     13470.0000         0.7426        -38.604      -1.715435      0.9896314
     13470.5000         0.7454       -38.6061      -1.723007      0.9895216
     13471.0000         0.7441       -38.6083      -1.730682      0.9894104
     13471.5000         0.7342       -38.6104      -1.738258      0.9893006
     13472.0000         0.7242       -38.6125      -1.745831      0.9891909
     13472.5000         0.7142       -38.6147      -1.753506      0.9890797
     13473.0000         0.7043       -38.6169      -1.761181      0.9889684
     13473.5000         0.6943        -38.619      -1.768753      0.9888586
     13474.0000         0.6863       -38.6212      -1.776428      0.9887474
     13474.5000         0.6803       -38.6233         -1.784      0.9886377
     13475.0000         0.6742       -38.6254      -1.791576      0.9885279
     13475.5000         0.6682       -38.6276      -1.799252      0.9884167
