#------------------------------------------------------------------------------
# Created by    : vladimir.rabinovich
# Created on    : 09/19/2023 17:22:56
#------------------------------------------------------------------------------
~Version Information Section
VERS.           2.0     :   CWLS log ASCII Standard - VERSION 2.0
WRAP.           NO      :   One line per depth step
~Well Information Section
#MNEM       .UNIT                                         VALUE :DESCRIPTION
#------------------------------------------------------------------------------
STRT        .FT                                             120 :START DEPTH
STOP        .FT                                           15526 :STOP DEPTH
STEP        .FT                                             0.5 :STEP      
NULL        .                                           -999.25 :NULL      
COMP        .                                    MOBIL OIL CORP :COMPANY   
WELL        .                                MCFADDIN TRUST BLK :WELL      
FLD         .                                           WILDCAT :FIELD     
LOC         .                                                   :LOCATION  
CNTY        .                                         JEFFERSON :LOCATION  
STAT        .                                             TEXAS :STATE     
CTRY        .                                     UNITED STATES :COUNTRY   
SRVC        .                                                   :SERVICE COMPANY
DATE        .                             9/13/2023 11:19:11 AM :LOG DATE  
API         .                                    42245021130000 :API NUMBER
UWI         .                                    42245021130000 :UNIQUE WELL ID
XCOORD      .                                  1317150.22331494 :SURFACE X 
YCOORD      .                                   10814678.490982 :SURFACE Y 
LAT         .                                        29.7949472 :LATITUDE  
LON         .                                       -94.0194715 :LONGITUDE 
ELEV        .FT                                              18 :ELEVATION VALUE
ELEV_TYPE   .                                                DF :ELEVATION REFERENCE TYPE
~Curve Information Section
#MNEM       .UNIT                                      API CODE :CURVE DESCRIPTION
#------------------------------------------------------------------------------
DEPT        .FT                                                 :DEPTH     
SN          .OHMM                                               :          
SP          .MV                                                 :          
SP_NORM     .MV                                                 :SP Normalized
VSH_SP      .V/V                                                :Volume of Shale from SP
~A        DEPTH             SN             SP        SP_NORM         VSH_SP
# ...
     11409.0000         0.7105        -40.895      -2.125759      0.9836847
     11409.5000           0.73       -40.8957      -2.125179      0.9836931
     11410.0000         0.7496       -40.8964      -2.124599      0.9837015
     11410.5000         0.7681       -40.8972      -2.124119      0.9837084
     11411.0000         0.7867       -40.8978      -2.123436      0.9837183
     11411.5000         0.8051       -40.8986      -2.122955      0.9837253
     11412.0000         0.8236       -40.8993      -2.122375      0.9837337
     11412.5000         0.8252          -40.9      -2.121796      0.9837421
     11413.0000          0.825       -40.9007      -2.121212      0.9837505
     11413.5000         0.8248        -40.901      -2.120232      0.9837648
     11414.0000         0.8222       -40.8873      -2.105247      0.9839819
     11414.5000         0.8176       -40.8736      -2.090271       0.984199
     11415.0000         0.8129       -40.8599      -2.075291      0.9844161
     11415.5000         0.8082       -40.8462      -2.060307      0.9846333
     11416.0000         0.8035       -40.8325      -2.045326      0.9848503
     11416.5000         0.8021       -40.8188      -2.030346      0.9850674
     11417.0000         0.8019       -40.8051      -2.015366      0.9852846
     11417.5000         0.8017       -40.7914      -2.000385      0.9855016
     11418.0000          0.807       -40.7776      -1.985302      0.9857203
     11418.5000         0.8223       -40.7648      -1.971222      0.9859243
     11419.0000         0.8376       -40.7569       -1.96204      0.9860574
     11419.5000         0.8529        -40.749      -1.952862      0.9861904
     11420.0000         0.8682       -40.7411       -1.94368      0.9863235
     11420.5000         0.8761       -40.7332      -1.934498      0.9864566
     11421.0000         0.8812       -40.7253      -1.925316      0.9865896
     11421.5000         0.8754       -40.7174      -1.916134      0.9867227
     11422.0000         0.8656       -40.7095      -1.906956      0.9868557
     11422.5000         0.8558       -40.7016      -1.897774      0.9869888
     11423.0000         0.8581       -40.7262      -1.921093      0.9866508
     11423.5000         0.8643       -40.7552      -1.948811      0.9862491
     11424.0000         0.8705       -40.7841      -1.976429      0.9858488
     11424.5000          0.903       -40.8131       -2.00415      0.9854471
     11425.0000         0.9366       -40.8422      -2.031971      0.9850439
     11425.5000         0.9702       -40.8287      -2.017189      0.9852581
     11426.0000         1.0038       -40.8073      -1.994507      0.9855869
     11426.5000         1.0323       -40.7859      -1.971825      0.9859156
     11427.0000          1.049       -40.7646      -1.949245      0.9862428
     11427.5000         1.0656       -40.7433      -1.926666      0.9865701
     11428.0000         1.0823       -40.7219      -1.903984      0.9868988
     11428.5000         1.0832        -40.703      -1.883801      0.9871913
     11429.0000         1.0673        -40.688      -1.867519      0.9874272
     11429.5000         1.0515        -40.673      -1.851242      0.9876631
     11430.0000          1.029        -40.658      -1.834961      0.9878991
     11430.5000         1.0002       -40.6431      -1.818779      0.9881336
     11431.0000         0.9714       -40.6281      -1.802498      0.9883696
     11431.5000         0.9427       -40.6131      -1.786213      0.9886056
     11432.0000         0.9077       -40.5981      -1.769936      0.9888415
     11432.5000         0.8625       -40.5831      -1.753654      0.9890774
     11433.0000         0.8173       -40.5731      -1.742374      0.9892409
     11433.5000         0.7878       -40.5738      -1.741791      0.9892494
     11434.0000         0.7636       -40.5745      -1.741211      0.9892578
     11434.5000         0.7718       -40.5752      -1.740631      0.9892662
     11435.0000           0.78       -40.5759      -1.740051      0.9892746
     11435.5000         0.7882       -40.5766      -1.739468      0.9892831
     11436.0000         0.7972       -40.5773      -1.738888      0.9892915
     11436.5000         0.8067       -40.5781      -1.738403      0.9892985
     11437.0000         0.8158       -40.5787      -1.737728      0.9893083
     11437.5000         0.8204       -40.5795      -1.737244      0.9893153
     11438.0000          0.825       -40.6071      -1.763565      0.9889339
     11438.5000          0.829         -40.64      -1.795181      0.9884756
     11439.0000         0.8248       -40.6728      -1.826698      0.9880189
     11439.5000         0.8203       -40.7056      -1.858223       0.987562
     11440.0000         0.8147       -40.7385      -1.889839      0.9871038
     11440.5000         0.8092       -40.7714      -1.921459      0.9866455
     11441.0000         0.8036       -40.7982      -1.946976      0.9862757
     11441.5000         0.7981       -40.7989      -1.946396      0.9862841
     11442.0000         0.7925       -40.7996      -1.945816      0.9862925
     11442.5000          0.787       -40.8003      -1.945236      0.9863009
     11443.0000         0.7814        -40.801      -1.944653      0.9863094
     11443.5000         0.7837       -40.8092      -1.951572      0.9862091
     11444.0000         0.7867       -40.8604      -2.001492      0.9854856
     11444.5000         0.7897       -40.9117      -2.051514      0.9847606
     11445.0000         0.7928       -40.9629      -2.101429      0.9840373
     11445.5000         0.7958       -41.0141      -2.151348      0.9833138
     11446.0000         0.7988       -41.0654      -2.201366      0.9825889
     11446.5000         0.8018       -41.0993       -2.23399      0.9821161
     11447.0000         0.8049       -41.1165      -2.249908      0.9818854
     11447.5000         0.8088       -41.1336      -2.265724      0.9816562
     11448.0000         0.8126       -41.1508      -2.281643      0.9814255
     11448.5000         0.8164       -41.1678      -2.297363      0.9811977
     11449.0000         0.8203        -41.185      -2.313286      0.9809669
     11449.5000         0.8241       -41.2021      -2.329102      0.9807377
     11450.0000         0.8279       -41.2193       -2.34502       0.980507
     11450.5000         0.8318       -41.2365      -2.360939      0.9802762
     11451.0000         0.8355       -41.2397      -2.362858      0.9802485
     11451.5000         0.8386       -41.2404      -2.362278      0.9802569
     11452.0000         0.8416       -41.2411      -2.361698      0.9802653
     11452.5000         0.8447       -41.2419      -2.361217      0.9802722
     11453.0000         0.8477       -41.2426      -2.360634      0.9802807
     11453.5000         0.8508       -41.2433      -2.360054      0.9802891
     11454.0000         0.8539        -41.244      -2.359474      0.9802974
     11454.5000         0.8594       -41.2447      -2.358894      0.9803059
     11455.0000          0.867       -41.2454      -2.358311      0.9803143
     11455.5000         0.8746       -41.2462       -2.35783      0.9803213
     11456.0000         0.8822       -41.2526      -2.362949      0.9802471
     11456.5000         0.8898       -41.2609      -2.369968      0.9801454
     11457.0000         0.8974       -41.2691      -2.376888      0.9800451
     11457.5000          0.905       -41.2773      -2.383808      0.9799448
     11458.0000         0.9126       -41.2855      -2.390724      0.9798446
     11458.5000         0.9156       -41.2938      -2.397743      0.9797428
     11459.0000         0.9169        -41.302      -2.404663      0.9796426
     11459.5000         0.9183       -41.3102      -2.411583      0.9795423
     11460.0000         0.9196       -41.3185      -2.418602      0.9794406
     11460.5000         0.9202       -41.3196      -2.418419      0.9794432
     11461.0000         0.9158       -41.3035      -2.401039      0.9796951
     11461.5000         0.9115       -41.2874      -2.383659       0.979947
