#------------------------------------------------------------------------------
# Created by    : vladimir.rabinovich
# Created on    : 09/19/2023 17:20:58
#------------------------------------------------------------------------------
~Version Information Section
VERS.           2.0     :   CWLS log ASCII Standard - VERSION 2.0
WRAP.           NO      :   One line per depth step
~Well Information Section
#MNEM       .UNIT                                         VALUE :DESCRIPTION
#------------------------------------------------------------------------------
STRT        .FT                                            1876 :START DEPTH
STOP        .FT                                            8575 :STOP DEPTH
STEP        .FT                                             0.5 :STEP      
NULL        .                                           -999.25 :NULL      
COMP        .                                      L G D C CORP :COMPANY   
WELL        .                                          GARTH CO :WELL      
FLD         .                                       CHEEK SOUTH :FIELD     
LOC         .                                                   :LOCATION  
CNTY        .                                         JEFFERSON :LOCATION  
STAT        .                                             TEXAS :STATE     
CTRY        .                                     UNITED STATES :COUNTRY   
SRVC        .                                                   :SERVICE COMPANY
DATE        .                             9/13/2023 11:18:46 AM :LOG DATE  
API         .                                    42245322600000 :API NUMBER
UWI         .                                    42245322600000 :UNIQUE WELL ID
XCOORD      .                                  1261779.14844878 :SURFACE X 
YCOORD      .                                  10885364.2183051 :SURFACE Y 
LAT         .                                        29.9878888 :LATITUDE  
LON         .                                       -94.1963831 :LONGITUDE 
ELEV        .FT                                            39.9 :ELEVATION VALUE
ELEV_TYPE   .                                                KB :ELEVATION REFERENCE TYPE
~Curve Information Section
#MNEM       .UNIT                                      API CODE :CURVE DESCRIPTION
#------------------------------------------------------------------------------
DEPT        .FT                                                 :DEPTH     
AT10        .OHMM                                               :          
AT30        .OHMM                                               :          
AT60        .OHMM                                               :          
AT90        .OHMM                                               :          
DCAL        .IN                                                 :          
DPSS        .V/V                                                :          
DRHO        .G/CM3                                              :          
GR          .GAPI                                               :          
GR_NORM     .GAPI                                               :GammaRay Normalized
NPSS        .V/V                                                :Neutron Porosity Sandstone
SP          .MV                                                 :          
SP_NORM     .MV                                                 :SP Normalized
TENS        .LB                                                 :          
VSH_GR      .V/V                                                :Volume of Shale from GR
VSH_SP      .V/V                                                :Volume of Shale from SP
~A        DEPTH           AT10           AT30           AT60           AT90           DCAL           DPSS           DRHO             GR        GR_NORM           NPSS             SP        SP_NORM           TENS         VSH_GR         VSH_SP
# ...
      5548.0000         0.5919         0.3568         0.3287         0.3198          0.805         0.3014         -0.009        64.9119       57.21181         0.3473       -97.0223      -59.24843       2795.918      0.5151448      0.1795996
      5548.5000         0.5477         0.3378         0.3155         0.3069          0.787          0.322         -0.009        64.1467       55.95352         0.3564      -100.2704      -62.49553       2795.918      0.4883728      0.1338658
      5549.0000         0.4885         0.3169         0.2986         0.2905          0.749         0.3298         -0.009        62.9315         53.957          0.363      -103.6905      -65.91461       2795.918      0.4458937     0.08570969
      5549.5000         0.4289         0.2959         0.2813         0.2736         0.6511         0.3172         -0.008        61.4162       51.46817         0.3473      -105.7106      -67.93371       2795.918      0.3929399     0.05727172
      5550.0000         0.3787         0.2749         0.2649         0.2577         0.6531         0.3052         -0.004         60.501       49.96381         0.3142      -105.7307       -67.9528       2795.918      0.3609322     0.05700286
      5550.5000         0.3618         0.2736         0.2565         0.2495         0.6151         0.3005         -0.005        60.4873       49.93837          0.298      -101.7508      -63.97189       2795.918      0.3603908       0.113072
      5551.0000         0.4599         0.3213         0.3069         0.2986         0.5771         0.3017         -0.008        62.8721       53.84766         0.3378        -95.526      -57.74608       2795.918      0.4435673      0.2007594
      5551.5000         0.5553         0.3769         0.3769         0.3668         0.5391         0.3042         -0.012        65.2569       57.75697         0.3594       -94.3343      -56.55337       2795.918       0.526744      0.2175582
      5552.0000         0.5186         0.3787         0.3701         0.3601         0.4411         0.3054         -0.015        66.7416       60.18964         0.3588      -100.0111      -62.22916       2795.918      0.5785029      0.1376174
      5552.5000         0.4269         0.3425         0.3363         0.3272         0.4231         0.3145         -0.017        64.7764       56.96277         0.3618      -105.0312      -67.24825       2795.918      0.5098462     0.06692602
      5553.0000         0.3651         0.3083         0.2932         0.2932         0.3251         0.3295         -0.019        60.4112       49.79866          0.366      -108.4513      -70.66734       2795.918      0.3574184     0.01876982
      5553.5000         0.3242         0.2774         0.2711         0.2723         0.2871         0.3433         -0.022        56.6122       43.56342         0.3606      -110.2714      -72.48643        2775.51      0.2247536              0
      5554.0000         0.3198         0.2736         0.2577         0.2826         0.2691         0.3504         -0.024        54.1742       39.56089         0.3516      -111.0915      -73.30553        2775.51      0.1395934              0
      5554.5000         0.3363         0.2852         0.2698         0.3014         0.2912         0.3499         -0.025        53.4014       38.29015         0.3433      -111.3116      -73.52462       2755.102      0.1125563              0
      5555.0000         0.3601         0.3028         0.2865         0.3155         0.3532         0.3457         -0.025        53.0831         37.765         0.3338      -109.9317      -72.14371       2755.102      0.1013829              0
      5555.5000         0.3839         0.3242            0.3         0.3242         0.3952         0.3433         -0.024        53.5223       38.48255         0.3415      -107.9518       -70.1628       2755.102        0.11665     0.02587611
      5556.0000          0.419         0.3302         0.3126         0.3287         0.4372          0.341         -0.023        55.4765       41.68544         0.3505      -106.1719       -68.3819       2755.102      0.1847965      0.0509592
      5556.5000         0.4729         0.3456         0.3363         0.3332         0.4392         0.3356         -0.024        59.5517       48.36784         0.3309       -102.392      -64.60098       2755.102      0.3269754      0.1042115
      5557.0000         0.6496         0.4076         0.3875          0.377         0.4195         0.3267         -0.024        64.6545       56.73604          0.335       -98.1814      -60.38937        2754.66      0.5050222      0.1635299
      5557.5000         0.9133         0.4955         0.4412          0.429         0.3785         0.3178         -0.026        69.0119        63.8814         0.3439       -93.7325      -55.93946       2774.266      0.6570511      0.2262047
      5558.0000         1.1786         0.5762          0.471          0.458         0.3575         0.2969         -0.026        67.8194       61.92212         0.3249       -93.3248      -55.53076       2753.127      0.6153641      0.2319612
      5558.5000         1.1894         0.6061         0.4414         0.4292         0.4165         0.2572          -0.02        60.6269       50.11983         0.3023       -96.5596      -58.76455       2752.362      0.3642517      0.1864148
      5559.0000         0.7963         0.4603         0.3808         0.3705         0.5355         0.2177         -0.011        53.5044       38.43235         0.2999      -100.3982      -62.60214       2710.975       0.115582      0.1323642
      5559.5000         0.7963         0.4603         0.3808         0.3705         0.5355         0.2177         -0.011        53.5044       38.42939         0.2999      -100.3982      -62.60114       2710.975      0.1155189      0.1323784
      5560.0000         0.6064         0.3774         0.3306         0.3217         0.5545         0.2124         -0.005        53.3567       38.18411         0.3266      -103.5803      -65.78223       2669.672      0.1103003     0.08757427
      5560.5000         0.4606         0.3188         0.2896         0.2817         0.5135         0.2591         -0.012        54.5771       40.18321         0.3457      -106.7559      -68.95682       2689.265      0.1528342     0.04286172
      5561.0000         0.4296          0.295         0.2805         0.2728         0.4525         0.3105         -0.019        55.9508       42.43381           0.36      -108.9326      -71.13251        2708.82      0.2007193     0.01221821
      5561.5000         0.4121         0.2937         0.2818         0.2741         0.4315         0.3332         -0.022        57.6303       45.18606         0.3636        -110.51       -72.7089       2748.564      0.2592778              0
      5562.0000         0.3936         0.2952         0.2885         0.2806         0.3905         0.3397         -0.023        58.0934       45.94279         0.3624      -110.4995      -72.69739       2768.019      0.2753785              0
      5562.5000         0.3761         0.2925         0.2859         0.2781         0.4695         0.3397         -0.024        57.4907        44.9511         0.3618      -109.8953      -72.09218       2767.246      0.2542786              0
      5563.0000         0.3867         0.2953         0.2859         0.2781         0.5285         0.3379         -0.025        56.2778       42.95835         0.3576      -109.4901      -71.68597       2746.304      0.2118799      0.0044229
      5563.5000         0.3885         0.3009         0.2967         0.2886         0.5875         0.3373         -0.025        56.5885       43.46509         0.3486      -110.0731      -72.26796       2705.255      0.2226615              0
      5564.0000         0.3531         0.2954         0.2914         0.2834         0.5665         0.3373         -0.023        58.7302       46.97557         0.3355      -110.6561      -72.84995       2684.418      0.2973526              0
      5564.5000         0.3452         0.2888         0.2861         0.2783         0.4255         0.3373         -0.021        61.7589       51.94121         0.3349      -110.6455      -72.83835       2663.622      0.4030044              0
