#------------------------------------------------------------------------------
# Created by    : vladimir.rabinovich
# Created on    : 09/19/2023 17:22:56
#------------------------------------------------------------------------------
~Version Information Section
VERS.           2.0     :   CWLS log ASCII Standard - VERSION 2.0
WRAP.           NO      :   One line per depth step
~Well Information Section
#MNEM       .UNIT                                         VALUE :DESCRIPTION
#------------------------------------------------------------------------------
STRT        .FT                                             120 :START DEPTH
STOP        .FT                                           15526 :STOP DEPTH
STEP        .FT                                             0.5 :STEP      
NULL        .                                           -999.25 :NULL      
COMP        .                                    MOBIL OIL CORP :COMPANY   
WELL        .                                MCFADDIN TRUST BLK :WELL      
FLD         .                                           WILDCAT :FIELD     
LOC         .                                                   :LOCATION  
CNTY        .                                         JEFFERSON :LOCATION  
STAT        .                                             TEXAS :STATE     
CTRY        .                                     UNITED STATES :COUNTRY   
SRVC        .                                                   :SERVICE COMPANY
DATE        .                             9/13/2023 11:19:11 AM :LOG DATE  
API         .                                    42245021130000 :API NUMBER
UWI         .                                    42245021130000 :UNIQUE WELL ID
XCOORD      .                                  1317150.22331494 :SURFACE X 
YCOORD      .                                   10814678.490982 :SURFACE Y 
LAT         .                                        29.7949472 :LATITUDE  
LON         .                                       -94.0194715 :LONGITUDE 
ELEV        .FT                                              18 :ELEVATION VALUE
ELEV_TYPE   .                                                DF :ELEVATION REFERENCE TYPE
~Curve Information Section
#MNEM       .UNIT                                      API CODE :CURVE DESCRIPTION
#------------------------------------------------------------------------------
DEPT        .FT                                                 :DEPTH     
SN          .OHMM                                               :          
SP          .MV                                                 :          
SP_NORM     .MV                                                 :SP Normalized
VSH_SP      .V/V                                                :Volume of Shale from SP
~A        DEPTH             SN             SP        SP_NORM         VSH_SP
# ...
      5261.0000         1.1137       -36.8773       3.613499              1
      5261.5000         1.1119       -36.0799         4.4109              1
      5262.0000          1.107       -35.5054       4.985397              1
      5262.5000         1.1021       -35.2047       5.286098              1
      5263.0000         1.0972       -35.0383       5.452499              1
      5263.5000         1.0922       -35.1541         5.3367              1
      5264.0000         1.0859       -35.5383       4.952499              1
      5264.5000         1.0795       -35.9223       4.568501              1
      5265.0000         1.0731       -36.8516       3.639198              1
      5265.5000         1.0663       -37.9872       2.503597              1
      5266.0000         1.0592       -39.1552       1.335598              1
      5266.5000         1.0521       -40.6764     -0.1856003              1
      5267.0000          1.045       -42.1975      -1.706699      0.9915869
      5267.5000         1.0379       -43.7187      -3.227901      0.9734774
      5268.0000         1.0304       -45.5461      -5.055302      0.9517226
      5268.5000         1.0174       -47.4551      -6.964302      0.9289964
      5269.0000         1.0045       -48.4236        -7.9328      0.9174666
      5269.5000         0.9915       -49.3474      -8.856602       0.906469
      5270.0000         0.9786       -50.3611        -9.8703      0.8944012
      5270.5000         0.9657       -51.6677       -11.1769      0.8788464
      5271.0000         0.9527       -53.5287       -13.0379      0.8566917
      5271.5000          0.939        -56.542       -16.0512       0.820819
      5272.0000         0.9187       -60.1298        -19.639      0.7781072
      5272.5000         0.8985       -66.8806       -26.3898      0.6977404
      5273.0000         0.8782       -70.8998        -30.409      0.6498928
      5273.5000         0.8548       -74.9122       -34.4214      0.6021262
      5274.0000         0.8302       -78.7147       -38.2239      0.5568584
      5274.5000         0.8057       -83.0111       -42.5203      0.5057107
      5275.0000         0.7747       -87.8752       -47.3844      0.4478048
      5275.5000         0.7434       -90.7858        -50.295      0.4131548
      5276.0000         0.7121       -93.3698        -52.879      0.3823929
      5276.5000         0.6807       -96.8704       -56.3796       0.340719
      5277.0000         0.6494      -102.7808         -62.29      0.2703571
      5277.5000         0.6207      -107.4884       -66.9976      0.2143142
      5278.0000          0.593      -111.0472       -70.5564      0.1719476
      5278.5000         0.5652      -114.3287       -73.8379      0.1328822
      5279.0000         0.5374      -117.4247       -76.9339     0.09602501
      5279.5000         0.5097      -119.4534       -78.9626      0.0718738
      5280.0000         0.4819      -120.9242       -80.4334     0.05436425
      5280.5000         0.4652      -121.8145       -81.3237     0.04376548
      5281.0000         0.4519      -122.2096       -81.7188     0.03906186
      5281.5000         0.4385      -121.1746       -80.6838     0.05138334
      5282.0000         0.4251      -120.1407       -79.6499     0.06369164
      5282.5000         0.4229      -119.5042       -79.0134     0.07126899
      5283.0000         0.4208      -119.0303       -78.5395     0.07691075
      5283.5000         0.4187      -118.5569       -78.0661     0.08254641
      5284.0000         0.4201      -119.2745       -78.7837     0.07400358
      5284.5000         0.4235      -120.0077       -79.5169     0.06527501
      5285.0000          0.427      -120.7404       -80.2496     0.05655234
      5285.5000         0.4305      -121.6775       -81.1867     0.04539644
      5286.0000          0.434      -122.6768        -82.186     0.03349994
      5286.5000         0.4374      -123.1077       -82.6169     0.02837027
      5287.0000          0.441      -122.4219       -81.9311     0.03653454
      5287.5000         0.4448      -121.7362       -81.2454     0.04469762
      5288.0000         0.4486      -121.0505       -80.5597     0.05286071
      5288.5000         0.4523      -120.3647       -79.8739     0.06102498
      5289.0000         0.4561      -119.6841       -79.1933      0.0691274
      5289.5000         0.4599      -119.0364       -78.5456     0.07683808
      5290.0000         0.4637      -118.3893       -77.8985     0.08454169
      5290.5000         0.4675      -117.7422       -77.2514     0.09224519
      5291.0000         0.4713      -117.3677       -76.8769     0.09670357
      5291.5000          0.473      -117.8405       -77.3497     0.09107499
      5292.0000         0.4731      -118.3132       -77.8224     0.08544759
      5292.5000         0.4731       -118.786       -78.2952       0.079819
      5293.0000         0.4732      -119.2589       -78.7681     0.07418923
      5293.5000         0.4733      -119.7317       -79.2409     0.06856073
      5294.0000         0.4733      -120.2626       -79.7718     0.06224042
      5294.5000         0.4738      -120.8236       -80.3328     0.05556188
      5295.0000         0.4759      -121.3846       -80.8938     0.04888335
      5295.5000         0.4781      -120.9153       -80.4245     0.05447024
      5296.0000         0.4802      -120.2681       -79.7773     0.06217502
      5296.5000         0.4824      -119.6205       -79.1297     0.06988452
      5297.0000         0.4849      -118.4183       -77.9275     0.08419646
      5297.5000         0.4957      -117.0358        -76.545      0.1006548
      5298.0000         0.5065      -115.6532       -75.1624      0.1171143
      5298.5000         0.5173      -113.9778        -73.487      0.1370595
      5299.0000         0.5303      -111.7357       -71.2449      0.1637512
      5299.5000         0.5444      -109.0129       -68.5221      0.1961654
      5300.0000         0.5598      -105.1592       -64.6684      0.2420428
      5300.5000         0.5863       -87.7322       -47.2414      0.4495071
      5301.0000         0.6127       -67.5266       -27.0358      0.6900499
      5301.5000         0.6392       -67.6627       -27.1719      0.6884298
      5302.0000         0.6594        -69.876       -29.3852      0.6620809
      5302.5000         0.6793       -84.6295       -44.1387       0.486444
      5303.0000         0.6896       -90.2448        -49.754      0.4195953
      5303.5000         0.6851       -93.1486       -52.6578      0.3850262
      5304.0000         0.6805       -95.7393       -55.2485      0.3541845
      5304.5000         0.6702       -98.1512       -57.6604      0.3254714
      5305.0000         0.6599       -96.3921       -55.9013      0.3464131
      5305.5000         0.6496       -93.3207       -52.8299      0.3829773
      5306.0000         0.6392       -79.4702       -38.9794      0.5478643
      5306.5000         0.6289       -64.1624       -23.6716         0.7301
      5307.0000         0.6194       -64.7927       -24.3019      0.7225964
      5307.5000         0.6195       -68.4811       -27.9903      0.6786869
      5308.0000         0.6196       -72.6702       -32.1794      0.6288167
      5308.5000         0.6196       -76.4502       -35.9594      0.5838166
      5309.0000         0.6197       -79.1483       -38.6575      0.5516964
      5309.5000         0.6291       -74.4272       -33.9364         0.6079
      5310.0000         0.6467       -61.4442       -20.9534      0.7624595
      5310.5000         0.6643        -51.376       -10.8852       0.882319
      5311.0000         0.6819       -46.7935        -6.3027      0.9368726
      5311.5000         0.6996       -45.5864        -5.0956      0.9512429
      5312.0000         0.7469       -45.1605      -4.669701      0.9563131
      5312.5000         0.7944        -46.684      -6.193199      0.9381762
      5313.0000         0.8418       -48.2062      -7.715401      0.9200547
      5313.5000         0.8892       -49.7285      -9.237701      0.9019321
