#------------------------------------------------------------------------------
# Created by    : vladimir.rabinovich
# Created on    : 09/19/2023 17:22:56
#------------------------------------------------------------------------------
~Version Information Section
VERS.           2.0     :   CWLS log ASCII Standard - VERSION 2.0
WRAP.           NO      :   One line per depth step
~Well Information Section
#MNEM       .UNIT                                         VALUE :DESCRIPTION
#------------------------------------------------------------------------------
STRT        .FT                                             120 :START DEPTH
STOP        .FT                                           15526 :STOP DEPTH
STEP        .FT                                             0.5 :STEP      
NULL        .                                           -999.25 :NULL      
COMP        .                                    MOBIL OIL CORP :COMPANY   
WELL        .                                MCFADDIN TRUST BLK :WELL      
FLD         .                                           WILDCAT :FIELD     
LOC         .                                                   :LOCATION  
CNTY        .                                         JEFFERSON :LOCATION  
STAT        .                                             TEXAS :STATE     
CTRY        .                                     UNITED STATES :COUNTRY   
SRVC        .                                                   :SERVICE COMPANY
DATE        .                             9/13/2023 11:19:11 AM :LOG DATE  
API         .                                    42245021130000 :API NUMBER
UWI         .                                    42245021130000 :UNIQUE WELL ID
XCOORD      .                                  1317150.22331494 :SURFACE X 
YCOORD      .                                   10814678.490982 :SURFACE Y 
LAT         .                                        29.7949472 :LATITUDE  
LON         .                                       -94.0194715 :LONGITUDE 
ELEV        .FT                                              18 :ELEVATION VALUE
ELEV_TYPE   .                                                DF :ELEVATION REFERENCE TYPE
~Curve Information Section
#MNEM       .UNIT                                      API CODE :CURVE DESCRIPTION
#------------------------------------------------------------------------------
DEPT        .FT                                                 :DEPTH     
SN          .OHMM                                               :          
SP          .MV                                                 :          
SP_NORM     .MV                                                 :SP Normalized
VSH_SP      .V/V                                                :Volume of Shale from SP
~A        DEPTH             SN             SP        SP_NORM         VSH_SP
# ...
      8335.0000         0.8533       -39.6959      -1.659088       0.990448
      8335.5000         0.8485       -39.6166      -1.579788      0.9915973
      8336.0000         0.8437       -39.5374      -1.500587      0.9927451
      8336.5000          0.829       -39.4581      -1.421288      0.9938944
      8337.0000          0.812       -39.4353      -1.398487      0.9942248
      8337.5000          0.795       -39.4733      -1.436489      0.9936741
      8338.0000         0.7779       -39.5114      -1.474586      0.9931219
      8338.5000         0.7657       -39.5494      -1.512589      0.9925712
      8339.0000         0.7567       -39.5874      -1.550587      0.9920205
      8339.5000         0.7478       -39.6255      -1.588688      0.9914683
      8340.0000         0.7491       -39.6705       -1.63369      0.9908161
      8340.5000         0.7685       -39.7546      -1.717789      0.9895973
      8341.0000         0.7885       -39.8387      -1.801888      0.9883785
      8341.5000         0.8103       -39.9227      -1.885887       0.987161
      8342.0000          0.832       -40.0068       -1.96999      0.9859422
      8342.5000         0.8538       -40.0909      -2.054089      0.9847233
      8343.0000         0.8756        -40.175      -2.138187      0.9835045
      8343.5000         0.8973       -40.2569      -2.220089      0.9823176
      8344.0000         0.9176       -40.1703      -2.133488      0.9835727
      8344.5000         0.9358       -40.0839      -2.047089      0.9848248
      8345.0000          0.954       -39.9973      -1.960487      0.9860799
      8345.5000         0.9722       -39.9108      -1.873989      0.9873335
      8346.0000         0.9904       -39.8315      -1.794689      0.9884828
      8346.5000         1.0057       -39.7689       -1.73209        0.98939
      8347.0000         1.0041       -39.7062      -1.669388      0.9902987
      8347.5000         1.0026       -39.6436      -1.606789       0.991206
      8348.0000         0.9943       -39.5808      -1.543987      0.9921162
      8348.5000         0.9834       -39.5181      -1.481289      0.9930248
      8349.0000         0.9726       -39.7219      -1.685089      0.9900712
      8349.5000         0.9617       -39.9286      -1.891788      0.9870755
      8350.0000         0.9509       -40.1356      -2.098789      0.9840755
      8350.5000         0.9401       -40.3362      -2.299389      0.9811683
      8351.0000         0.9288       -40.4904      -2.453587      0.9789335
      8351.5000         0.9133       -40.6442      -2.607388      0.9767045
      8352.0000         0.8978       -40.7295      -2.692688      0.9754683
      8352.5000         0.8822       -40.6266      -2.589787      0.9769596
      8353.0000         0.8667       -40.5239      -2.487087       0.978448
      8353.5000         0.8512       -40.4211      -2.384289      0.9799379
      8354.0000         0.8357       -40.3181      -2.281288      0.9814306
      8354.5000         0.8201       -40.2153       -2.17849      0.9829205
      8355.0000          0.805       -40.1285       -2.09169      0.9841784
      8355.5000         0.7904       -40.0425      -2.005688      0.9854248
      8356.0000         0.7758       -39.9565      -1.919689      0.9866711
      8356.5000         0.7611       -39.8706       -1.83379      0.9879161
      8357.0000         0.7465       -39.7846      -1.747787      0.9891625
      8357.5000         0.7319       -39.7263      -1.689487      0.9900074
      8358.0000         0.7172       -39.7056       -1.69521      0.9899245
      8358.5000         0.7042        -39.685      -1.711952      0.9896818
      8359.0000         0.6915       -39.6644      -1.728691      0.9894392
      8359.5000         0.6788       -39.6437      -1.745335       0.989198
      8360.0000         0.6662       -39.6231      -1.762077      0.9889554
      8360.5000         0.6535       -39.6451      -1.821419      0.9880954
      8361.0000         0.6425       -39.6855      -1.899162      0.9869686
      8361.5000         0.6314       -39.7259      -1.976902       0.985842
      8362.0000         0.6268       -39.7662      -2.054546      0.9847167
      8362.5000         0.6334       -39.8066      -2.132286      0.9835901
      8363.0000         0.6472        -39.847       -2.21003      0.9824634
      8363.5000         0.6634       -39.9625      -2.362873      0.9802482
      8364.0000         0.6797       -40.0994      -2.537113       0.977723
      8364.5000         0.6959       -40.2361      -2.711155      0.9752007
      8365.0000         0.7121       -40.3729      -2.885296      0.9726769
      8365.5000         0.7294       -40.5098       -3.05954      0.9701516
      8366.0000         0.7499       -40.6465      -3.233582      0.9676293
      8366.5000         0.7704       -40.8748      -3.499226      0.9637793
      8367.0000         0.7908       -41.1169      -3.778667      0.9597294
      8367.5000         0.8055       -41.3592      -4.058308      0.9556767
      8368.0000         0.8163       -41.6016      -4.338051      0.9516224
      8368.5000         0.8271       -41.8439      -4.617691      0.9475697
      8369.0000         0.8297        -42.015      -4.826134      0.9445488
      8369.5000          0.832       -42.1658      -5.014275      0.9418221
      8370.0000         0.8344       -42.3166      -5.202419      0.9390954
      8370.5000         0.8367       -42.4674       -5.39056      0.9363687
      8371.0000         0.8344       -42.6182      -5.578701       0.933642
      8371.5000         0.8278        -42.769      -5.766846      0.9309153
      8372.0000         0.8212       -42.9016      -5.936787      0.9284524
      8372.5000         0.8146       -43.0132      -6.085728      0.9262938
      8373.0000         0.8074       -43.1251       -6.23497      0.9241309
      8373.5000            0.8       -42.9687      -6.115913      0.9258564
      8374.0000         0.7926       -42.7498      -5.934357      0.9284876
      8374.5000         0.7852       -42.5308      -5.752697      0.9311203
      8375.0000         0.7778       -42.2343      -5.493538      0.9348763
      8375.5000         0.7703       -41.9321       -5.22868      0.9387148
      8376.0000         0.7679       -41.6305      -4.964424      0.9425446
      8376.5000         0.7663       -41.3284      -4.699665      0.9463817
      8377.0000         0.7648       -41.0267      -4.435307       0.950213
      8377.5000         0.7632       -40.7252       -4.17115      0.9540413
      8378.0000         0.7617        -40.423      -3.906296      0.9578798
      8378.5000         0.7656       -40.1612      -3.681839      0.9611328
      8379.0000         0.7695       -39.9011       -3.45908      0.9643612
      8379.5000         0.7734       -39.6409      -3.236221       0.967591
      8380.0000         0.7773       -39.3808      -3.013462      0.9708194
      8380.5000         0.7813       -39.1204      -2.790405      0.9740521
      8381.0000         0.7852       -38.8602      -2.567547      0.9772819
      8381.5000         0.7877       -38.6001      -2.344791      0.9805103
      8382.0000         0.7897       -38.3397      -2.121731       0.983743
      8382.5000         0.7917       -38.0945      -1.913876      0.9867554
      8383.0000         0.7938       -37.8789      -1.735615      0.9893389
      8383.5000         0.7958        -37.663      -1.557056      0.9919267
      8384.0000         0.7978       -37.4474      -1.378799      0.9945102
      8384.5000         0.7998       -37.2318      -1.200542      0.9970936
      8385.0000         0.7986       -37.0159      -1.021984      0.9996814
      8385.5000         0.7968       -36.8256     -0.8690262              1
      8386.0000         0.7951       -36.7428     -0.8235703              1
      8386.5000         0.7933         -36.66     -0.7781105              1
      8387.0000         0.7899       -36.5773     -0.7327538              1
      8387.5000         0.7854       -36.4945      -0.687294              1
