#------------------------------------------------------------------------------
# Created by    : vladimir.rabinovich
# Created on    : 09/19/2023 17:20:58
#------------------------------------------------------------------------------
~Version Information Section
VERS.           2.0     :   CWLS log ASCII Standard - VERSION 2.0
WRAP.           NO      :   One line per depth step
~Well Information Section
#MNEM       .UNIT                                         VALUE :DESCRIPTION
#------------------------------------------------------------------------------
STRT        .FT                                            1876 :START DEPTH
STOP        .FT                                            8575 :STOP DEPTH
STEP        .FT                                             0.5 :STEP      
NULL        .                                           -999.25 :NULL      
COMP        .                                      L G D C CORP :COMPANY   
WELL        .                                          GARTH CO :WELL      
FLD         .                                       CHEEK SOUTH :FIELD     
LOC         .                                                   :LOCATION  
CNTY        .                                         JEFFERSON :LOCATION  
STAT        .                                             TEXAS :STATE     
CTRY        .                                     UNITED STATES :COUNTRY   
SRVC        .                                                   :SERVICE COMPANY
DATE        .                             9/13/2023 11:18:46 AM :LOG DATE  
API         .                                    42245322600000 :API NUMBER
UWI         .                                    42245322600000 :UNIQUE WELL ID
XCOORD      .                                  1261779.14844878 :SURFACE X 
YCOORD      .                                  10885364.2183051 :SURFACE Y 
LAT         .                                        29.9878888 :LATITUDE  
LON         .                                       -94.1963831 :LONGITUDE 
ELEV        .FT                                            39.9 :ELEVATION VALUE
ELEV_TYPE   .                                                KB :ELEVATION REFERENCE TYPE
~Curve Information Section
#MNEM       .UNIT                                      API CODE :CURVE DESCRIPTION
#------------------------------------------------------------------------------
DEPT        .FT                                                 :DEPTH     
AT10        .OHMM                                               :          
AT30        .OHMM                                               :          
AT60        .OHMM                                               :          
AT90        .OHMM                                               :          
DCAL        .IN                                                 :          
DPSS        .V/V                                                :          
DRHO        .G/CM3                                              :          
GR          .GAPI                                               :          
GR_NORM     .GAPI                                               :GammaRay Normalized
NPSS        .V/V                                                :Neutron Porosity Sandstone
SP          .MV                                                 :          
SP_NORM     .MV                                                 :SP Normalized
TENS        .LB                                                 :          
VSH_GR      .V/V                                                :Volume of Shale from GR
VSH_SP      .V/V                                                :Volume of Shale from SP
~A        DEPTH           AT10           AT30           AT60           AT90           DCAL           DPSS           DRHO             GR        GR_NORM           NPSS             SP        SP_NORM           TENS         VSH_GR         VSH_SP
# ...
      4256.0000          2.153         2.0092         1.8054         1.6682         3.9025         0.1678          0.099        54.6535       49.13858         0.2903        -47.175      -7.836369           2180       0.343374      0.8979647
      4256.5000          2.774         2.3392         2.1235          1.918         3.6635         0.1375            0.1        51.9802       44.85384         0.2447        -49.165      -9.833385           2180      0.2522093      0.8681584
      4257.0000         3.2431          2.774         2.4951          2.163         3.5245         0.1158            0.1        50.9406       43.18496         0.2111        -50.755       -11.4304           2160      0.2167012      0.8443223
      4257.5000         3.4583         2.9588         2.5298         2.4159         3.3656         0.0966          0.092         50.198       41.99162          0.211        -51.545      -12.22742           2160       0.191311      0.8324266
      4258.0000         3.2584         2.9317         2.4722         2.3177         3.2666           0.09           0.09        49.1584       40.32273          0.211        -50.735      -11.42443           2160      0.1558029      0.8444114
      4258.5000         3.1123         2.6859         2.4048         2.2649         3.2876         0.0936          0.081        47.8218       38.17829          0.205        -49.925      -10.62145           2160      0.1101764      0.8563963
      4259.0000           3.54         2.8386         2.4722           2.35         3.2686         0.0972          0.073        46.1881       35.55814         0.2127        -51.515      -12.21847           2160     0.05442842      0.8325602
      4259.5000         3.6901         2.9725         2.4382         2.3284         3.1896         0.1038          0.069        45.8911        35.0783         0.2211        -55.905      -16.61549           2160     0.04421908       0.766933
      4260.0000         3.3046         2.8781         2.4722         2.3177         3.1106         0.1176          0.052        45.1485       33.88495         0.2295        -59.895       -20.6125           2160     0.01882878       0.707276
      4260.5000         3.2896         2.8649         2.4836         2.3717         3.0516         0.1429          0.034             45       33.64288         0.2379        -59.885      -20.60952           2160     0.01367837      0.7073206
      4261.0000           3.07         2.8781         2.4495           2.35         3.0526         0.1616          0.006           44.4       32.67789         0.2348        -56.675      -17.40654           2160              0      0.7551263
      4261.5000           3.07         2.8781         2.4495           2.35         3.0526         0.1616          0.006           44.4        32.6736         0.2348        -56.675      -17.41356           2160              0      0.7550216
      4262.0000         2.5532         2.4159         2.2032         2.1137         3.0136         0.1663          0.003         45.297       34.10557         0.2348        -54.665      -15.41057           2160      0.0235228      0.7849168
      4262.5000         2.8256         2.3284         2.2134         2.0943         3.0146         0.1579           0.01        47.5248       37.66842         0.2348        -53.655      -14.40759           2180     0.09932815      0.7998867
      4263.0000         2.9725         2.5298         2.5298         2.2545         3.0556         0.1525          0.013         50.495       42.41999         0.2329        -53.045       -13.8046           2180      0.2004253      0.8088865
      4263.5000         2.6491         2.4608         2.4836         2.4159         3.1166         0.1537          0.017        54.0594       48.12298         0.2275        -50.835      -11.60162           2180      0.3217655      0.8417668
      4264.0000         2.3177         2.1729         2.1235         2.0656         3.3176           0.15          0.034        57.0297       52.87471         0.2371        -48.625       -9.39864           2200      0.4228663      0.8746471
      4264.5000         2.0656         1.8914         1.8393         1.7887         3.5786         0.1464          0.058        58.2178        54.7728         0.2736        -47.615       -8.39566           2200      0.4632511       0.889617
      4265.0000          1.954         1.6916         1.6147         1.5703         3.8596         0.1434          0.071        58.0693       54.53073         0.3108        -47.805      -8.592674           2200      0.4581007      0.8866765
      4265.5000         1.7075         1.4646         1.4177         1.3787           3.96         0.1674          0.066        57.9208       54.28867         0.3444          -48.2      -8.994694           2200      0.4529505      0.8806762
      4266.0000         1.6841         1.6841         1.5417         1.4993           3.98          0.201         0.0601        57.4752       53.57089         0.3768          -48.4       -9.20171           2200      0.4376785      0.8775864
      4266.5000              2         2.0656         1.9181         1.8654           3.94         0.2238         0.0541        56.1386       51.42644         0.3546          -48.2      -9.008728           2200      0.3920519      0.8804668
      4267.0000         2.3827         2.5298         2.3071         2.2442           3.76         0.1998         0.0602         55.396       50.23312         0.3168          -47.4      -8.215744           2200      0.3666621      0.8923023
      4267.5000         2.6736         2.7612         2.6983         2.6248           3.54         0.1716         0.0502        54.6535       49.03995          0.279          -46.4      -7.222763           2200      0.3412755      0.9071229
      4268.0000         2.9048         2.9452         2.9048         2.8256           3.24         0.1566         0.0323        54.9505       49.51121         0.2466          -45.6      -6.429775           2200      0.3513023      0.9189586
      4268.5000         2.4836         2.6859         2.4048              3           2.94         0.1488         0.0173        55.9901       51.17152          0.222            -45      -5.836796           2200      0.3866281       0.927809
      4269.0000         1.2474          1.609         1.6391         1.8832           2.76         0.1554         0.0104        59.1089       56.16103         0.2376          -43.6       -4.44381           2180      0.4927878      0.9485999
      4269.5000          1.018         1.0612         1.1115          1.127            2.7         0.1794         0.0104        63.6364       63.40611          0.279          -42.2      -3.050827           2160      0.6469386      0.9693906
      4270.0000         1.0327         1.0617         1.1223         1.1538           2.76         0.2034         0.0135        68.0303       70.43729         0.3414            -42      -2.857845           2160       0.796538       0.972271
      4270.5000         1.0671         1.1175         1.1758         1.2032           2.76          0.216         0.0295        71.0606        75.2851          0.387          -42.6      -3.464859           2160      0.8996829      0.9632111
      4271.0000         1.0975         1.1283         1.1871         1.2092           2.72         0.2052         0.0456        68.9394       71.88438         0.3894          -41.6      -2.471878           2140      0.8273271      0.9780317
      4271.5000          1.103         1.1288         1.1875         1.2041           2.72         0.1944         0.0536        63.6364       63.38896         0.3912          -40.8      -1.678894           2140      0.6465736      0.9898673
      4272.0000         1.0586         1.1137         1.1879         1.2156           2.66         0.1998         0.0387        60.9091       59.01774         0.3996            -40     -0.8859138           2120       0.553569              1
      4272.5000         1.0021         1.0738         1.1774         1.2217            2.6         0.2136         0.0277        60.4545       58.28556         0.4122            -40     -0.8929291           2160      0.5379906              1
