#------------------------------------------------------------------------------
# Created by    : vladimir.rabinovich
# Created on    : 09/19/2023 17:22:42
#------------------------------------------------------------------------------
~Version Information Section
VERS.           2.0     :   CWLS log ASCII Standard - VERSION 2.0
WRAP.           NO      :   One line per depth step
~Well Information Section
#MNEM       .UNIT                                         VALUE :DESCRIPTION
#------------------------------------------------------------------------------
STRT        .FT                                             932 :START DEPTH
STOP        .FT                                            7546 :STOP DEPTH
STEP        .FT                                             0.5 :STEP      
NULL        .                                           -999.25 :NULL      
COMP        .                   SUN EXPLORATION & PRODUCTION CO :COMPANY   
WELL        .                                BROUSSARD & HEBERT :WELL      
FLD         .                                          LA BELLE :FIELD     
LOC         .                                                   :LOCATION  
CNTY        .                                         JEFFERSON :LOCATION  
STAT        .                                             TEXAS :STATE     
CTRY        .                                     UNITED STATES :COUNTRY   
SRVC        .                                                   :SERVICE COMPANY
DATE        .                             9/13/2023 11:18:46 AM :LOG DATE  
API         .                                    42245319210000 :API NUMBER
UWI         .                                    42245319210000 :UNIQUE WELL ID
XCOORD      .                                  1279394.73540744 :SURFACE X 
YCOORD      .                                  10819915.3695329 :SURFACE Y 
LAT         .                                        29.8083786 :LATITUDE  
LON         .                                       -94.1386839 :LONGITUDE 
ELEV        .FT                                              23 :ELEVATION VALUE
ELEV_TYPE   .                                                KB :ELEVATION REFERENCE TYPE
~Curve Information Section
#MNEM       .UNIT                                      API CODE :CURVE DESCRIPTION
#------------------------------------------------------------------------------
DEPT        .FT                                                 :DEPTH     
DCAL        .IN                                                 :          
DPSS        .V/V                                                :          
DRHO        .G/CM3                                              :          
GR          .GAPI                                               :          
GR_NORM     .GAPI                                               :GammaRay Normalized
ILD         .OHMM                                               :          
ILM         .OHMM                                               :          
NPSS        .V/V                                                :Neutron Porosity Sandstone
SFL         .OHMM                                               :          
SP          .MV                                                 :          
SP_NORM     .MV                                                 :SP Normalized
TENS        .LB                                                 :          
VSH_GR      .V/V                                                :Volume of Shale from GR
VSH_SP      .V/V                                                :Volume of Shale from SP
~A        DEPTH           DCAL           DPSS           DRHO             GR        GR_NORM            ILD            ILM           NPSS            SFL             SP        SP_NORM           TENS         VSH_GR         VSH_SP
# ...
      3182.0000        -999.25        -999.25        -999.25           36.3       39.40126         0.3069         0.4074        -999.25         0.9293       -83.2323      -66.85842       2438.775      0.1361971      0.1100213
      3182.5000        -999.25        -999.25        -999.25          32.25       35.35126         0.2776         0.3752        -999.25          1.047       -86.4646        -70.093       2448.979     0.05002691     0.06631078
      3183.0000        -999.25        -999.25        -999.25          30.45       33.55127         0.2558         0.3634        -999.25         1.1012       -87.2727      -70.90338       2469.388     0.01172906     0.05535971
      3183.5000        -999.25        -999.25        -999.25             30       33.10126         0.2433         0.3568        -999.25         1.0713       -87.8788      -71.51176       2469.388    0.002154574     0.04713842
      3184.0000        -999.25        -999.25        -999.25             30       33.10126         0.2422         0.3634        -999.25              1       -88.4848      -72.12004       2469.388    0.002154574     0.03891836
      3184.5000        -999.25        -999.25        -999.25        28.7879       31.88917         0.2466         0.3684        -999.25         0.9336       -89.4949      -73.13242       2469.388              0     0.02523763
      3185.0000        -999.25        -999.25        -999.25        26.3636       29.46486         0.2523         0.3735        -999.25         0.8919        -90.101      -73.74079       2469.388              0     0.01701633
      3185.5000        -999.25        -999.25        -999.25        25.9091       29.01036          0.257         0.3718        -999.25         0.8719        -90.303      -73.94508       2459.184              0     0.01425573
      3186.0000        -999.25        -999.25        -999.25        29.2424       32.34367         0.2605         0.3735        -999.25         0.8879       -90.7071      -74.35146       2448.979              0    0.008764112
      3186.5000        -999.25        -999.25        -999.25           33.6       36.70126         0.2617         0.3701        -999.25         0.9209       -90.5051      -74.15173       2448.979     0.07875028     0.01146306
      3187.0000        -999.25        -999.25        -999.25          33.75       36.85126         0.2617         0.3668        -999.25         0.9818       -90.7071      -74.35601       2448.979     0.08194181    0.008702561
      3187.5000        -999.25        -999.25        -999.25          30.45       33.55127         0.2641         0.3634        -999.25          1.047       -90.5051      -74.15629       2448.979     0.01172906     0.01140151
      3188.0000        -999.25        -999.25        -999.25        26.8182       29.91946         0.2665         0.3601        -999.25         1.0861       -90.5051      -74.15857       2428.571              0     0.01137068
      3188.5000        -999.25        -999.25        -999.25        26.5152       29.61646         0.2714         0.3618        -999.25         1.0327        -90.101      -73.75674       2428.571              0     0.01680075
      3189.0000        -999.25        -999.25        -999.25           30.6       33.70126         0.2726         0.3601        -999.25         0.9422        -89.697      -73.35503       2438.775      0.0149205     0.02222938
      3189.5000        -999.25        -999.25        -999.25          35.55       38.65126         0.2726         0.3601        -999.25         0.8447       -89.2929      -72.95321       2448.979      0.1202397     0.02765934
      3190.0000        -999.25        -999.25        -999.25          39.45       42.55127         0.2714         0.3536        -999.25         0.8146       -89.4949      -73.15749       2459.184      0.2032184     0.02489874
      3190.5000        -999.25        -999.25        -999.25        35.0972       38.19846         0.2665          0.344        -999.25          0.868       -90.1035      -73.76837       2459.333      0.1106056     0.01664363
      3191.0000        -999.25        -999.25        -999.25        28.9282       32.02946         0.2593         0.3302        -999.25         0.9596        -90.916      -74.58315       2459.608              0    0.005633174
      3191.5000        -999.25        -999.25        -999.25        21.0527       24.15396         0.2523         0.3198        -999.25         1.0422       -91.7276      -75.39703       2459.882              0              0
      3192.0000        -999.25        -999.25        -999.25         18.781       21.88227         0.2444         0.3112        -999.25         1.1216       -92.3368       -76.0085       2460.156              0              0
      3192.5000        -999.25        -999.25        -999.25        21.1978       24.29906         0.2346         0.3055        -999.25         1.1636       -92.7438      -76.41778       2450.248              0              0
      3193.0000        -999.25        -999.25        -999.25        23.6121       26.71337         0.2252            0.3        -999.25         1.1906       -92.9489      -76.62516       2450.526              0              0
      3193.5000        -999.25        -999.25        -999.25         25.722       28.82327         0.2211         0.2946        -999.25         1.1743       -92.7511      -76.42964       2450.804              0              0
      3194.0000        -999.25        -999.25        -999.25        27.5279       30.62917         0.2201         0.2946        -999.25         1.1268       -92.5535      -76.23431       2451.082              0              0
      3194.5000        -999.25        -999.25        -999.25        28.7285       31.82977         0.2252         0.2906        -999.25         1.0615       -91.5514       -75.2345       2441.199              0              0
      3195.0000        -999.25        -999.25        -999.25        28.8725       31.97376         0.2293         0.2919        -999.25         1.0139       -90.5504      -74.23578        2441.51              0     0.01032731
      3195.5000        -999.25        -999.25        -999.25        28.2627       31.36396         0.2346            0.3        -999.25         0.9818       -89.3494      -73.03706       2441.792              0     0.02652617
      3196.0000        -999.25        -999.25        -999.25         28.708       31.80927           0.24         0.3069        -999.25         0.9552       -88.1496      -71.83954       2452.218              0     0.04270894
      3196.5000        -999.25        -999.25        -999.25        30.0563       33.15756         0.2455         0.3169        -999.25         0.9251       -87.1518      -70.84402       2462.634    0.003352389     0.05616193
      3197.0000        -999.25        -999.25        -999.25        32.0122       35.11346         0.2535         0.3272        -999.25         0.9166       -85.9544       -69.6489       2462.905     0.04496733     0.07231223
      3197.5000        -999.25        -999.25        -999.25        33.5166       36.61787         0.2653         0.3394        -999.25         0.9509       -85.1592      -68.85598       2463.175     0.07697588      0.0830273
      3198.0000        -999.25        -999.25        -999.25        33.8132       36.91447         0.2802         0.3504        -999.25         0.9465       -84.5653      -68.26436       2463.446     0.08328653     0.09102218
      3198.5000        -999.25        -999.25        -999.25        32.4463       35.54757         0.2893         0.3651        -999.25         0.9125        -83.972      -67.67333       2453.597     0.05420352     0.09900902
      3199.0000        -999.25        -999.25        -999.25        29.8685       32.96976         0.2853         0.3769        -999.25         0.9251         -83.98      -67.68362       2453.872              0     0.09887005
      3199.5000        -999.25        -999.25        -999.25        28.0597       31.16096         0.2789         0.3839        -999.25         0.9954        -83.988      -67.69389       2454.146              0     0.09873117
