#------------------------------------------------------------------------------
# Created by    : vladimir.rabinovich
# Created on    : 09/19/2023 17:22:24
#------------------------------------------------------------------------------
~Version Information Section
VERS.           2.0     :   CWLS log ASCII Standard - VERSION 2.0
WRAP.           NO      :   One line per depth step
~Well Information Section
#MNEM       .UNIT                                         VALUE :DESCRIPTION
#------------------------------------------------------------------------------
STRT        .FT                                            1850 :START DEPTH
STOP        .FT                                            8215 :STOP DEPTH
STEP        .FT                                             0.5 :STEP      
NULL        .                                           -999.25 :NULL      
COMP        .                                  NOBLE ENERGY INC :COMPANY   
WELL        .                                           MEADOWS :WELL      
FLD         .                                          BINDWEED :FIELD     
LOC         .                                                   :LOCATION  
CNTY        .                                         JEFFERSON :LOCATION  
STAT        .                                             TEXAS :STATE     
CTRY        .                                     UNITED STATES :COUNTRY   
SRVC        .                                                   :SERVICE COMPANY
DATE        .                             9/13/2023 11:18:46 AM :LOG DATE  
API         .                                    42245325230000 :API NUMBER
UWI         .                                    42245325230000 :UNIQUE WELL ID
XCOORD      .                                  1273245.27472043 :SURFACE X 
YCOORD      .                                  10899721.9019567 :SURFACE Y 
LAT         .                                           30.0277 :LATITUDE  
LON         .                                       -94.1606194 :LONGITUDE 
ELEV        .FT                                              29 :ELEVATION VALUE
ELEV_TYPE   .                                                KB :ELEVATION REFERENCE TYPE
~Curve Information Section
#MNEM       .UNIT                                      API CODE :CURVE DESCRIPTION
#------------------------------------------------------------------------------
DEPT        .FT                                                 :DEPTH     
CALX        .IN                                                 :          
DPSS        .%                                                  :          
DRHO        .G/CM3                                              :          
DT24        .US/FT                                              :          
GR          .GAPI                                               :          
GR_NORM     .GAPI                                               :GammaRay Normalized
M2R1        .OHMM                                               :          
M2R2        .OHMM                                               :          
M2R3        .OHMM                                               :          
M2R6        .OHMM                                               :          
M2R9        .OHMM                                               :          
M2RX        .OHMM                                               :          
NPSS        .%                                                  :Neutron Porosity Sandstone
SP          .MV                                                 :          
SP_NORM     .MV                                                 :SP Normalized
TENS        .LB                                                 :          
VSH_GR      .V/V                                                :Volume of Shale from GR
VSH_SP      .V/V                                                :Volume of Shale from SP
~A        DEPTH           CALX           DPSS           DRHO           DT24             GR        GR_NORM           M2R1           M2R2           M2R3           M2R6           M2R9           M2RX           NPSS             SP        SP_NORM           TENS         VSH_GR         VSH_SP
# ...
      4888.0000         10.395        -999.25         0.0286       128.4314         49.898       34.44635         0.2972         0.2711         0.2565         0.2565         0.2495         0.2449        -999.25       -63.5294      -65.99854       -59.1837     0.03077349     0.01517371
      4888.5000         10.395        -999.25         0.0347        127.451        48.6735       32.30934         0.2972         0.2661         0.2565         0.2541         0.2472         0.2427        -999.25       -62.3529      -64.82204       -59.1837              0     0.03299944
      4889.0000         10.395        -999.25         0.0388       128.0392        48.3673       31.77495         0.2918         0.2613         0.2541         0.2449         0.2405         0.2361        -999.25       -61.5686      -64.03773       -59.1837              0      0.0448828
      4889.5000         10.395        -999.25         0.0388       128.4314        48.6735       32.30934         0.2787         0.2541         0.2472         0.2383         0.2339         0.2296        -999.25       -61.9608      -64.42994       -59.1837              0     0.03894031
      4890.0000         10.395        -999.25         0.0347       128.6275         49.898       34.44635         0.2711         0.2427         0.2405         0.2339         0.2275         0.2234        -999.25       -62.7451      -65.21423       -59.1837     0.03077349     0.02705707
      4890.5000         10.355        -999.25         0.0307       128.4314        51.7347       37.65179         0.2661         0.2383         0.2339         0.2296         0.2234         0.2193        -999.25       -64.3051      -66.77424       -59.1837     0.09897435    0.003420627
      4891.0000         10.355        -999.25         0.0267       127.6471        52.0408         38.186         0.2661         0.2383         0.2296         0.2255         0.2234         0.2193        -999.25       -64.6823      -67.15144       -38.7755      0.1103404              0
      4891.5000         10.395        -999.25         0.0227       127.0588        52.0408         38.186         0.2661         0.2383         0.2275         0.2255         0.2234         0.2193        -999.25        -64.667      -67.13614       -38.7755      0.1103404              0
      4892.0000         10.395        -999.25         0.0207       126.2745        52.3469       38.72022         0.2661         0.2361         0.2275         0.2234         0.2213         0.2173        -999.25       -64.6517      -67.12084       -38.7755      0.1217069              0
      4892.5000         10.395        -999.25         0.0248       125.8824        51.4286       37.11759         0.2637         0.2361         0.2255         0.2234         0.2193         0.2153        -999.25       -65.4244      -67.89354       -38.7755     0.08760834              0
      4893.0000         10.395        -999.25         0.0269       126.4706        50.8163       36.04898         0.2637         0.2361         0.2255         0.2213         0.2193         0.2153        -999.25       -65.4098      -67.87894       -38.7755     0.06487201              0
      4893.5000         10.395        -999.25          0.027        127.451        48.3673       31.77495         0.2637         0.2361         0.2234         0.2193         0.2173         0.2133        -999.25       -65.3953      -67.86444       -38.7755              0              0
      4894.0000         10.395        -999.25          0.023       127.8431        47.7551       30.70654         0.2637         0.2361         0.2234         0.2193         0.2153         0.2114        -999.25       -65.3806      -67.84974       -38.7755              0              0
      4894.5000         10.395        -999.25         0.0171       128.2353        48.6735       32.30934         0.2589         0.2361         0.2213         0.2173         0.2133         0.2094        -999.25        -65.366      -67.83514       -38.7755              0              0
      4895.0000         10.395        -999.25         0.0131       128.2353        49.5918       33.91197         0.2589         0.2339         0.2213         0.2153         0.2114         0.2075        -999.25       -65.3513      -67.82044       -38.7755     0.01940358              0
      4895.5000         10.395        -999.25         0.0071       128.4314        49.5918       33.91197         0.2565         0.2318         0.2213         0.2153         0.2114         0.2075        -999.25       -65.3366      -67.80574       -38.7755     0.01940358              0
      4896.0000         10.435        -999.25         0.0113       129.2157        48.9796       32.84355         0.2541         0.2318         0.2173         0.2133         0.2114         0.2075        -999.25       -65.3219      -67.79104       -18.3673              0              0
      4896.5000         10.435        -999.25         0.0194            130        48.3673       31.77495         0.2541         0.2275         0.2153         0.2133         0.2114         0.2075        -999.25       -65.3101      -67.77924       -18.3673              0              0
      4897.0000         10.435        -999.25         0.0235       130.4082        48.6735       32.30934         0.2541         0.2275         0.2153         0.2133         0.2114         0.2075        -999.25       -64.5004      -66.96954       -18.3673              0   0.0004615784
      4897.5000         10.475        -999.25         0.0276       129.6078        48.6735       32.30934         0.2541         0.2275         0.2133         0.2114         0.2094         0.2056        -999.25       -64.4848      -66.95394       -18.3673              0   0.0006978584
      4898.0000         10.475        -999.25         0.0297       128.4314        48.6735       32.30934         0.2565         0.2275         0.2153         0.2114         0.2094         0.2056        -999.25       -64.4692      -66.93834       -18.3673              0    0.000934254
      4898.5000         10.475        -999.25         0.0298       127.2549        48.9796       32.84355         0.2613         0.2318         0.2173         0.2133         0.2114         0.2075        -999.25       -63.6562      -66.12534       -18.3673              0     0.01325249
      4899.0000         10.475        -999.25         0.0258       126.2745        49.2857       33.37776         0.2686         0.2383         0.2255         0.2213         0.2193         0.2153        -999.25       -63.2407      -65.70984       -18.3673    0.008037486      0.0195479
      4899.5000         10.475        -999.25         0.0239       125.2941        51.1224        36.5832         0.2865         0.2495         0.2383         0.2318         0.2296         0.2255        -999.25       -62.0254      -64.49454       -18.3673     0.07623827     0.03796155
      4900.0000         10.475        -999.25          0.034       124.3137        51.7347       37.65179         0.3172         0.2711         0.2565         0.2495         0.2472         0.2427        -999.25       -59.2081      -61.67723       -18.3673     0.09897435     0.08064796
      4900.5000        10.4353        -999.25           0.04       123.9179        52.3469       38.72022          0.348         0.2945         0.2736         0.2686         0.2661         0.2613        -999.25          -56.4      -58.86914       -18.9858      0.1217069      0.1231949
      4901.0000        10.3959        -999.25           0.05       124.8938        52.9592       39.78882         0.3646         0.3113         0.2787         0.2736         0.2711         0.2661        -999.25            -54      -56.46914       -20.0165       0.144443      0.1595585
      4901.5000        10.3964        -999.25          0.048       128.2307        52.0408         38.186         0.3201         0.2761         0.2565         0.2518         0.2495         0.2427        -999.25          -55.6      -58.06913       -21.0472      0.1103404      0.1353161
