#------------------------------------------------------------------------------
# Created by    : vladimir.rabinovich
# Created on    : 09/19/2023 17:20:51
#------------------------------------------------------------------------------
~Version Information Section
VERS.           2.0     :   CWLS log ASCII Standard - VERSION 2.0
WRAP.           NO      :   One line per depth step
~Well Information Section
#MNEM       .UNIT                                         VALUE :DESCRIPTION
#------------------------------------------------------------------------------
STRT        .FT                                             126 :START DEPTH
STOP        .FT                                           15000 :STOP DEPTH
STEP        .FT                                             0.5 :STEP      
NULL        .                                           -999.25 :NULL      
COMP        .                                    MOBIL OIL CORP :COMPANY   
WELL        .                                MCFADDIN TRUST BLK :WELL      
FLD         .                                           WILDCAT :FIELD     
LOC         .                                                   :LOCATION  
CNTY        .                                         JEFFERSON :LOCATION  
STAT        .                                             TEXAS :STATE     
CTRY        .                                     UNITED STATES :COUNTRY   
SRVC        .                                                   :SERVICE COMPANY
DATE        .                             9/13/2023 11:19:11 AM :LOG DATE  
API         .                                    42245029210000 :API NUMBER
UWI         .                                    42245029210000 :UNIQUE WELL ID
XCOORD      .                                  1288949.71304085 :SURFACE X 
YCOORD      .                                  10768198.0929689 :SURFACE Y 
LAT         .                                        29.6663916 :LATITUDE  
LON         .                                       -94.1069885 :LONGITUDE 
ELEV        .FT                                              20 :ELEVATION VALUE
ELEV_TYPE   .                                                DF :ELEVATION REFERENCE TYPE
~Curve Information Section
#MNEM       .UNIT                                      API CODE :CURVE DESCRIPTION
#------------------------------------------------------------------------------
DEPT        .FT                                                 :DEPTH     
ASN         .OHMM                                               :          
LAT         .OHMM                                               :          
LN          .OHMM                                               :          
SN          .OHMM                                               :          
SP          .MV                                                 :          
SP_NORM     .MV                                                 :SP Normalized
VSH_SP      .V/V                                                :Volume of Shale from SP
~A        DEPTH            ASN            LAT             LN             SN             SP        SP_NORM         VSH_SP
# ...
      8032.0000         1.0812         1.1144         1.0223         1.0391       -27.3458     -0.1445675              1
      8032.5000         1.0856         1.1417         1.0024         1.0306       -27.2245    -0.02270317              1
      8033.0000         1.0823         1.1689         0.9827         1.0198       -27.1973    0.005064011              1
      8033.5000         1.0689         1.1961         0.9629         1.0089       -27.1701     0.03283119              1
      8034.0000         1.0556         1.2234         0.9432         0.9973        -27.143     0.06049728              1
      8034.5000         1.0314         1.2589         0.9236         0.9795       -27.1158     0.08826065              1
      8035.0000         1.0038         1.3025         0.9132         0.9616       -27.0887      0.1159286              1
      8035.5000         0.9762         1.3461         0.9028         0.9434       -27.1385     0.06669426              1
      8036.0000         0.9406         1.3897         0.8925         0.9235       -27.2516    -0.04584122              1
      8036.5000         0.9048         1.4337         0.8821         0.9035       -27.3647     -0.1583748              1
      8037.0000         0.8862         1.4819         0.8718         0.8836       -27.4779     -0.2710075              1
      8037.5000         0.8775         1.5301         0.8622         0.8742        -27.591     -0.3835411              1
      8038.0000         0.8688         1.5783         0.8613         0.8674        -27.704     -0.4959774              1
      8038.5000         0.8636         1.6266         0.8603         0.8622       -27.8721     -0.6635113              1
      8039.0000         0.8591         1.6748         0.8594         0.8613       -28.1132     -0.9040432              1
      8039.5000         0.8548          1.723         0.8584         0.8603       -28.3545      -1.144777      0.9973189
      8040.0000         0.8511         1.6916         0.8575         0.8594       -28.5959      -1.385612       0.992859
      8040.5000         0.8478         1.6202         0.8565         0.8602       -28.8369      -1.626047      0.9884065
      8041.0000         0.8445         1.5644         0.8556         0.8611       -28.9999      -1.788481      0.9853985
      8041.5000         0.8412         1.5085         0.8546          0.862       -29.0817      -1.869715      0.9838942
      8042.0000         0.8469         1.4527         0.8597         0.8629       -29.1635      -1.950949      0.9823899
      8042.5000         0.8602         1.3969          0.865         0.8654       -29.1999      -1.986782      0.9817262
      8043.0000         0.8717          1.341         0.8703         0.8721       -28.9392      -1.725515      0.9865645
      8043.5000         0.8832         1.2851         0.8756         0.8787       -28.6782      -1.463951      0.9914083
      8044.0000         0.8921         1.2358         0.8809         0.8888       -28.4175      -1.202684      0.9962466
      8044.5000         0.8934         1.1884         0.8864         0.9014       -28.1231     -0.9077187              1
      8045.0000         0.8946         1.1409         0.8922          0.914       -27.8025     -0.5865536              1
      8045.5000         0.8959         1.0934          0.898         0.9266         -27.61     -0.3934879              1
      8046.0000         0.8986          1.046         0.9037         0.9354       -27.4514     -0.2343216              1
      8046.5000         0.9045          1.001         0.9095         0.9438       -27.2927    -0.07505417              1
      8047.0000         0.9104         0.9562         0.9152         0.9521       -27.1343     0.08390999              1
      8047.5000         0.9163         0.9114         0.9209         0.9605       -26.9756      0.2431774              1
      8048.0000         0.9288         0.8721         0.9263         0.9739       -26.8169      0.4024429              1
      8048.5000         0.9418         0.8456         0.9317         0.9873       -26.6582      0.5617085              1
      8049.0000         0.9469         0.8191         0.9371         1.0007       -26.4996      0.7208748              1
      8049.5000         0.9511         0.7926         0.9426         1.0142       -26.3412      0.8798409              1
      8050.0000         0.9552         0.8092          0.948         1.0303       -26.1825       1.039106              1
      8050.5000         0.9612         0.8361         0.9534         1.0474       -26.0238       1.198372              1
      8051.0000         0.9819         0.8628         0.9589         1.0639       -26.0929       1.129839              1
      8051.5000         1.0105         0.8781         0.9643          1.064       -26.1839       1.039404              1
      8052.0000         1.0548         0.8934         0.9649         1.0642       -26.2748      0.9490719              1
      8052.5000          1.069         0.9087         0.9564          1.049       -26.3658      0.8586349              1
      8053.0000         1.0791          0.924          0.948         1.0322       -26.4295      0.7955017              1
      8053.5000         1.0863         0.9393         0.9358         1.0154        -26.447      0.7785683              1
      8054.0000         1.0663         0.9546         0.9225         0.9997       -26.4644       0.761734              1
      8054.5000         1.0463         0.9551         0.9092         0.9848       -26.4818      0.7448997              1
      8055.0000         1.0273         0.9391         0.8959           0.97       -26.3378      0.8894672              1
      8055.5000         1.0109         0.9232         0.8826         0.9554       -26.1565       1.071333              1
      8056.0000         0.9944         0.9072         0.8693         0.9483       -25.9751       1.253298              1
      8056.5000         0.9808         0.8912          0.856         0.9412       -25.7938       1.435163              1
      8057.0000         0.9687         0.8752         0.8426         0.9344       -25.6122       1.617331              1
      8057.5000         0.9566         0.8656         0.8292         0.9303        -25.446       1.784096              1
      8058.0000         0.9486         0.8781         0.8158         0.9262       -25.3201       1.910561              1
      8058.5000         0.9475         0.8907         0.8024          0.922       -25.1942       2.037027              1
      8059.0000         0.9464         0.9032          0.789         0.9172       -25.0684       2.163395              1
      8059.5000         0.9452         0.9158         0.7757         0.9122       -24.9425        2.28986              1
      8060.0000         0.9441         0.9311         0.7626         0.9071       -24.8166       2.416325              1
      8060.5000         0.9393         0.9477         0.7496         0.9021         -24.72       2.513493              1
      8061.0000         0.9243         0.9644         0.7365          0.898       -24.6482       2.585857              1
      8061.5000         0.9029          0.981         0.7259         0.8942       -24.5765       2.658123              1
      8062.0000          0.881         0.9976         0.7246         0.8905       -24.5047        2.73049              1
      8062.5000         0.8663         1.0143         0.7232         0.8895       -24.4329       2.802856              1
      8063.0000         0.8526         1.0309         0.7218         0.8887       -24.3612        2.87512              1
      8063.5000         0.8465         1.0475         0.7205         0.8879        -24.352       2.884888              1
      8064.0000         0.8459         1.0509         0.7191          0.889       -24.4322       2.805254              1
      8064.5000         0.8452         1.0532         0.7178         0.8956       -24.5123       2.725719              1
      8065.0000         0.8467         1.0556         0.7164         0.9023       -24.5925       2.646084              1
