#------------------------------------------------------------------------------
# Created by    : vladimir.rabinovich
# Created on    : 09/19/2023 17:22:56
#------------------------------------------------------------------------------
~Version Information Section
VERS.           2.0     :   CWLS log ASCII Standard - VERSION 2.0
WRAP.           NO      :   One line per depth step
~Well Information Section
#MNEM       .UNIT                                         VALUE :DESCRIPTION
#------------------------------------------------------------------------------
STRT        .FT                                             120 :START DEPTH
STOP        .FT                                           15526 :STOP DEPTH
STEP        .FT                                             0.5 :STEP      
NULL        .                                           -999.25 :NULL      
COMP        .                                    MOBIL OIL CORP :COMPANY   
WELL        .                                MCFADDIN TRUST BLK :WELL      
FLD         .                                           WILDCAT :FIELD     
LOC         .                                                   :LOCATION  
CNTY        .                                         JEFFERSON :LOCATION  
STAT        .                                             TEXAS :STATE     
CTRY        .                                     UNITED STATES :COUNTRY   
SRVC        .                                                   :SERVICE COMPANY
DATE        .                             9/13/2023 11:19:11 AM :LOG DATE  
API         .                                    42245021130000 :API NUMBER
UWI         .                                    42245021130000 :UNIQUE WELL ID
XCOORD      .                                  1317150.22331494 :SURFACE X 
YCOORD      .                                   10814678.490982 :SURFACE Y 
LAT         .                                        29.7949472 :LATITUDE  
LON         .                                       -94.0194715 :LONGITUDE 
ELEV        .FT                                              18 :ELEVATION VALUE
ELEV_TYPE   .                                                DF :ELEVATION REFERENCE TYPE
~Curve Information Section
#MNEM       .UNIT                                      API CODE :CURVE DESCRIPTION
#------------------------------------------------------------------------------
DEPT        .FT                                                 :DEPTH     
SN          .OHMM                                               :          
SP          .MV                                                 :          
SP_NORM     .MV                                                 :SP Normalized
VSH_SP      .V/V                                                :Volume of Shale from SP
~A        DEPTH             SN             SP        SP_NORM         VSH_SP
# ...
     12416.0000         0.6777       -42.4543      0.7243309              1
     12416.5000         0.6765       -42.5063       0.676342              1
     12417.0000          0.675       -42.5582      0.6284523              1
     12417.5000         0.6704         -42.61      0.5806656              1
     12418.0000         0.6657        -42.662      0.5326805              1
     12418.5000         0.6611       -42.7057      0.4929886              1
     12419.0000         0.6565       -42.7386      0.4640999              1
     12419.5000         0.6518       -42.7716       0.435112              1
     12420.0000         0.6471       -42.8045      0.4062233              1
     12420.5000         0.6422       -42.8375      0.3772316              1
     12421.0000         0.6372       -42.8704      0.3483467              1
     12421.5000         0.6323       -42.9034      0.3193588              1
     12422.0000         0.6274       -42.9363      0.2904701              1
     12422.5000         0.6225       -42.9584      0.2723808              1
     12423.0000         0.6176       -42.9774      0.2573891              1
     12423.5000         0.6126       -42.9963      0.2425041              1
     12424.0000         0.6094       -43.0153      0.2275124              1
     12424.5000          0.607       -43.0343      0.2125244              1
     12425.0000         0.6045        -43.008      0.2428398              1
     12425.5000         0.6021       -42.9592      0.2956467              1
     12426.0000         0.5996       -42.9106      0.3482628              1
     12426.5000         0.5972       -42.8619      0.4009705              1
     12427.0000         0.5961       -42.8131      0.4537849              1
     12427.5000         0.6009       -42.7684      0.5024948              1
     12428.0000         0.6057       -42.7308      0.5441055              1
     12428.5000         0.6106       -42.6931      0.5858192              1
     12429.0000         0.6154       -42.6555        0.62743              1
     12429.5000         0.6234       -42.6178      0.6691399              1
     12430.0000         0.6411       -42.5801      0.7108498              1
     12430.5000         0.6588       -42.5425      0.7524643              1
     12431.0000         0.6765       -42.5181      0.7808723              1
     12431.5000          0.691       -42.5004      0.8025856              1
     12432.0000         0.7037       -42.4828      0.8241959              1
     12432.5000         0.7165       -42.4651      0.8459091              1
     12433.0000         0.7287       -42.4474      0.8676224              1
     12433.5000         0.7345       -42.4297      0.8893318              1
     12434.0000         0.7402       -42.4261      0.8969421              1
     12434.5000         0.7452       -42.4463      0.8807526              1
     12435.0000         0.7438       -42.4664       0.864666              1
     12435.5000         0.7424       -42.4866      0.8484764              1
     12436.0000          0.741       -42.5067      0.8323898              1
     12436.5000          0.738       -42.5483      0.7947998              1
     12437.0000         0.7349       -42.6007      0.7464104              1
     12437.5000         0.7317       -42.6531      0.6980247              1
     12438.0000         0.7284       -42.7056      0.6495323              1
     12438.5000         0.7244       -42.7601      0.5990448              1
     12439.0000         0.7204       -42.8257      0.5374565              1
     12439.5000         0.7164       -42.8913      0.4758682              1
     12440.0000         0.7124       -42.9569      0.4142799              1
     12440.5000         0.7084       -43.0225      0.3526917              1
     12441.0000         0.7039       -43.1015      0.2777023              1
     12441.5000          0.699       -43.1976      0.1856117              1
     12442.0000          0.694       -43.2938     0.09342575              1
     12442.5000         0.6891       -43.3899    0.001335144              1
     12443.0000         0.6842       -43.4857    -0.09045029              1
     12443.5000         0.6792       -43.5818     -0.1825409              1
     12444.0000         0.6743       -43.6749     -0.2716293              1
     12444.5000         0.6703       -43.7546     -0.3473167              1
     12445.0000         0.6669       -43.8341     -0.4228058              1
     12445.5000         0.6635       -43.9138     -0.4984932              1
     12446.0000         0.6601       -43.9935     -0.5741844              1
     12446.5000         0.6567       -44.0731     -0.6497726              1
     12447.0000         0.6532       -44.1527     -0.7253609              1
     12447.5000         0.6498       -44.2324     -0.8010483              1
     12448.0000         0.6464       -44.3138      -0.878437              1
     12448.5000          0.643       -44.3968      -0.957428              1
     12449.0000         0.6392       -44.4798      -1.036415      0.9994723
     12449.5000          0.635       -44.5627      -1.115303      0.9983289
     12450.0000         0.6309       -44.6458      -1.194393      0.9971827
     12450.5000         0.6267       -44.7271      -1.271683      0.9960626
     12451.0000         0.6226       -44.7747      -1.315269      0.9954309
     12451.5000         0.6184       -44.8225      -1.359055      0.9947963
     12452.0000         0.6143       -44.8703      -1.402847      0.9941616
     12452.5000         0.6101       -44.8878      -1.416332      0.9939662
     12453.0000          0.606       -44.8928      -1.417324      0.9939518
     12453.5000         0.6018       -44.8978      -1.418312      0.9939375
     12454.0000         0.5977       -44.9139      -1.430401      0.9937623
     12454.5000          0.593       -44.9493      -1.461788      0.9933074
     12455.0000         0.5878       -44.9845      -1.492977      0.9928554
     12455.5000         0.5826       -45.0198      -1.524265       0.992402
     12456.0000         0.5774       -45.0551      -1.555553      0.9919485
     12456.5000         0.5722       -45.1161      -1.612545      0.9911225
     12457.0000         0.5671       -45.1904      -1.682831      0.9901039
     12457.5000         0.5619       -45.2646      -1.753021      0.9890866
     12458.0000         0.5567       -45.3391      -1.823509      0.9880651
     12458.5000         0.5515       -45.4207        -1.9011      0.9869406
     12459.0000          0.547       -45.5084      -1.984787      0.9857277
     12459.5000         0.5475       -45.5961      -2.068474      0.9845149
     12460.0000         0.5481       -45.6838      -2.152164      0.9833019
     12460.5000         0.5487       -45.7645      -2.228851      0.9821905
     12461.0000         0.5493       -45.8215      -2.281841      0.9814226
     12461.5000         0.5498       -45.8784      -2.334728      0.9806561
     12462.0000         0.5504       -45.9353      -2.387619      0.9798896
     12462.5000          0.551       -45.9844      -2.432709      0.9792361
     12463.0000         0.5516       -45.9743      -2.418594      0.9794407
     12463.5000         0.5521       -45.9642      -2.404484      0.9796451
     12464.0000         0.5528       -45.9541      -2.390373      0.9798496
     12464.5000         0.5534        -45.944      -2.376263      0.9800541
     12465.0000          0.554       -45.9399      -2.368149      0.9801717
     12465.5000         0.5546       -45.9448      -2.369041      0.9801588
     12466.0000         0.5552       -45.9498      -2.370026      0.9801446
     12466.5000         0.5558       -45.9548      -2.371014      0.9801303
     12467.0000         0.5564       -45.9598      -2.372005      0.9801159
     12467.5000         0.5573       -45.9648      -2.372993      0.9801015
     12468.0000         0.5594       -45.9698      -2.373981      0.9800872
     12468.5000         0.5616       -45.9748      -2.374969      0.9800729
