#------------------------------------------------------------------------------
# Created by    : vladimir.rabinovich
# Created on    : 09/19/2023 17:22:24
#------------------------------------------------------------------------------
~Version Information Section
VERS.           2.0     :   CWLS log ASCII Standard - VERSION 2.0
WRAP.           NO      :   One line per depth step
~Well Information Section
#MNEM       .UNIT                                         VALUE :DESCRIPTION
#------------------------------------------------------------------------------
STRT        .FT                                            1850 :START DEPTH
STOP        .FT                                            8215 :STOP DEPTH
STEP        .FT                                             0.5 :STEP      
NULL        .                                           -999.25 :NULL      
COMP        .                                  NOBLE ENERGY INC :COMPANY   
WELL        .                                           MEADOWS :WELL      
FLD         .                                          BINDWEED :FIELD     
LOC         .                                                   :LOCATION  
CNTY        .                                         JEFFERSON :LOCATION  
STAT        .                                             TEXAS :STATE     
CTRY        .                                     UNITED STATES :COUNTRY   
SRVC        .                                                   :SERVICE COMPANY
DATE        .                             9/13/2023 11:18:46 AM :LOG DATE  
API         .                                    42245325230000 :API NUMBER
UWI         .                                    42245325230000 :UNIQUE WELL ID
XCOORD      .                                  1273245.27472043 :SURFACE X 
YCOORD      .                                  10899721.9019567 :SURFACE Y 
LAT         .                                           30.0277 :LATITUDE  
LON         .                                       -94.1606194 :LONGITUDE 
ELEV        .FT                                              29 :ELEVATION VALUE
ELEV_TYPE   .                                                KB :ELEVATION REFERENCE TYPE
~Curve Information Section
#MNEM       .UNIT                                      API CODE :CURVE DESCRIPTION
#------------------------------------------------------------------------------
DEPT        .FT                                                 :DEPTH     
CALX        .IN                                                 :          
DPSS        .%                                                  :          
DRHO        .G/CM3                                              :          
DT24        .US/FT                                              :          
GR          .GAPI                                               :          
GR_NORM     .GAPI                                               :GammaRay Normalized
M2R1        .OHMM                                               :          
M2R2        .OHMM                                               :          
M2R3        .OHMM                                               :          
M2R6        .OHMM                                               :          
M2R9        .OHMM                                               :          
M2RX        .OHMM                                               :          
NPSS        .%                                                  :Neutron Porosity Sandstone
SP          .MV                                                 :          
SP_NORM     .MV                                                 :SP Normalized
TENS        .LB                                                 :          
VSH_GR      .V/V                                                :Volume of Shale from GR
VSH_SP      .V/V                                                :Volume of Shale from SP
~A        DEPTH           CALX           DPSS           DRHO           DT24             GR        GR_NORM           M2R1           M2R2           M2R3           M2R6           M2R9           M2RX           NPSS             SP        SP_NORM           TENS         VSH_GR         VSH_SP
# ...
      7786.0000         11.155        17.8271          0.062          102.8           89.4        74.6578         1.0277         1.0184         1.0277         1.0277         1.0184              1          31.92        -3.6735      -1.204364         2.0408      0.8863361      0.9970382
      7786.5000         11.155          17.59          0.062          101.6           87.9       72.95222         1.0277         1.0184         1.0277         1.0277         1.0184              1          31.68        -3.6735      -1.204364         2.0408      0.8500472      0.9970382
      7787.0000         11.155        17.4741          0.062            100           88.2       73.28373         1.0277         1.0184         1.0277         1.0277         1.0184              1          31.32        -3.2653     -0.7961643       -38.7755      0.8571006              1
      7787.5000         11.155        17.6015          0.062           99.4           90.6       75.99191         1.0092         0.9905         0.9905         0.9905          0.981         0.9624          31.32        -2.8571     -0.3879642       -59.1837      0.9147214              1
      7788.0000         11.115         17.851          0.062            101           93.9       79.71864         0.9624         0.9442         0.9532         0.9532         0.9442         0.9174          34.08         -2.449     0.02013588       -59.1837      0.9940135              1
      7788.5000         11.115         18.452          0.062          103.2             96       82.08729         0.9174            0.9         0.8919         0.8919         0.8838         0.8759        36.7347         -4.898      -2.428864       -59.1837              1      0.9792918
      7789.0000         11.075        18.8113          0.062          104.8           96.3       82.41882            0.9         0.8838         0.8919         0.8919         0.8838         0.8524        36.3673        -7.3469      -4.877764       -59.1837              1      0.9438005
      7789.5000         11.115        18.9343          0.062            104             93        78.6761            0.9         0.8838         0.8919         0.8919         0.8838         0.8759          34.56        -7.3469      -4.877764       -59.1837       0.971832      0.9438005
      7790.0000         11.155        18.5862          0.062            103           90.3       75.61243         0.9262         0.9174         0.9087         0.9087            0.9         0.8838           33.6        -6.9388      -4.469664       -59.1837      0.9066476       0.949715
      7790.5000        11.1546        18.3493          0.062       101.7963           89.7        74.9254         0.9624         0.9352         0.9352         0.9352         0.9262         0.9174        34.4419        -6.9388      -4.469664       -59.1837      0.8920298       0.949715
      7791.0000        11.1538        18.2256          0.062       100.5858           88.5       73.55933         0.9717         0.9624         0.9352         0.9352         0.9262         0.9174        35.2876        -6.9388      -4.469664       -59.1837      0.8629646       0.949715
      7791.5000        11.1531        18.3373           0.06        100.979           90.6       75.92798         0.9532         0.9624         0.9352         0.9352         0.9262         0.9087        34.9304        -7.3469      -4.877764       -59.1837      0.9133613      0.9438005
      7792.0000        11.1524        18.4489          0.058       102.5826           92.4       77.95711         0.9174         0.9174         0.9352         0.9352         0.9262            0.9        33.6043        -7.3469      -4.877764       -59.1837      0.9565342      0.9438005
      7792.5000        11.1115        18.5617          0.062       103.7889           93.9       79.64672         0.8919         0.8838         0.8919         0.8919         0.8838          0.868        32.6367        -7.3469      -4.877764       -59.1837      0.9924834      0.9438005
      7793.0000        11.1107        18.6734          0.062       103.5841           95.4       81.33633         0.8759          0.868         0.8759         0.8759          0.868         0.8524        32.8786        -7.3469      -4.877764       -59.1837              1      0.9438005
      7793.5000        11.1099         18.785          0.066       102.9731           95.7       81.66786            0.9         0.8838         0.8919         0.8919         0.8838         0.8601        33.8512        -7.3469      -4.877764       -59.1837              1      0.9438005
      7794.0000        11.1494        18.8966          0.066        102.969           95.7       81.65986         0.9352         0.9087         0.9174         0.9174         0.9087            0.9        34.2185        -8.1633      -5.694164       -59.1837              1      0.9319686
      7794.5000        11.1487        19.0083           0.07       103.1683           94.5        80.2938         0.9624         0.9352         0.9442         0.9442         0.9352         0.9262         34.221        -9.7959      -7.326765       -79.5918              1      0.9083077
      7795.0000        11.2287        19.1199          0.074       102.9606           91.5       76.89061         0.9624         0.9532         0.9442         0.9442         0.9352         0.9262        33.8565        -9.3878      -6.918664       -79.5918      0.9338428      0.9142222
      7795.5000        11.2686        18.4081           0.08       102.3432           89.1       74.16645         0.9624         0.9532         0.9442         0.9442         0.9352         0.9262        32.5095        -8.9796      -6.510464           -100      0.8758819      0.9201382
      7796.0000        11.3085        17.8086          0.086        100.701           88.5       73.47942         0.9624         0.9532         0.9624         0.9624         0.9532         0.9442        31.1569        -9.3878      -6.918664           -100      0.8612643      0.9142222
      7796.5000        11.3484        17.5609           0.09        99.8747           88.2        73.1319          0.981         0.9624         0.9905         0.9905          0.981         0.9717        30.0448        -8.5714      -6.102264           -100      0.8538703      0.9260541
      7797.0000        11.3479        17.3136          0.096       100.0646           89.1       74.14249              1          0.981         0.9905         0.9905          0.981         0.9717        30.1632        -8.9796      -6.510464           -100      0.8753721      0.9201382
      7797.5000        11.3473        17.1875          0.096       100.8802           89.7       74.81352         1.0093              1         0.9905         0.9905          0.981         0.9717        31.2697        -8.9796      -6.510464           -100      0.8896494      0.9201382
      7798.0000        11.3468        17.3038          0.092       102.1101           89.4       74.46602              1          0.981         0.9905         0.9905          0.981         0.9717        32.6285        -8.9796      -6.510464           -100      0.8822557      0.9201382
      7798.5000        11.3462        17.6596          0.082       103.5521           90.6       75.81611         0.9624         0.9352         0.9442         0.9442         0.9352         0.9262        35.1098        -8.5714      -6.102264           -100      0.9109811      0.9260541
      7799.0000         11.305         18.132          0.076       104.3782           91.5       76.82668         0.9352         0.8919            0.9            0.9         0.8919            0.9        36.3462        -8.9796      -6.510464       -79.5918      0.9324825      0.9201382
      7799.5000        11.3044         18.479          0.072       104.3768             93       78.51629         0.9087         0.8919            0.9            0.9         0.8919         0.8759        36.8326        -8.5714      -6.102264       -79.5918      0.9684317      0.9260541
