#------------------------------------------------------------------------------
# Created by    : vladimir.rabinovich
# Created on    : 09/19/2023 17:22:56
#------------------------------------------------------------------------------
~Version Information Section
VERS.           2.0     :   CWLS log ASCII Standard - VERSION 2.0
WRAP.           NO      :   One line per depth step
~Well Information Section
#MNEM       .UNIT                                         VALUE :DESCRIPTION
#------------------------------------------------------------------------------
STRT        .FT                                             120 :START DEPTH
STOP        .FT                                           15526 :STOP DEPTH
STEP        .FT                                             0.5 :STEP      
NULL        .                                           -999.25 :NULL      
COMP        .                                    MOBIL OIL CORP :COMPANY   
WELL        .                                MCFADDIN TRUST BLK :WELL      
FLD         .                                           WILDCAT :FIELD     
LOC         .                                                   :LOCATION  
CNTY        .                                         JEFFERSON :LOCATION  
STAT        .                                             TEXAS :STATE     
CTRY        .                                     UNITED STATES :COUNTRY   
SRVC        .                                                   :SERVICE COMPANY
DATE        .                             9/13/2023 11:19:11 AM :LOG DATE  
API         .                                    42245021130000 :API NUMBER
UWI         .                                    42245021130000 :UNIQUE WELL ID
XCOORD      .                                  1317150.22331494 :SURFACE X 
YCOORD      .                                   10814678.490982 :SURFACE Y 
LAT         .                                        29.7949472 :LATITUDE  
LON         .                                       -94.0194715 :LONGITUDE 
ELEV        .FT                                              18 :ELEVATION VALUE
ELEV_TYPE   .                                                DF :ELEVATION REFERENCE TYPE
~Curve Information Section
#MNEM       .UNIT                                      API CODE :CURVE DESCRIPTION
#------------------------------------------------------------------------------
DEPT        .FT                                                 :DEPTH     
SN          .OHMM                                               :          
SP          .MV                                                 :          
SP_NORM     .MV                                                 :SP Normalized
VSH_SP      .V/V                                                :Volume of Shale from SP
~A        DEPTH             SN             SP        SP_NORM         VSH_SP
# ...
      9342.0000         0.6386       -35.2982     -0.2685661              1
      9342.5000         0.6277       -35.2608     -0.2299728              1
      9343.0000         0.6169       -35.2234     -0.1913795              1
      9343.5000         0.6061       -35.1862     -0.1529884              1
      9344.0000         0.5984       -35.1725     -0.1380959              1
      9344.5000         0.5909       -35.1649     -0.1293068              1
      9345.0000         0.5835       -35.1573     -0.1205101              1
      9345.5000         0.5761       -35.1497      -0.111721              1
      9346.0000         0.5687       -35.1422     -0.1030273              1
      9346.5000         0.5613       -35.1345    -0.09413528              1
      9347.0000         0.5539       -35.1418     -0.1002426              1
      9347.5000         0.5497       -35.2045     -0.1617508              1
      9348.0000          0.549       -35.2673     -0.2233582              1
      9348.5000         0.5483         -35.33     -0.2848701              1
      9349.0000         0.5476       -35.3928     -0.3464737              1
      9349.5000         0.5469       -35.4554     -0.4078789              1
      9350.0000         0.5462       -35.5182     -0.4694901              1
      9350.5000         0.5457       -35.5809     -0.5309944              1
      9351.0000         0.5489       -35.6437     -0.5926056              1
      9351.5000          0.552       -35.6837     -0.6314125              1
      9352.0000         0.5551       -35.7194     -0.6659203              1
      9352.5000         0.5583       -35.7551      -0.700428              1
      9353.0000         0.5614       -35.7907     -0.7348366              1
      9353.5000         0.5649       -35.7681     -0.7110443              1
      9354.0000         0.5685       -35.6729     -0.6146545              1
      9354.5000         0.5721       -35.5779     -0.5184593              1
      9355.0000         0.5757       -35.4828     -0.4221687              1
      9355.5000         0.5793       -35.3878     -0.3259735              1
      9356.0000         0.5829       -35.2927     -0.2296829              1
      9356.5000         0.5865        -35.252     -0.1877899              1
      9357.0000         0.5885        -35.241     -0.1755981              1
      9357.5000         0.5904       -35.2299     -0.1633072              1
      9358.0000         0.5923       -35.2189     -0.1511116              1
      9358.5000         0.5943       -35.2078     -0.1388245              1
      9359.0000         0.5962       -35.1967     -0.1265297              1
      9359.5000         0.5981       -35.1857     -0.1143379              1
      9360.0000          0.599       -35.1746     -0.1020432              1
      9360.5000         0.5954       -35.1635    -0.08975601              1
      9361.0000         0.5919       -35.1525    -0.07756042              1
      9361.5000         0.5883       -35.1678    -0.09167099              1
      9362.0000         0.5847       -35.1965      -0.119175              1
      9362.5000         0.5805       -35.2252     -0.1466866              1
      9363.0000         0.5762        -35.254     -0.1742935              1
      9363.5000         0.5719       -35.2827     -0.2017975              1
      9364.0000         0.5676       -35.3114     -0.2293091              1
      9364.5000         0.5633       -35.3401      -0.256813              1
      9365.0000         0.5619       -35.3688     -0.2843246              1
      9365.5000         0.5613       -35.3945     -0.3088303              1
      9366.0000         0.5607       -35.4125     -0.3256378              1
      9366.5000         0.5601       -35.4306     -0.3425446              1
      9367.0000         0.5595       -35.4487     -0.3594551              1
      9367.5000          0.559       -35.4668     -0.3763618              1
      9368.0000         0.5584       -35.4229     -0.3312721              1
      9368.5000         0.5578       -35.3165     -0.2236786              1
      9369.0000         0.5569       -35.2101     -0.1160851              1
      9369.5000          0.556       -35.1036   -0.008392334              1
      9370.0000          0.555       -34.9973     0.09910202              1
      9370.5000          0.554       -34.9237       0.173893              1
      9371.0000          0.553       -34.9269      0.1718864              1
      9371.5000          0.552       -34.9301      0.1698761              1
      9372.0000          0.551       -34.9333      0.1678696              1
      9372.5000           0.55       -34.9365      0.1658592              1
      9373.0000          0.549       -34.9397      0.1638527              1
      9373.5000         0.5452       -34.9415      0.1632423              1
      9374.0000         0.5412       -34.9319      0.1740379              1
      9374.5000         0.5371       -34.9224      0.1847267              1
      9375.0000         0.5331       -34.9129      0.1954231              1
      9375.5000         0.5291       -34.9034      0.2061119              1
      9376.0000         0.5251       -34.8938      0.2169075              1
      9376.5000         0.5211       -34.8538      0.2580948              1
      9377.0000         0.5173       -34.7856      0.3274918              1
      9377.5000         0.5138       -34.7177      0.3965836              1
      9378.0000         0.5103       -34.6496      0.4658737              1
      9378.5000         0.5068       -34.5816      0.5350685              1
      9379.0000         0.5033       -34.5087      0.6091576              1
      9379.5000         0.4997       -34.4315      0.6875534              1
      9380.0000         0.4962       -34.3541      0.7661438              1
      9380.5000         0.4927       -34.2769      0.8445358              1
      9381.0000         0.4892       -34.1996       0.923027              1
      9381.5000         0.4857       -34.1224       1.001423              1
      9382.0000         0.4812       -34.0826       1.042412              1
      9382.5000           0.48       -34.1199       1.006306              1
      9383.0000         0.4866       -34.1571       0.970295              1
      9383.5000         0.4933       -34.1943       0.934288              1
      9384.0000         0.4999        -34.244      0.8857841              1
      9384.5000         0.5065       -34.3708      0.7601738              1
      9385.0000         0.5134        -34.498      0.6341667              1
      9385.5000         0.5202       -34.6248      0.5085564              1
      9386.0000         0.5271        -34.752      0.3825531              1
      9386.5000         0.5339       -34.8788      0.2569427              1
      9387.0000         0.5408       -35.0302      0.1067352              1
      9387.5000         0.5476       -35.1827    -0.04457474              1
      9388.0000         0.5545       -35.3348     -0.1954803              1
      9388.5000         0.5605       -35.4871     -0.3465881              1
      9389.0000         0.5653       -35.5994      -0.457695              1
      9389.5000         0.5701       -35.5338     -0.3909035              1
      9390.0000         0.5749        -35.468     -0.3239098              1
      9390.5000         0.5798       -35.4022     -0.2569199              1
      9391.0000         0.5846       -35.3364     -0.1899261              1
      9391.5000         0.5894       -35.2706     -0.1229324              1
      9392.0000         0.5942       -35.2048    -0.05594254              1
      9392.5000         0.5991       -35.1801    -0.03004837              1
      9393.0000         0.6039       -35.1558   -0.004558563              1
      9393.5000         0.6073       -35.1316     0.02083588              1
      9394.0000         0.6085       -35.1074      0.0462265              1
      9394.5000         0.6097       -35.0831     0.07172012              1
