#------------------------------------------------------------------------------
# Created by    : vladimir.rabinovich
# Created on    : 09/19/2023 17:22:24
#------------------------------------------------------------------------------
~Version Information Section
VERS.           2.0     :   CWLS log ASCII Standard - VERSION 2.0
WRAP.           NO      :   One line per depth step
~Well Information Section
#MNEM       .UNIT                                         VALUE :DESCRIPTION
#------------------------------------------------------------------------------
STRT        .FT                                            1850 :START DEPTH
STOP        .FT                                            8215 :STOP DEPTH
STEP        .FT                                             0.5 :STEP      
NULL        .                                           -999.25 :NULL      
COMP        .                                  NOBLE ENERGY INC :COMPANY   
WELL        .                                           MEADOWS :WELL      
FLD         .                                          BINDWEED :FIELD     
LOC         .                                                   :LOCATION  
CNTY        .                                         JEFFERSON :LOCATION  
STAT        .                                             TEXAS :STATE     
CTRY        .                                     UNITED STATES :COUNTRY   
SRVC        .                                                   :SERVICE COMPANY
DATE        .                             9/13/2023 11:18:46 AM :LOG DATE  
API         .                                    42245325230000 :API NUMBER
UWI         .                                    42245325230000 :UNIQUE WELL ID
XCOORD      .                                  1273245.27472043 :SURFACE X 
YCOORD      .                                  10899721.9019567 :SURFACE Y 
LAT         .                                           30.0277 :LATITUDE  
LON         .                                       -94.1606194 :LONGITUDE 
ELEV        .FT                                              29 :ELEVATION VALUE
ELEV_TYPE   .                                                KB :ELEVATION REFERENCE TYPE
~Curve Information Section
#MNEM       .UNIT                                      API CODE :CURVE DESCRIPTION
#------------------------------------------------------------------------------
DEPT        .FT                                                 :DEPTH     
CALX        .IN                                                 :          
DPSS        .%                                                  :          
DRHO        .G/CM3                                              :          
DT24        .US/FT                                              :          
GR          .GAPI                                               :          
GR_NORM     .GAPI                                               :GammaRay Normalized
M2R1        .OHMM                                               :          
M2R2        .OHMM                                               :          
M2R3        .OHMM                                               :          
M2R6        .OHMM                                               :          
M2R9        .OHMM                                               :          
M2RX        .OHMM                                               :          
NPSS        .%                                                  :Neutron Porosity Sandstone
SP          .MV                                                 :          
SP_NORM     .MV                                                 :SP Normalized
TENS        .LB                                                 :          
VSH_GR      .V/V                                                :Volume of Shale from GR
VSH_SP      .V/V                                                :Volume of Shale from SP
~A        DEPTH           CALX           DPSS           DRHO           DT24             GR        GR_NORM           M2R1           M2R2           M2R3           M2R6           M2R9           M2RX           NPSS             SP        SP_NORM           TENS         VSH_GR         VSH_SP
# ...
      8192.0000        -999.25        -999.25        -999.25        -999.25        -999.25        -999.25         1.5018         1.3441         1.3318         1.3195         1.3074         1.2953        -999.25        -22.072      -19.60287        62.6678        -999.25      0.7303932
      8192.5000        -999.25        -999.25        -999.25        -999.25        -999.25        -999.25          1.434         1.3318         1.2716         1.2599         1.2483         1.2368        -999.25        -22.492      -20.02287        62.5025        -999.25      0.7243063
      8193.0000        -999.25        -999.25        -999.25        -999.25        -999.25        -999.25         1.3195         1.2255          1.192          1.181         1.1701         1.1594        -999.25        -23.712      -21.24286        62.3377        -999.25      0.7066252
      8193.5000        -999.25        -999.25        -999.25        -999.25        -999.25        -999.25         1.2834          1.203          1.192          1.181         1.1701         1.1594        -999.25        -23.732      -21.26287        62.1731        -999.25      0.7063353
      8194.0000        -999.25        -999.25        -999.25        -999.25        -999.25        -999.25         1.2953          1.203          1.192          1.181         1.1701         1.1594        -999.25        -22.552      -20.08286        41.7578        -999.25      0.7234367
      8194.5000        -999.25        -999.25        -999.25        -999.25        -999.25        -999.25         1.3441         1.2483          1.203          1.192          1.181         1.1701        -999.25        -20.572      -18.10287        21.3838        -999.25      0.7521324
      8195.0000        -999.25        -999.25        -999.25        -999.25        -999.25        -999.25         1.3819         1.2834         1.2142          1.203          1.192          1.181        -999.25        -20.992      -18.52287        41.4713        -999.25      0.7460454
      8195.5000        -999.25        -999.25        -999.25        -999.25        -999.25        -999.25         1.3441         1.2599          1.181         1.1701         1.1594         1.1487        -999.25        -25.412      -22.94287        61.5183        -999.25      0.6819875
      8196.0000        -999.25        -999.25        -999.25        -999.25        -999.25        -999.25         1.2716         1.1277         1.0767         1.0668          1.057         1.0473        -999.25        -30.232      -27.76287        61.3554        -999.25      0.6121324
      8196.5000        -999.25        -999.25        -999.25        -999.25        -999.25        -999.25          1.192         1.0473         0.9905          0.981         0.9717         0.9624        -999.25        -37.452      -34.98286        61.1928        -999.25      0.5074947
      8197.0000        -999.25        -999.25        -999.25        -999.25        -999.25        -999.25          1.107         0.9624         0.9262         0.9174         0.9087            0.9        -999.25       -42.7265      -40.25737        61.0306        -999.25      0.4310527
      8197.5000        -999.25        -999.25        -999.25        -999.25        -999.25        -999.25         1.0767         0.9087          0.868         0.8601         0.8524         0.8447        -999.25       -48.0531      -45.58397        60.8687        -999.25      0.3538556
      8198.0000        -999.25        -999.25        -999.25        -999.25        -999.25        -999.25         1.0473         0.8838         0.8295          0.822         0.8146         0.8073        -999.25       -50.5224      -48.05326        40.6187        -999.25      0.3180686
      8198.5000        -999.25        -999.25        -999.25        -999.25        -999.25        -999.25         1.0473         0.8524         0.8295          0.822         0.8146         0.8073        -999.25       -52.1755      -49.70636        20.4094        -999.25      0.2941107
      8199.0000        -999.25        -999.25        -999.25        -999.25        -999.25        -999.25         1.0473         0.8524         0.8295          0.822         0.8146         0.8073        -999.25       -53.4204      -50.95126         0.2406        -999.25      0.2760687
      8199.5000        -999.25        -999.25        -999.25        -999.25        -999.25        -999.25         1.0187         0.8447         0.8295          0.822         0.8146         0.8073        -999.25       -52.6245      -50.15536         0.1402        -999.25      0.2876034
      8200.0000        -999.25        -999.25        -999.25        -999.25        -999.25        -999.25         1.0187         0.8447         0.8295          0.822         0.8146         0.8073        -999.25       -48.5633      -46.09417           0.04        -999.25      0.3464614
      8200.5000        -999.25        -999.25        -999.25        -999.25        -999.25        -999.25          1.057         0.9352          0.868         0.8601         0.8524         0.8371        -999.25        -42.449      -39.97987         0.0619        -999.25      0.4350744
      8201.0000        -999.25        -999.25        -999.25        -999.25        -999.25        -999.25         1.2483         1.0668         1.0377         1.0281         1.0187         0.9624        -999.25          -37.2      -34.73087       -19.8678        -999.25      0.5111469
      8201.5000        -999.25        -999.25        -999.25        -999.25        -999.25        -999.25          1.488         1.2255          1.203         1.1594         1.1487         1.1173        -999.25          -36.4      -33.93087        -19.785        -999.25      0.5227411
      8202.0000        -999.25        -999.25        -999.25        -999.25        -999.25        -999.25         1.8404         1.4743         1.3441         1.3692         1.2599         1.2834        -999.25          -36.4      -33.93087        40.4924        -999.25      0.5227411
      8202.5000        -999.25        -999.25        -999.25        -999.25        -999.25        -999.25         1.9274         1.6021          1.488          1.434         1.4077         1.3947        -999.25        -999.25        -999.25        80.8202        -999.25        -999.25
      8203.0000        -999.25        -999.25        -999.25        -999.25        -999.25        -999.25          1.544         1.3318          1.192          1.192         1.0867         1.0767        -999.25        -999.25        -999.25        81.0077        -999.25        -999.25
      8203.5000        -999.25        -999.25        -999.25        -999.25        -999.25        -999.25         1.2255         1.0187         0.9352         0.9174         0.9087            0.9        -999.25        -999.25        -999.25        61.0627        -999.25        -999.25
      8204.0000        -999.25        -999.25        -999.25        -999.25        -999.25        -999.25         1.1701              1         0.9174         0.8919          0.868         0.8601        -999.25        -999.25        -999.25          61.23        -999.25        -999.25
      8204.5000        -999.25        -999.25        -999.25        -999.25        -999.25        -999.25         1.1594         0.9905         0.9174          0.868         0.8524         0.8447        -999.25        -999.25        -999.25        61.3977        -999.25        -999.25
      8205.0000        -999.25        -999.25        -999.25        -999.25        -999.25        -999.25         1.1594         0.9717         0.9174         0.8759         0.8601         0.8524        -999.25        -999.25        -999.25        61.5657        -999.25        -999.25
      8205.5000        -999.25        -999.25        -999.25        -999.25        -999.25        -999.25         1.1487         0.9624         0.8838          0.868         0.8601         0.8524        -999.25        -999.25        -999.25        41.4878        -999.25        -999.25
