#------------------------------------------------------------------------------
# Created by    : vladimir.rabinovich
# Created on    : 09/19/2023 17:22:02
#------------------------------------------------------------------------------
~Version Information Section
VERS.           2.0     :   CWLS log ASCII Standard - VERSION 2.0
WRAP.           NO      :   One line per depth step
~Well Information Section
#MNEM       .UNIT                                         VALUE :DESCRIPTION
#------------------------------------------------------------------------------
STRT        .FT                                          2944.5 :START DEPTH
STOP        .FT                                           12030 :STOP DEPTH
STEP        .FT                                             0.5 :STEP      
NULL        .                                           -999.25 :NULL      
COMP        .                                  SAMEDAN OIL CORP :COMPANY   
WELL        .                                         ROBERTSON :WELL      
FLD         .                                     HAMSHIRE WEST :FIELD     
LOC         .                                                   :LOCATION  
CNTY        .                                         JEFFERSON :LOCATION  
STAT        .                                             TEXAS :STATE     
CTRY        .                                     UNITED STATES :COUNTRY   
SRVC        .                                                   :SERVICE COMPANY
DATE        .                             9/13/2023 11:18:46 AM :LOG DATE  
API         .                                    42245321120000 :API NUMBER
UWI         .                                    42245321120000 :UNIQUE WELL ID
XCOORD      .                                  1214919.43989532 :SURFACE X 
YCOORD      .                                  10839736.7579652 :SURFACE Y 
LAT         .                                        29.8609813 :LATITUDE  
LON         .                                       -94.3427285 :LONGITUDE 
ELEV        .FT                                              38 :ELEVATION VALUE
ELEV_TYPE   .                                                KB :ELEVATION REFERENCE TYPE
~Curve Information Section
#MNEM       .UNIT                                      API CODE :CURVE DESCRIPTION
#------------------------------------------------------------------------------
DEPT        .FT                                                 :DEPTH     
CALI        .IN                                                 :          
DPSS        .%                                                  :          
DRHO        .G/CM3                                              :          
GR          .GAPI                                               :          
GR_NORM     .GAPI                                               :GammaRay Normalized
ILD         .OHMM                                               :          
ILM         .OHMM                                               :          
NPSS        .%                                                  :Neutron Porosity Sandstone
SGRD        .OHMM                                               :          
SP          .MV                                                 :          
SP_NORM     .MV                                                 :SP Normalized
TENS        .LB                                                 :          
VSH_GR      .V/V                                                :Volume of Shale from GR
VSH_SP      .V/V                                                :Volume of Shale from SP
~A        DEPTH           CALI           DPSS           DRHO             GR        GR_NORM            ILD            ILM           NPSS           SGRD             SP        SP_NORM           TENS         VSH_GR         VSH_SP
# ...
      6598.5000        -999.25        -999.25        -999.25          82.05       96.01752         1.2351         1.3601        -999.25         1.6954       -70.2475      -6.225586       2434.344              1      0.9444087
      6599.0000        -999.25        -999.25        -999.25          81.45       95.14778         1.2465          1.411        -999.25         1.6954       -69.0594      -5.034431       2454.545              1      0.9570805
      6599.5000        -999.25        -999.25        -999.25          77.25       89.05968         1.2638         1.4437        -999.25         1.6193       -67.4752      -3.447159       2474.748              1      0.9739664
      6600.0000        -999.25        -999.25        -999.25           66.6       73.62199          1.258         1.4637        -999.25         1.5396       -68.2673      -4.236206       2494.949      0.8642976      0.9655723
      6600.5000        -999.25        -999.25        -999.25        56.8841       59.53831         1.2238         1.4772        -999.25          1.484       -69.0594      -5.025246        2495.53      0.5646449      0.9571782
      6601.0000        -999.25        -999.25        -999.25        58.2276       61.48579         1.1424         1.4437        -999.25         1.4437       -71.6337      -7.596474        2496.54      0.6060807      0.9298248
      6601.5000        -999.25        -999.25        -999.25        59.4238       63.21972         1.0279         1.4045        -999.25          1.424          -76.2      -12.15971        2497.55      0.6429728      0.8812796
      6602.0000        -999.25        -999.25        -999.25         58.092       61.28923         0.9209         1.3354        -999.25         1.5115            -91      -26.95666       2478.357      0.6018984      0.7238653
      6602.5000        -999.25        -999.25        -999.25        59.1404       62.80893          0.822         1.2465        -999.25         1.6342       -97.1782      -33.13179       2459.165      0.6342325      0.6581724
      6603.0000        -999.25        -999.25        -999.25        58.5517       61.95558         0.7535         1.1424        -999.25         1.7507      -107.2772      -43.22773       2460.175      0.6160761      0.5507689
      6603.5000        -999.25        -999.25        -999.25        53.9397       55.27026         0.7065         1.0279        -999.25         1.8162         -115.6      -51.54747       2481.388      0.4738354       0.462261
      6604.0000        -999.25        -999.25        -999.25         47.087       45.33693         0.6812         0.9596        -999.25         1.8079           -119      -54.94441       2502.601      0.2624879      0.4261233
      6604.5000        -999.25        -999.25        -999.25        46.3423       44.25745         0.6659         0.9125        -999.25         1.7588      -114.4059      -50.34724       2523.814      0.2395203      0.4750293
      6605.0000        -999.25        -999.25        -999.25        53.2069       54.20803          0.669         0.9125        -999.25          1.711      -106.0891      -42.02739       2545.028      0.4512348      0.5635384
      6605.5000        -999.25        -999.25        -999.25        59.7798       63.73576         0.6843         0.9125        -999.25         1.6569      -102.1287      -38.06393       2566.241      0.6539524      0.6057029
      6606.0000        -999.25        -999.25        -999.25        63.6653       69.36799         0.7032         0.9422        -999.25         1.6193       -98.5644      -34.49656       2587.454       0.773787      0.6436536
      6606.5000        -999.25        -999.25        -999.25        61.2858       65.91879          0.733         0.9818        -999.25         1.6193       -97.1782       -33.1073       2588.464      0.7003998       0.658433
      6607.0000        -999.25        -999.25        -999.25        56.3631       58.78309         0.7605         1.0279        -999.25         1.6193       -97.7723      -33.69834       2609.677      0.5485764      0.6521453
      6607.5000        -999.25        -999.25        -999.25          55.92       58.14079         0.7782         1.0518        -999.25         1.6342      -101.1386      -37.06158        2630.89      0.5349105      0.6163662
      6608.0000        -999.25        -999.25        -999.25        58.1704       61.40286         0.7854         1.0664        -999.25         1.6493      -102.3267      -38.24661       2611.698      0.6043161      0.6037595
      6608.5000        -999.25        -999.25        -999.25        59.0754       62.71471          0.789         1.0713        -999.25         1.6569      -102.7228      -38.63966       2572.302      0.6322278      0.5995781
      6609.0000        -999.25        -999.25        -999.25        60.1301       64.24354         0.7854         1.0664        -999.25         1.6417      -102.3267      -38.24049       2532.906      0.6647561      0.6038246
      6609.5000        -999.25        -999.25        -999.25        63.7046       69.42498         0.7854         1.0566        -999.25         1.5898       -98.3663      -34.27703        2493.51      0.7749996      0.6459891
      6610.0000        -999.25        -999.25        -999.25        64.3044        70.2944         0.7782          1.047        -999.25         1.5255          -94.8      -30.70767       2454.114      0.7934979      0.6839609
      6610.5000        -999.25        -999.25        -999.25        61.0396        65.5619         0.7854         1.0327        -999.25         1.4977          -93.8      -29.70461       2474.748      0.6928065      0.6946318
      6611.0000        -999.25        -999.25        -999.25        60.1485       64.27021         0.7854         1.0279        -999.25         1.5185       -96.3861      -32.28764       2474.748      0.6653236      0.6671527
      6611.5000        -999.25        -999.25        -999.25        60.7426        65.1314         0.7927         1.0279        -999.25         1.5971      -100.1485      -36.04698       2474.748      0.6836469      0.6271598
      6612.0000        -999.25        -999.25        -999.25         64.604       70.72868         0.8073         1.0279        -999.25         1.6876      -102.7228      -38.61823       2474.748      0.8027378      0.5998061
      6612.5000        -999.25        -999.25        -999.25        71.1386       80.20091         0.8258         1.0327        -999.25         1.6954      -103.7129      -39.60526       2474.748              1      0.5893057
      6613.0000        -999.25        -999.25        -999.25        73.2178        83.2148         0.8601          1.047        -999.25         1.5971        -95.198       -31.0873       2474.748              1      0.6799224
      6613.5000        -999.25        -999.25        -999.25         69.802       78.26344            0.9         1.0615        -999.25          1.484          -87.8      -23.68624       2474.748       0.963052       0.758657
      6614.0000        -999.25        -999.25        -999.25        69.2079       77.40228          0.964         1.0861        -999.25         1.4504          -83.4      -19.28318       2474.748      0.9447293      0.8054981
      6614.5000        -999.25        -999.25        -999.25        68.0198       75.68005         1.0279         1.1476        -999.25         1.4705          -79.8      -15.68011       2474.748      0.9080862      0.8438286
      6615.0000        -999.25        -999.25        -999.25        64.0099       69.86752         1.0911         1.2016        -999.25         1.5046          -75.8      -11.67706       2454.545      0.7844152      0.8864143
      6615.5000        -999.25        -999.25        -999.25          59.85       63.83752         1.1529         1.2754        -999.25         1.5185       -72.0297      -7.903694        2595.96      0.6561176      0.9265565
      6616.0000        -999.25        -999.25        -999.25          57.75       60.79348         1.1906         1.3477        -999.25         1.5046       -69.8515      -5.722427       2535.354      0.5913506      0.9497614
