#------------------------------------------------------------------------------
# Created by    : vladimir.rabinovich
# Created on    : 09/19/2023 17:22:24
#------------------------------------------------------------------------------
~Version Information Section
VERS.           2.0     :   CWLS log ASCII Standard - VERSION 2.0
WRAP.           NO      :   One line per depth step
~Well Information Section
#MNEM       .UNIT                                         VALUE :DESCRIPTION
#------------------------------------------------------------------------------
STRT        .FT                                            1850 :START DEPTH
STOP        .FT                                            8215 :STOP DEPTH
STEP        .FT                                             0.5 :STEP      
NULL        .                                           -999.25 :NULL      
COMP        .                                  NOBLE ENERGY INC :COMPANY   
WELL        .                                           MEADOWS :WELL      
FLD         .                                          BINDWEED :FIELD     
LOC         .                                                   :LOCATION  
CNTY        .                                         JEFFERSON :LOCATION  
STAT        .                                             TEXAS :STATE     
CTRY        .                                     UNITED STATES :COUNTRY   
SRVC        .                                                   :SERVICE COMPANY
DATE        .                             9/13/2023 11:18:46 AM :LOG DATE  
API         .                                    42245325230000 :API NUMBER
UWI         .                                    42245325230000 :UNIQUE WELL ID
XCOORD      .                                  1273245.27472043 :SURFACE X 
YCOORD      .                                  10899721.9019567 :SURFACE Y 
LAT         .                                           30.0277 :LATITUDE  
LON         .                                       -94.1606194 :LONGITUDE 
ELEV        .FT                                              29 :ELEVATION VALUE
ELEV_TYPE   .                                                KB :ELEVATION REFERENCE TYPE
~Curve Information Section
#MNEM       .UNIT                                      API CODE :CURVE DESCRIPTION
#------------------------------------------------------------------------------
DEPT        .FT                                                 :DEPTH     
CALX        .IN                                                 :          
DPSS        .%                                                  :          
DRHO        .G/CM3                                              :          
DT24        .US/FT                                              :          
GR          .GAPI                                               :          
GR_NORM     .GAPI                                               :GammaRay Normalized
M2R1        .OHMM                                               :          
M2R2        .OHMM                                               :          
M2R3        .OHMM                                               :          
M2R6        .OHMM                                               :          
M2R9        .OHMM                                               :          
M2RX        .OHMM                                               :          
NPSS        .%                                                  :Neutron Porosity Sandstone
SP          .MV                                                 :          
SP_NORM     .MV                                                 :SP Normalized
TENS        .LB                                                 :          
VSH_GR      .V/V                                                :Volume of Shale from GR
VSH_SP      .V/V                                                :Volume of Shale from SP
~A        DEPTH           CALX           DPSS           DRHO           DT24             GR        GR_NORM           M2R1           M2R2           M2R3           M2R6           M2R9           M2RX           NPSS             SP        SP_NORM           TENS         VSH_GR         VSH_SP
# ...
      5308.0000         10.595        -999.25         0.0562       123.7255        56.3265       45.66548            0.3         0.2686         0.2518         0.2495         0.2449         0.2427        -999.25          -58.4      -61.81586       -13.8776      0.2694783     0.07854751
      5308.5000         10.755        -999.25         0.0562       124.3137        56.6327       46.19988            0.3         0.2613         0.2472         0.2405         0.2361         0.2339        -999.25          -56.8      -60.22281       -35.3061      0.2808485      0.1026848
      5309.0000         10.835        -999.25         0.0501       121.9608        56.3265       45.66548         0.2972         0.2518         0.2383         0.2318         0.2275         0.2255        -999.25            -56      -59.42975       -36.3265      0.2694783      0.1147008
      5309.5000         10.755        -999.25         0.0481        122.549        54.7959       42.99425         0.2813         0.2405         0.2275         0.2234         0.2193         0.2173        -999.25          -56.4      -59.83669       -37.3469      0.2126436       0.108535
      5310.0000         10.555        -999.25          0.046       123.1373        53.2653       40.32302         0.2787         0.2296         0.2173         0.2114         0.2075         0.2056        -999.25          -58.4      -61.84364       -38.3673       0.155809     0.07812674
      5310.5000         10.355        -999.25           0.05       123.9216        52.3469       38.72022         0.2736         0.2255         0.2075         0.2056         0.2019            0.2        -999.25          -60.4      -63.85058       -38.7755      0.1217069     0.04771851
      5311.0000         10.195        -999.25          0.054       124.3137        51.7347       37.65179         0.2787         0.2255         0.2075         0.2056         0.2019            0.2        -999.25          -62.8      -66.25751       -38.7755     0.09897435     0.01124977
      5311.5000         10.075        -999.25           0.06       124.5098        52.6531        39.2546         0.2865         0.2275         0.2075         0.2075         0.2037         0.2019        -999.25            -64      -67.46446       -38.7755      0.1330767              0
      5312.0000          9.995        -999.25           0.06       124.5098        54.4898       42.46005         0.2972         0.2383         0.2234         0.2133         0.2094         0.2075        -999.25          -63.2       -66.6714       -59.1837      0.2012777    0.004978758
      5312.5000          9.875        -999.25           0.06       124.7059         57.551       47.80249         0.3113         0.2541         0.2427         0.2296         0.2255         0.2234        -999.25            -62      -65.47835       -59.1837      0.3149467     0.02305534
      5313.0000          9.795        -999.25           0.06       123.5294           60.9       53.64724         0.3231         0.2686         0.2589         0.2495         0.2449         0.2427        -999.25          -58.8      -62.28529       -59.1837      0.4393029     0.07143506
      5313.5000          9.715        -999.25          0.058       121.7647             63       57.31219         0.3353         0.2865         0.2711         0.2661         0.2613         0.2589        -999.25          -51.6      -55.09223       -59.1837      0.5172808      0.1804208
      5314.0000          9.715        -999.25          0.054       120.7843           64.2       59.40644         0.3353         0.3028         0.2839         0.2839         0.2787         0.2761        -999.25          -44.4      -47.89917       -59.1837      0.5618392      0.2894064
      5314.5000          9.715        -999.25          0.052       119.3878           63.6       58.35931         0.3322         0.3085         0.2972         0.2972         0.2918         0.2891        -999.25          -38.4      -41.90612       -59.1837      0.5395599      0.3802104
      5315.0000          9.715        -999.25          0.048       119.5918           63.6       58.35931         0.3416         0.3261         0.3056         0.3056         0.3056         0.3028        -999.25          -37.2      -40.71306       -59.1837      0.5395599       0.398287
      5315.5000          9.715        -999.25          0.048       122.3529           64.5       59.93001         0.4037         0.3714         0.3679         0.3679         0.3612         0.3578        -999.25          -35.6         -39.12       -59.1837       0.572979      0.4224243
      5316.0000          9.715        -999.25          0.052        125.098           68.1       66.21278         0.5097         0.4431         0.4349         0.4349         0.4269         0.4229        -999.25          -28.4      -31.92694       -59.1837       0.706655        0.53141
      5316.5000          9.715        -999.25          0.062       127.8431           73.5       75.63696         0.6629         0.5774         0.5451         0.5451         0.5347         0.5296        -999.25       -15.9184      -19.45228       -59.1837      0.9071694      0.7204199
      5317.0000          9.715        -999.25          0.062       129.8039           74.4       77.20767         0.7555         0.6874         0.6451         0.6451         0.6335         0.6278        -999.25        -4.4898      -8.030626       -59.1837      0.9405888      0.8934754
      5317.5000          9.715        -999.25          0.062        127.451           74.4       77.20767         0.7849         0.7483         0.7272         0.7272         0.7135         0.7067        -999.25              2      -1.547769       -59.1837      0.9405888      0.9917005
      5318.0000          9.715        -999.25          0.064       122.9412           73.2       75.11338            0.8         0.7701         0.7701         0.7627         0.7483         0.7412        -999.25              4      0.4452887       -59.1837      0.8960294              1
      5318.5000          9.755        -999.25          0.066       122.9412           72.6       74.06627          0.822         0.7849         0.7774         0.7849         0.7701         0.7627        -999.25            5.2       1.638346       -59.1837      0.8737504              1
      5319.0000          9.795        -999.25          0.082       122.3529           71.7       72.49557         0.8371         0.7924         0.8073            0.8         0.7849         0.7774        -999.25            5.2       1.631404       -59.1837      0.8403312              1
      5319.5000          9.795        -999.25            0.1       114.2857           67.5       65.16564         0.8759         0.8447          0.868         0.8371          0.822         0.8146        -999.25            2.8     -0.7755382       -79.5918      0.6843753              1
      5320.0000          9.795        -999.25          0.112       102.6531             63       57.31219         0.9624         0.9174         0.9262         0.8919         0.8759          0.868        -999.25        -1.6327       -5.21518       -79.5918      0.5172808      0.9361336
      5320.5000          9.835        -999.25          0.122           96.2             60       52.07653         1.0473              1              1          0.981         0.9624         0.9532        -999.25        -6.9388      -10.52822       -79.5918      0.4058836       0.855633
      5321.0000          9.835        -999.25          0.122           95.6           60.3       52.60011         0.9717         0.9352         0.9532         0.9174            0.9         0.8919        -999.25       -12.2449      -15.84126           -100      0.4170235      0.7751324
      5321.5000          9.835        -999.25           0.11       100.2041           64.5       59.93001         0.8601         0.8295         0.8524          0.822         0.8073            0.8        -999.25       -15.5102      -19.11351           -100       0.572979      0.7255529
