#------------------------------------------------------------------------------
# Created by    : vladimir.rabinovich
# Created on    : 09/19/2023 17:20:51
#------------------------------------------------------------------------------
~Version Information Section
VERS.           2.0     :   CWLS log ASCII Standard - VERSION 2.0
WRAP.           NO      :   One line per depth step
~Well Information Section
#MNEM       .UNIT                                         VALUE :DESCRIPTION
#------------------------------------------------------------------------------
STRT        .FT                                             126 :START DEPTH
STOP        .FT                                           15000 :STOP DEPTH
STEP        .FT                                             0.5 :STEP      
NULL        .                                           -999.25 :NULL      
COMP        .                                    MOBIL OIL CORP :COMPANY   
WELL        .                                MCFADDIN TRUST BLK :WELL      
FLD         .                                           WILDCAT :FIELD     
LOC         .                                                   :LOCATION  
CNTY        .                                         JEFFERSON :LOCATION  
STAT        .                                             TEXAS :STATE     
CTRY        .                                     UNITED STATES :COUNTRY   
SRVC        .                                                   :SERVICE COMPANY
DATE        .                             9/13/2023 11:19:11 AM :LOG DATE  
API         .                                    42245029210000 :API NUMBER
UWI         .                                    42245029210000 :UNIQUE WELL ID
XCOORD      .                                  1288949.71304085 :SURFACE X 
YCOORD      .                                  10768198.0929689 :SURFACE Y 
LAT         .                                        29.6663916 :LATITUDE  
LON         .                                       -94.1069885 :LONGITUDE 
ELEV        .FT                                              20 :ELEVATION VALUE
ELEV_TYPE   .                                                DF :ELEVATION REFERENCE TYPE
~Curve Information Section
#MNEM       .UNIT                                      API CODE :CURVE DESCRIPTION
#------------------------------------------------------------------------------
DEPT        .FT                                                 :DEPTH     
ASN         .OHMM                                               :          
LAT         .OHMM                                               :          
LN          .OHMM                                               :          
SN          .OHMM                                               :          
SP          .MV                                                 :          
SP_NORM     .MV                                                 :SP Normalized
VSH_SP      .V/V                                                :Volume of Shale from SP
~A        DEPTH            ASN            LAT             LN             SN             SP        SP_NORM         VSH_SP
# ...
      2102.5000         0.6597         0.8241         0.4916         0.7429       -47.0198      0.1508217              1
      2103.0000         0.6594         0.8242          0.489         0.7381       -47.1081     0.08320999              1
      2103.5000         0.6591         0.8176         0.4864         0.7293       -47.2558    -0.04379654              1
      2104.0000         0.6588          0.811         0.4838         0.7202       -47.4034     -0.1707077              1
      2104.5000         0.6585         0.8044         0.4812         0.7111       -47.5511      -0.297718              1
      2105.0000         0.6577         0.7978         0.4786         0.7021       -47.6987     -0.4246254              1
      2105.5000         0.6563         0.7912         0.4761         0.7081       -47.8165     -0.5217323              1
      2106.0000         0.6549         0.7846         0.4735         0.7146       -47.9244     -0.6089401              1
      2106.5000         0.6535          0.786         0.4722         0.7211         -47.73     -0.3938484              1
      2107.0000          0.652         0.7889         0.4733         0.7271       -47.4588     -0.1019592              1
      2107.5000         0.6521         0.7918         0.4743         0.7315       -47.1877      0.1898346              1
      2108.0000         0.6584         0.7947         0.4754         0.7358       -46.9168      0.4814224              1
      2108.5000         0.6646         0.7976         0.4765         0.7402       -46.6491      0.7698135              1
      2109.0000         0.6709         0.8005         0.4776         0.7458       -46.3813       1.058304              1
      2109.5000         0.6773         0.8034         0.4787         0.7551       -46.5929      0.8673973              1
      2110.0000         0.6838         0.8063         0.4798         0.7643       -46.9814      0.4995918              1
      2110.5000         0.6902         0.8075         0.4759         0.7736       -47.4143     0.08738327              1
      2111.0000         0.6966          0.807         0.4708         0.7826       -47.8471     -0.3247261              1
      2111.5000         0.7043         0.8065         0.4657         0.7887       -48.2802     -0.7371368              1
      2112.0000         0.7128          0.806         0.4606         0.7948       -48.9607      -1.396946      0.9898219
      2112.5000         0.7212         0.7971         0.4533         0.8009       -49.7667      -2.182255      0.9696858
      2113.0000         0.7297         0.7556          0.445          0.807       -50.5728      -2.967663      0.9495471
      2113.5000         0.7382         0.7142         0.4367         0.8127       -52.5941      -4.968273      0.8982494
      2114.0000         0.7476         0.6727         0.4284          0.818       -55.1396       -7.49308      0.8335108
      2114.5000          0.757         0.6655         0.4201         0.8232       -64.1733      -16.50609      0.6024079
      2115.0000         0.7663         0.6594         0.4141         0.8285        -64.947      -17.25909      0.5831001
      2115.5000         0.7607         0.6532         0.4093         0.8266       -65.5928       -17.8842      0.5670718
      2116.0000           0.75         0.6471         0.4045         0.8198       -66.1526      -18.42332      0.5532483
      2116.5000         0.7393         0.6409         0.3996         0.7952       -66.7369      -18.98692      0.5387968
      2117.0000         0.7286         0.6358         0.3948         0.7707       -67.7251      -19.95443       0.513989
      2117.5000         0.7167         0.6317           0.39         0.7438       -69.6566      -21.86524      0.4649938
      2118.0000         0.7009         0.6276         0.3852         0.7162         -73.85      -26.03795      0.3580013
      2118.5000         0.6851         0.6235         0.3804         0.6887       -77.8993      -30.06656      0.2547036
      2119.0000         0.6579         0.6195         0.3756         0.6631       -80.0657      -32.21227      0.1996855
      2119.5000         0.6235         0.6154           0.37         0.6379       -81.9064      -34.03228      0.1530186
      2120.0000         0.6182          0.611         0.3628         0.6287       -83.5475      -35.65268      0.1114697
      2120.5000         0.6158         0.5974         0.3557         0.6222       -84.8668      -36.95129     0.07817205
      2121.0000         0.6135         0.5838         0.3485         0.6161       -85.9547       -38.0185     0.05080776
      2121.5000         0.6083         0.5701         0.3413         0.6149        -86.901      -38.94411     0.02707408
      2122.0000         0.6023         0.5565         0.3342         0.6137       -86.9978      -39.02022     0.02512252
      2122.5000         0.5962         0.5551          0.327         0.6125       -86.6669      -38.66863     0.03413773
      2123.0000           0.59          0.559         0.3227         0.6073       -86.1725      -38.15354     0.04734519
      2123.5000         0.5832         0.5629         0.3214         0.6005       -85.6123      -37.57264     0.06223992
      2124.0000         0.5764         0.5668           0.32         0.5936       -85.0521      -36.99176     0.07713445
      2124.5000         0.5695         0.5707         0.3187         0.5868       -84.4918      -36.41076     0.09203182
      2125.0000         0.5604         0.5745         0.3173         0.5799       -83.9045      -35.80277      0.1076212
      2125.5000         0.5468         0.5804          0.316          0.583       -83.3174      -35.19498      0.1232057
      2126.0000         0.5358         0.5872         0.3146         0.5864       -82.8357      -34.69259      0.1360875
      2126.5000         0.5287          0.594         0.3139         0.5944       -83.5636       -35.3998       0.117954
      2127.0000         0.5379         0.6008         0.3145         0.6024       -84.2916      -36.10711     0.09981772
      2127.5000         0.5472         0.6076         0.3152         0.6101       -85.0198      -36.81461     0.08167658
      2128.0000         0.5564         0.6144         0.3158         0.6178       -86.4398      -38.21392     0.04579691
      2128.5000         0.5628         0.6211         0.3165         0.6255       -87.8958      -39.64923    0.008994078
      2129.0000         0.5688         0.6279         0.3171         0.6332       -88.6655      -40.39824              0
      2129.5000         0.5748         0.6347         0.3177         0.6406       -89.4038      -41.11585              0
      2130.0000         0.5808         0.6415         0.3181         0.6473       -89.4352      -41.12656              0
      2130.5000         0.5868         0.6483         0.3167          0.654       -89.4667      -41.13736              0
      2131.0000         0.5926           0.65         0.3153         0.6607       -89.4069      -41.05687              0
      2131.5000         0.5985          0.649         0.3139          0.667       -89.3356      -40.96489              0
      2132.0000         0.6013         0.6479         0.3125         0.6691       -89.2642      -40.87279              0
      2132.5000         0.6035         0.6468         0.3095         0.6713       -89.1927      -40.78061              0
      2133.0000         0.6061         0.6458         0.3049         0.6734        -89.176      -40.74321              0
      2133.5000          0.609         0.6447         0.3002         0.6755       -89.1742      -40.72072              0
      2134.0000         0.6118         0.6436         0.2955         0.6765       -89.1725      -40.69833              0
      2134.5000         0.6122         0.6422         0.2938         0.6753       -89.1536      -40.65874              0
      2135.0000         0.6126         0.6332         0.2929         0.6741       -88.9231      -40.40755              0
      2135.5000         0.6193         0.6242          0.292         0.6729       -88.3923      -39.85606    0.003690866
