#------------------------------------------------------------------------------
# Created by    : vladimir.rabinovich
# Created on    : 09/19/2023 17:22:56
#------------------------------------------------------------------------------
~Version Information Section
VERS.           2.0     :   CWLS log ASCII Standard - VERSION 2.0
WRAP.           NO      :   One line per depth step
~Well Information Section
#MNEM       .UNIT                                         VALUE :DESCRIPTION
#------------------------------------------------------------------------------
STRT        .FT                                             120 :START DEPTH
STOP        .FT                                           15526 :STOP DEPTH
STEP        .FT                                             0.5 :STEP      
NULL        .                                           -999.25 :NULL      
COMP        .                                    MOBIL OIL CORP :COMPANY   
WELL        .                                MCFADDIN TRUST BLK :WELL      
FLD         .                                           WILDCAT :FIELD     
LOC         .                                                   :LOCATION  
CNTY        .                                         JEFFERSON :LOCATION  
STAT        .                                             TEXAS :STATE     
CTRY        .                                     UNITED STATES :COUNTRY   
SRVC        .                                                   :SERVICE COMPANY
DATE        .                             9/13/2023 11:19:11 AM :LOG DATE  
API         .                                    42245021130000 :API NUMBER
UWI         .                                    42245021130000 :UNIQUE WELL ID
XCOORD      .                                  1317150.22331494 :SURFACE X 
YCOORD      .                                   10814678.490982 :SURFACE Y 
LAT         .                                        29.7949472 :LATITUDE  
LON         .                                       -94.0194715 :LONGITUDE 
ELEV        .FT                                              18 :ELEVATION VALUE
ELEV_TYPE   .                                                DF :ELEVATION REFERENCE TYPE
~Curve Information Section
#MNEM       .UNIT                                      API CODE :CURVE DESCRIPTION
#------------------------------------------------------------------------------
DEPT        .FT                                                 :DEPTH     
SN          .OHMM                                               :          
SP          .MV                                                 :          
SP_NORM     .MV                                                 :SP Normalized
VSH_SP      .V/V                                                :Volume of Shale from SP
~A        DEPTH             SN             SP        SP_NORM         VSH_SP
# ...
      2187.0000         1.0787       -56.3121      -6.005352      0.9151635
      2187.5000         1.0804        -55.812      -5.505253      0.9236398
      2188.0000         1.0752       -55.3117      -5.004951      0.9321195
      2188.5000         1.0687       -54.8115      -4.504753      0.9405974
      2189.0000         1.0621       -54.3113      -4.004551      0.9490754
      2189.5000         1.0556       -53.7931      -3.486351      0.9578584
      2190.0000         1.0491       -53.2122      -2.905453      0.9677042
      2190.5000         1.0426       -52.6309      -2.324154      0.9775567
      2191.0000         1.0339       -52.0499      -1.743153      0.9874042
      2191.5000          1.024        -51.469      -1.162254      0.9972499
      2192.0000         1.0141       -51.2489     -0.9421539              1
      2192.5000         1.0042       -51.8369      -1.530151      0.9910144
      2193.0000         0.9943       -52.4246      -2.117851      0.9810534
      2193.5000         0.9895       -53.8873      -3.580551      0.9562619
      2194.0000         0.9854       -56.9801      -6.673351      0.9038415
      2194.5000         0.9814       -60.0741      -9.767353      0.8514008
      2195.0000         0.9773       -63.2141      -12.90735      0.7981805
      2195.5000         0.9733       -66.3677      -16.06095      0.7447296
      2196.0000         0.9692       -85.9562      -35.64945      0.4127212
      2196.5000         0.9652       -86.9958      -36.68905      0.3951009
      2197.0000         0.9611       -88.0359      -37.72915       0.377472
      2197.5000         0.9571       -88.4386      -38.13185      0.3706466
      2198.0000         0.9576       -86.8562      -36.54945      0.3974669
      2198.5000         0.9604       -85.2744      -34.96765      0.4242771
      2199.0000         0.9631        -83.692      -33.38525      0.4510974
      2199.5000         0.9659       -80.5704      -30.26365       0.504006
      2200.0000         0.9687       -75.4393      -25.13255      0.5909737
      2200.5000         0.9715       -68.9749      -18.66815      0.7005398
      2201.0000         0.9742       -53.7366      -3.429852      0.9588161
      2201.5000         0.9776       -48.7618       1.544949              1
      2202.0000          0.988       -46.1057       4.201046              1
      2202.5000         0.9983       -44.1349       6.171848              1
      2203.0000         1.0087       -43.1556       7.151146              1
      2203.5000         1.0191       -43.6688       6.637947              1
      2204.0000         1.0295       -44.2953       6.011448              1
      2204.5000         1.0409       -45.2021       5.104649              1
      2205.0000         1.0533       -46.1088       4.197948              1
      2205.5000         1.0658        -46.018       4.288746              1
      2206.0000         1.0782       -44.5806       5.726147              1
      2206.5000         1.0906       -43.1432       7.163548              1
      2207.0000         1.0997       -41.5946       8.712147              1
      2207.5000         1.1059        -38.685       11.62175              1
      2208.0000         1.1122       -38.9914       11.31535              1
      2208.5000         1.1185       -40.9026       9.404148              1
      2209.0000         1.1239       -42.7576       7.549149              1
      2209.5000         1.1285       -44.4086       5.898148              1
      2210.0000         1.1436       -46.0596       4.247147              1
      2210.5000          1.152       -47.3193       2.987446              1
      2211.0000         1.1605        -47.947       2.359749              1
      2211.5000         1.1698       -48.5748       1.731949              1
      2212.0000         1.1795       -48.8661       1.440647              1
      2212.5000           1.19       -48.8325       1.474247              1
      2213.0000         1.2033       -48.7988       1.507946              1
      2213.5000         1.2135       -48.7651       1.541649              1
      2214.0000         1.2204       -48.6279       1.678848              1
      2214.5000         1.2274       -48.3636       1.943146              1
      2215.0000         1.2343       -48.0991       2.207649              1
      2215.5000         1.2366       -47.8348       2.471947              1
      2216.0000          1.239       -47.5704       2.736347              1
      2216.5000           1.24        -47.306       3.000748              1
      2217.0000         1.2407       -47.0416       3.265148              1
      2217.5000         1.2414       -46.7772       3.529549              1
      2218.0000         1.2359       -46.5129       3.793846              1
      2218.5000         1.2302       -46.1448       4.161949              1
      2219.0000         1.2236       -45.6842       4.622547              1
      2219.5000         1.2149       -45.2236       5.083149              1
      2220.0000         1.2012       -45.2229       5.083847              1
      2220.5000         1.2173       -45.7966       4.510147              1
      2221.0000         1.2073       -46.4031       3.903648              1
      2221.5000          1.195       -47.0099       3.296848              1
      2222.0000         1.1826       -47.5895       2.717247              1
      2222.5000           1.17       -48.1421       2.164646              1
      2223.0000         1.1572       -48.6946       1.612148              1
      2223.5000         1.1444       -49.3504      0.9563484              1
      2224.0000         1.1316       -50.1804      0.1263466              1
      2224.5000         1.1188       -51.0112     -0.7044525              1
      2225.0000         1.1049         -51.86      -1.553253      0.9906228
      2225.5000          1.091       -52.6878      -2.381054      0.9765923
      2226.0000         1.0802       -53.3194      -3.012653      0.9658872
      2226.5000         1.0698       -53.9598      -3.653053       0.955033
      2227.0000         1.0602       -54.1703      -3.863552      0.9514652
      2227.5000         1.0519       -54.3572      -4.050453      0.9482974
      2228.0000         1.0435        -54.286      -3.979252      0.9495042
      2228.5000         1.0375       -53.9487      -3.641953      0.9552211
      2229.0000         1.0325       -53.2712      -2.964451      0.9667042
      2229.5000         1.0275       -52.5934      -2.286652      0.9781923
      2230.0000         1.0238       -51.8636      -1.556854      0.9905618
      2230.5000          1.021       -51.1213     -0.8145523              1
      2231.0000         1.0183       -50.4927     -0.1859512              1
      2231.5000         1.0155       -50.8922      -0.585453              1
      2232.0000         1.0128       -51.2917      -0.984951              1
      2232.5000         1.0107       -51.7042      -1.397453      0.9932635
      2233.0000         1.0086       -52.1235      -1.816753      0.9861567
      2233.5000         1.0065       -52.4876      -2.181908      0.9799677
      2234.0000         1.0044        -52.322      -2.040585       0.982363
      2234.5000         1.0026       -52.1564      -1.899261      0.9847583
      2235.0000         1.0007       -51.9908      -1.757938      0.9871536
      2235.5000         0.9989       -51.8252      -1.616615      0.9895489
      2236.0000         0.9971       -51.3446      -1.160294      0.9972832
      2236.5000         0.9952       -50.8495     -0.6894684              1
      2237.0000         0.9933       -50.3546     -0.2188454              1
      2237.5000         0.9913       -49.7906      0.3208771              1
      2238.0000         0.9893       -49.2247      0.8624992              1
      2238.5000         0.9874       -48.6588       1.404125              1
      2239.0000         0.9868       -48.0571       1.981544              1
      2239.5000         0.9865       -47.8024       2.211967              1
