#------------------------------------------------------------------------------
# Created by    : vladimir.rabinovich
# Created on    : 09/19/2023 17:20:51
#------------------------------------------------------------------------------
~Version Information Section
VERS.           2.0     :   CWLS log ASCII Standard - VERSION 2.0
WRAP.           NO      :   One line per depth step
~Well Information Section
#MNEM       .UNIT                                         VALUE :DESCRIPTION
#------------------------------------------------------------------------------
STRT        .FT                                             126 :START DEPTH
STOP        .FT                                           15000 :STOP DEPTH
STEP        .FT                                             0.5 :STEP      
NULL        .                                           -999.25 :NULL      
COMP        .                                    MOBIL OIL CORP :COMPANY   
WELL        .                                MCFADDIN TRUST BLK :WELL      
FLD         .                                           WILDCAT :FIELD     
LOC         .                                                   :LOCATION  
CNTY        .                                         JEFFERSON :LOCATION  
STAT        .                                             TEXAS :STATE     
CTRY        .                                     UNITED STATES :COUNTRY   
SRVC        .                                                   :SERVICE COMPANY
DATE        .                             9/13/2023 11:19:11 AM :LOG DATE  
API         .                                    42245029210000 :API NUMBER
UWI         .                                    42245029210000 :UNIQUE WELL ID
XCOORD      .                                  1288949.71304085 :SURFACE X 
YCOORD      .                                  10768198.0929689 :SURFACE Y 
LAT         .                                        29.6663916 :LATITUDE  
LON         .                                       -94.1069885 :LONGITUDE 
ELEV        .FT                                              20 :ELEVATION VALUE
ELEV_TYPE   .                                                DF :ELEVATION REFERENCE TYPE
~Curve Information Section
#MNEM       .UNIT                                      API CODE :CURVE DESCRIPTION
#------------------------------------------------------------------------------
DEPT        .FT                                                 :DEPTH     
ASN         .OHMM                                               :          
LAT         .OHMM                                               :          
LN          .OHMM                                               :          
SN          .OHMM                                               :          
SP          .MV                                                 :          
SP_NORM     .MV                                                 :SP Normalized
VSH_SP      .V/V                                                :Volume of Shale from SP
~A        DEPTH            ASN            LAT             LN             SN             SP        SP_NORM         VSH_SP
# ...
      1131.0000        -999.25          1.781         2.3302         2.6727       -78.9762      -12.30953      0.2069591
      1131.5000        -999.25         1.7878         2.3347         2.6917       -79.3851      -12.71844      0.1755048
      1132.0000        -999.25         1.7945         2.3383         2.7124       -79.7942      -13.12753      0.1440359
      1132.5000        -999.25         1.8013         2.3338         2.7332       -80.2032      -13.53654      0.1125741
      1133.0000        -999.25         1.8081         2.3293         2.7499       -80.5049      -13.83823     0.08936662
      1133.5000        -999.25         1.8148         2.3249         2.7599       -80.8007      -14.13403     0.06661283
      1134.0000        -999.25         1.8218         2.3211         2.7615       -81.0876      -14.42094     0.04454334
      1134.5000        -999.25         1.8295         2.3202         2.7579       -81.0897      -14.42303     0.04438195
      1135.0000        -999.25         1.8372         2.3192         2.7544       -81.0919      -14.42524     0.04421234
      1135.5000        -999.25         1.8449         2.3183         2.7508       -81.0791      -14.41244     0.04519712
      1136.0000        -999.25         1.8526         2.3173         2.7476        -80.913      -14.24634     0.05797401
      1136.5000        -999.25         1.8603         2.3164         2.7447       -80.7469      -14.08024      0.0707509
      1137.0000        -999.25         1.8659         2.3154         2.7418       -80.5808      -13.91414     0.08352779
      1137.5000        -999.25         1.8631         2.3167         2.7434       -80.4147      -13.74804     0.09630467
      1138.0000        -999.25         1.8604         2.3209         2.7449       -80.2487      -13.58204      0.1090739
      1138.5000        -999.25         1.8476         2.3251          2.746       -80.1024      -13.43574      0.1203279
      1139.0000        -999.25         1.8295         2.3293          2.747       -79.9708      -13.30414      0.1304509
      1139.5000        -999.25         1.8114         2.3285          2.748       -79.8394      -13.17274      0.1405587
      1140.0000        -999.25         1.7933         2.3275         2.7502       -79.7079      -13.04124      0.1506741
      1140.5000        -999.25         1.7751         2.3264         2.7535        -79.764      -13.09734      0.1463588
      1141.0000        -999.25         1.7561         2.3275         2.7568       -79.8574      -13.19073      0.1391742
      1141.5000        -999.25         1.7356         2.3289         2.7601       -79.9508      -13.28413      0.1319897
      1142.0000        -999.25          1.715         2.3303         2.7635       -79.9639      -13.29723       0.130982
      1142.5000        -999.25         1.7049         2.3317         2.7668       -79.9432      -13.27654      0.1325742
      1143.0000        -999.25         1.7081         2.3331         2.7707       -79.9226      -13.25594      0.1341588
      1143.5000        -999.25         1.7113         2.3347         2.7762       -79.8285      -13.16183      0.1413973
      1144.0000        -999.25         1.7145         2.3367         2.7817        -79.678      -13.01134      0.1529741
      1144.5000        -999.25         1.7177         2.3388         2.7811       -79.5275      -12.86083      0.1645514
      1145.0000        -999.25         1.7209         2.3408         2.7783       -79.3771      -12.71043      0.1761205
      1145.5000        -999.25         1.7065         2.3438         2.7754       -79.1289      -12.46223      0.1952127
      1146.0000        -999.25         1.6865         2.3472         2.7726         -78.86      -12.19334      0.2158972
      1146.5000        -999.25         1.6664         2.3506         2.7699       -78.5708      -11.90414      0.2381433
      1147.0000        -999.25         1.6471          2.354         2.7672       -78.2571      -11.59044      0.2622739
      1147.5000        -999.25         1.6435         2.3609         2.7645       -77.9435      -11.27683      0.2863975
      1148.0000        -999.25         1.6399         2.3741         2.7618       -77.7496      -11.08294      0.3013124
      1148.5000        -999.25         1.6371         2.3873         2.7588       -77.8491      -11.18243      0.2936589
      1149.0000        -999.25         1.6404         2.4006         2.7557       -77.9486      -11.28194      0.2860049
      1149.5000        -999.25         1.6437         2.4138         2.7526       -78.0546      -11.38794      0.2778508
      1150.0000        -999.25          1.647         2.4271         2.7518        -78.172      -11.50533      0.2688206
      1150.5000        -999.25         1.6503         2.4403         2.7587       -78.2894      -11.62273      0.2597897
      1151.0000        -999.25         1.6537         2.4496         2.7656        -78.407      -11.74033      0.2507436
      1151.5000        -999.25         1.6617          2.456         2.7816       -78.4972      -11.83054      0.2438049
      1152.0000        -999.25         1.6727         2.4494         2.8016       -78.5723      -11.90564      0.2380277
      1152.5000        -999.25         1.6836         2.4146         2.8185       -78.6473      -11.98064      0.2322587
      1153.0000        -999.25         1.6946         2.3797         2.8352       -78.7224      -12.05573      0.2264821
      1153.5000        -999.25         1.7125         2.3456         2.8578        -78.634      -11.96734      0.2332816
      1154.0000        -999.25         1.7335         2.3135         2.8902       -78.4851      -11.81844      0.2447357
      1154.5000        -999.25         1.7557         2.2815         2.9207       -78.2922      -11.62553      0.2595743
      1155.0000        -999.25         1.7848         2.2494         2.9483       -78.0233      -11.35664      0.2802588
      1155.5000        -999.25         1.8138         2.2214         2.9759       -77.7544      -11.08774      0.3009432
      1156.0000        -999.25         1.8429         2.1997         2.9991       -77.4723      -10.80563      0.3226436
      1156.5000        -999.25          1.872          2.178         3.0171       -77.1395      -10.47284      0.3482431
      1157.0000        -999.25         1.8994         2.1563         3.0351       -76.8069      -10.14024       0.373828
      1157.5000        -999.25         1.9214         2.1367         3.0414       -76.2971      -9.630432      0.4130437
      1158.0000        -999.25         1.9434         2.1219         3.0244       -75.5586      -8.891937       0.469851
      1158.5000        -999.25         1.9655         2.1071         3.0073       -74.8201      -8.153435      0.5266589
      1159.0000        -999.25         1.9531         2.0922         2.9586       -74.0771      -7.410439      0.5838124
      1159.5000        -999.25         1.9076         2.0774         2.8781       -73.3337      -6.667038      0.6409971
      1160.0000        -999.25         1.8624         2.0626         2.7728       -72.7664      -6.099739      0.6846355
      1160.5000        -999.25         1.8173         2.0547         2.7137       -72.3013      -5.634636      0.7204126
      1161.0000        -999.25         1.7722         2.0519         2.6598       -72.1644      -5.497734      0.7309436
      1161.5000        -999.25         1.7272          2.049         2.6267        -72.207      -5.540337      0.7276664
      1162.0000        -999.25         1.6919         2.0462         2.6101       -72.2498      -5.583138      0.7243741
      1162.5000        -999.25         1.6682         2.0433         2.6386       -72.3201      -5.653435      0.7970314
      1163.0000        -999.25         1.6445         2.0405         2.6672       -72.5912      -5.924538      0.7819701
      1163.5000        -999.25         1.6209         2.0376         2.6987       -72.8622      -6.195534      0.7669148
      1164.0000        -999.25         1.5972         2.0347         2.7304       -73.1664      -6.499733      0.7500148
