#------------------------------------------------------------------------------
# Created by    : vladimir.rabinovich
# Created on    : 09/19/2023 17:22:42
#------------------------------------------------------------------------------
~Version Information Section
VERS.           2.0     :   CWLS log ASCII Standard - VERSION 2.0
WRAP.           NO      :   One line per depth step
~Well Information Section
#MNEM       .UNIT                                         VALUE :DESCRIPTION
#------------------------------------------------------------------------------
STRT        .FT                                             932 :START DEPTH
STOP        .FT                                            7546 :STOP DEPTH
STEP        .FT                                             0.5 :STEP      
NULL        .                                           -999.25 :NULL      
COMP        .                   SUN EXPLORATION & PRODUCTION CO :COMPANY   
WELL        .                                BROUSSARD & HEBERT :WELL      
FLD         .                                          LA BELLE :FIELD     
LOC         .                                                   :LOCATION  
CNTY        .                                         JEFFERSON :LOCATION  
STAT        .                                             TEXAS :STATE     
CTRY        .                                     UNITED STATES :COUNTRY   
SRVC        .                                                   :SERVICE COMPANY
DATE        .                             9/13/2023 11:18:46 AM :LOG DATE  
API         .                                    42245319210000 :API NUMBER
UWI         .                                    42245319210000 :UNIQUE WELL ID
XCOORD      .                                  1279394.73540744 :SURFACE X 
YCOORD      .                                  10819915.3695329 :SURFACE Y 
LAT         .                                        29.8083786 :LATITUDE  
LON         .                                       -94.1386839 :LONGITUDE 
ELEV        .FT                                              23 :ELEVATION VALUE
ELEV_TYPE   .                                                KB :ELEVATION REFERENCE TYPE
~Curve Information Section
#MNEM       .UNIT                                      API CODE :CURVE DESCRIPTION
#------------------------------------------------------------------------------
DEPT        .FT                                                 :DEPTH     
DCAL        .IN                                                 :          
DPSS        .V/V                                                :          
DRHO        .G/CM3                                              :          
GR          .GAPI                                               :          
GR_NORM     .GAPI                                               :GammaRay Normalized
ILD         .OHMM                                               :          
ILM         .OHMM                                               :          
NPSS        .V/V                                                :Neutron Porosity Sandstone
SFL         .OHMM                                               :          
SP          .MV                                                 :          
SP_NORM     .MV                                                 :SP Normalized
TENS        .LB                                                 :          
VSH_GR      .V/V                                                :Volume of Shale from GR
VSH_SP      .V/V                                                :Volume of Shale from SP
~A        DEPTH           DCAL           DPSS           DRHO             GR        GR_NORM            ILD            ILM           NPSS            SFL             SP        SP_NORM           TENS         VSH_GR         VSH_SP
# ...
      1022.0000        -999.25        -999.25        -999.25        49.6886       64.03751        -999.25        -999.25        -999.25        -999.25        -999.25        -999.25       1698.755      0.6603726        -999.25
      1022.5000        -999.25        -999.25        -999.25        50.8956       65.19345        -999.25        -999.25        -999.25        -999.25        -999.25        -999.25       1699.265       0.684967        -999.25
      1023.0000        -999.25        -999.25        -999.25        47.2663       61.51309        -999.25        -999.25        -999.25        -999.25        -999.25        -999.25       1699.776      0.6066614        -999.25
      1023.5000        -999.25        -999.25        -999.25        41.8396       56.03532        -999.25        -999.25        -999.25        -999.25        -999.25        -999.25       1700.286      0.4901133        -999.25
      1024.0000        -999.25        -999.25        -999.25        37.4715       51.61616        -999.25        -999.25        -999.25        -999.25        -999.25        -999.25       1700.796      0.3960885        -999.25
      1024.5000        -999.25        -999.25        -999.25        34.4549       48.54849        -999.25        -999.25        -999.25        -999.25        -999.25        -999.25       1701.306      0.3308189        -999.25
      1025.0000        -999.25        -999.25        -999.25        33.8467       47.88923        -999.25        -999.25        -999.25        -999.25        -999.25        -999.25       1701.816       0.316792        -999.25
      1025.5000        -999.25        -999.25        -999.25        35.8015       49.79296        -999.25        -999.25        -999.25        -999.25        -999.25        -999.25       1702.275       0.357297        -999.25
      1026.0000        -999.25        -999.25        -999.25        37.0039        50.9443        -999.25        -999.25        -999.25        -999.25        -999.25        -999.25       1702.785      0.3817936        -999.25
      1026.5000        -999.25        -999.25        -999.25        35.6413       49.53064        -999.25        -999.25        -999.25        -999.25        -999.25        -999.25       1703.296      0.3517157        -999.25
      1027.0000        -999.25        -999.25        -999.25        33.0693       46.90757        -999.25        -999.25        -999.25        -999.25        -999.25        -999.25       1703.806      0.2959058        -999.25
      1027.5000        -999.25        -999.25        -999.25        32.4589        46.2461        -999.25        -999.25        -999.25        -999.25        -999.25        -999.25       1704.316      0.2818319        -999.25
      1028.0000        -999.25        -999.25        -999.25        35.3249       49.06104       1981.354        1953.71        -999.25         0.2018         7.4277       21.54535       1704.826      0.3417242              1
      1028.5000        -999.25        -999.25        -999.25          41.37       55.05507       1981.354       1312.113        -999.25         0.2018         -0.958       13.15965       1705.336      0.4692569              1
      1029.0000        -999.25        -999.25        -999.25        48.3041       61.93811       1981.354        1018.91        -999.25         0.2739        -6.7167       7.400946       1705.846      0.6157045              1
      1029.5000        -999.25        -999.25        -999.25        53.5561       67.13905        1697.62        1018.91        -999.25         1.4979       -10.4882       3.629446       1706.356      0.7263626              1
      1030.0000        -999.25        -999.25        -999.25        55.6523       69.18419       929.3273       1028.499        -999.25         2.6773       -12.0774       2.040246       1706.867      0.7698764              1
      1030.5000        -999.25        -999.25        -999.25           54.3       67.78081        16.1182       567.1878        -999.25         2.9324       -13.0728       1.044847        1696.97      0.7400172              1
      1031.0000        -999.25        -999.25        -999.25          53.55       66.97975         2.4213         3.0414        -999.25         2.2002       -13.4756       0.642046        1696.97      0.7229735              1
      1031.5000        -999.25        -999.25        -999.25          55.05       68.42868         1.3108         1.5965        -999.25         1.8745       -13.6806      0.4370461       1707.071      0.7538017              1
      1032.0000        -999.25        -999.25        -999.25           58.5       71.82762         1.5745         1.9176        -999.25         1.9984       -13.6874      0.4302464       1707.071      0.8261196              1
      1032.5000        -999.25        -999.25        -999.25           62.7       75.97656         1.9979         1.7654        -999.25         2.1298       -13.8927       0.224946       1707.071       0.914395              1
      1033.0000        -999.25        -999.25        -999.25           65.4        78.6255           2.58          1.663        -999.25         2.2598       -14.0982     0.01944637       1707.071      0.9707552              1
      1033.5000        -999.25        -999.25        -999.25          65.85       79.02442         2.4421         1.8902        -999.25         2.3978       -14.3039     -0.1862535       1707.071       0.979243              1
      1034.0000        -999.25        -999.25        -999.25          65.25       78.37336         2.2385           2.09        -999.25         2.0996       -13.9135      0.2041464       1707.071      0.9653906              1
      1034.5000        -999.25        -999.25        -999.25           65.1       78.17229         2.0517          2.033        -999.25         1.9689       -13.7216      0.3960466       1707.071      0.9611127              1
      1035.0000        -999.25        -999.25        -999.25          66.15       79.17123         2.0048         1.9775        -999.25         1.9064       -13.5295      0.5881462       1707.071      0.9823667              1
      1035.5000        -999.25        -999.25        -999.25           66.9       79.87017          1.959          1.959        -999.25         1.8375       -13.3372      0.7804461       1707.071      0.9972377              1
      1036.0000        -999.25        -999.25        -999.25           65.4       78.31911         1.9319         2.0598        -999.25         1.8371       -13.5431      0.5745459       1707.071      0.9642363              1
      1036.5000        -999.25        -999.25        -999.25          61.35       74.21803         1.9492         2.1461        -999.25         1.8965       -14.3469     -0.2292538       1707.071      0.8769794              1
      1037.0000        -999.25        -999.25        -999.25          58.95       71.76697         2.0684         2.1164        -999.25         1.8703       -14.9521     -0.8344536       1707.071      0.8248291              1
      1037.5000        -999.25        -999.25        -999.25          62.25       75.01591         2.1851         1.9933        -999.25         1.8193       -15.3585      -1.240853       1707.071      0.8939555      0.9929161
      1038.0000        -999.25        -999.25        -999.25          68.85       81.56484         2.2253         1.9748        -999.25         1.7617       -15.5658      -1.448153       1707.071              1       0.986819
      1038.5000        -999.25        -999.25        -999.25           73.5       86.16378         2.2045         1.9744        -999.25         1.7454       -15.5728      -1.455153       1717.172              1      0.9866132
      1039.0000        -999.25        -999.25        -999.25           74.7       87.31271         2.1739         1.9739        -999.25         1.7854       -15.7803      -1.662654       1717.172              1      0.9805102
      1039.5000        -999.25        -999.25        -999.25           73.8       86.38875         2.1536         1.9735        -999.25         1.8346       -15.5884      -1.470754       1717.172              1      0.9861543
