#------------------------------------------------------------------------------
# Created by    : vladimir.rabinovich
# Created on    : 09/19/2023 17:20:58
#------------------------------------------------------------------------------
~Version Information Section
VERS.           2.0     :   CWLS log ASCII Standard - VERSION 2.0
WRAP.           NO      :   One line per depth step
~Well Information Section
#MNEM       .UNIT                                         VALUE :DESCRIPTION
#------------------------------------------------------------------------------
STRT        .FT                                            1876 :START DEPTH
STOP        .FT                                            8575 :STOP DEPTH
STEP        .FT                                             0.5 :STEP      
NULL        .                                           -999.25 :NULL      
COMP        .                                      L G D C CORP :COMPANY   
WELL        .                                          GARTH CO :WELL      
FLD         .                                       CHEEK SOUTH :FIELD     
LOC         .                                                   :LOCATION  
CNTY        .                                         JEFFERSON :LOCATION  
STAT        .                                             TEXAS :STATE     
CTRY        .                                     UNITED STATES :COUNTRY   
SRVC        .                                                   :SERVICE COMPANY
DATE        .                             9/13/2023 11:18:46 AM :LOG DATE  
API         .                                    42245322600000 :API NUMBER
UWI         .                                    42245322600000 :UNIQUE WELL ID
XCOORD      .                                  1261779.14844878 :SURFACE X 
YCOORD      .                                  10885364.2183051 :SURFACE Y 
LAT         .                                        29.9878888 :LATITUDE  
LON         .                                       -94.1963831 :LONGITUDE 
ELEV        .FT                                            39.9 :ELEVATION VALUE
ELEV_TYPE   .                                                KB :ELEVATION REFERENCE TYPE
~Curve Information Section
#MNEM       .UNIT                                      API CODE :CURVE DESCRIPTION
#------------------------------------------------------------------------------
DEPT        .FT                                                 :DEPTH     
AT10        .OHMM                                               :          
AT30        .OHMM                                               :          
AT60        .OHMM                                               :          
AT90        .OHMM                                               :          
DCAL        .IN                                                 :          
DPSS        .V/V                                                :          
DRHO        .G/CM3                                              :          
GR          .GAPI                                               :          
GR_NORM     .GAPI                                               :GammaRay Normalized
NPSS        .V/V                                                :Neutron Porosity Sandstone
SP          .MV                                                 :          
SP_NORM     .MV                                                 :SP Normalized
TENS        .LB                                                 :          
VSH_GR      .V/V                                                :Volume of Shale from GR
VSH_SP      .V/V                                                :Volume of Shale from SP
~A        DEPTH           AT10           AT30           AT60           AT90           DCAL           DPSS           DRHO             GR        GR_NORM           NPSS             SP        SP_NORM           TENS         VSH_GR         VSH_SP
# ...
      3389.0000         0.9262         1.0757         1.2001         1.2222           3.96         0.3356          0.011        66.2121       74.40406         0.4764          -40.2       4.863907        -999.25      0.8809375              1
      3389.5000         0.9487         1.0757         1.2222         1.2166         4.0404         0.3428          0.009        66.0606       74.15215         0.4424            -40       5.061749        -999.25      0.8755777              1
      3390.0000         0.9262         1.0562         1.2334         1.1838          4.101         0.3535          0.007        65.9091       73.90026         0.4436          -40.2       4.859592        -999.25      0.8702183              1
      3390.5000         0.9174         1.0467         1.2056         1.1518         4.1616          0.357          0.005        66.0606       74.14339         0.4733            -41       4.057438        -999.25      0.8753914              1
      3391.0000         0.9174         1.0419         1.2056         1.1362         4.2227         0.3475         0.0201        66.8182       75.37682         0.4824          -42.2       2.855282        -999.25      0.9016345              1
      3391.5000         0.9532         1.0419         1.2112         1.1678         4.3649         0.3315         0.0462        68.6364       78.34309         0.4703          -43.2       1.853127        -999.25      0.9647467              1
      3392.0000         0.9717         1.0419         1.2224         1.1732         4.4868         0.3154         0.0793         69.697       80.07157         0.4478          -44.2      0.8509674        -999.25              1              1
      3392.5000         0.9578         1.0138          1.184         1.1209         4.5884         0.3118         0.1004        68.3333       77.83914         0.4563          -44.8      0.2488136        -999.25      0.9540243              1
      3393.0000         0.9307         0.9624         1.1057         1.0325         4.6898         0.3136         0.1005        65.9091       73.87401         0.4684          -44.8      0.2466583        -999.25      0.8696597              1
      3393.5000         0.8879          0.913         1.0046         0.9578         4.7912         0.3225         0.0996        63.4848        69.9087         0.4708          -44.8       0.244503        -999.25      0.7852915              1
      3394.0000         0.8524          0.868         0.9218            0.9         4.9127         0.3344         0.1007        62.4242       68.17148         0.4671            -45     0.04234695        -999.25      0.7483293              1
      3394.5000         0.8258         0.8447         0.8838         0.8563          5.034         0.3415         0.0998        61.8182       67.17699         0.4598          -46.2      -1.159809        -999.25      0.7271699      0.9974225
      3395.0000         0.9763          0.913         0.9218            0.9         5.1551         0.3355         0.0999        60.6061       65.19224         0.4393          -48.4      -3.361969        -999.25      0.6849412      0.9619038
      3395.5000         1.1524         1.0138          0.967         0.9352         5.2762         0.3182          0.101          57.45       60.03127         0.4086          -52.4      -7.364124        -999.25      0.5751334      0.8973528
      3396.0000         1.3588         1.1161              1         0.9717         5.3168         0.2943         0.1011          52.35       51.69432         0.3684          -56.6      -11.56628        -999.25      0.3977515      0.8295762
      3396.5000          1.496         1.2175         1.0138         0.9857         5.3171         0.2721         0.1012           45.6       40.66151         0.3397       -61.0101      -15.97853        -999.25      0.1630109      0.7584108
      3397.0000         1.6473         1.2864         1.0373         1.0092         5.3576          0.263         0.1003        40.6311       32.53873         0.3361       -64.4444      -19.41499        -999.25              0      0.7029841
      3397.5000         1.7647         1.3654          1.106          1.076          5.378         0.2684         0.1014         35.534        24.2065         0.3217       -65.6566      -20.62935        -999.25              0      0.6833976
      3398.0000          1.882          1.456         1.1957         1.1632         5.4986         0.2738         0.1015        35.0971        23.4883         0.3073       -65.0505       -20.0254        -999.25              0      0.6931387
      3398.5000         1.7898         1.3657         1.2404         1.2067         5.5791         0.2833         0.1006         39.466       30.62201         0.3145       -62.4242      -17.40126        -999.25              0      0.7354636
      3399.0000         1.4698         1.2124         1.1011         1.0712         5.6794         0.2965         0.1007        44.4175        38.7076         0.3432          -59.2      -14.17921        -999.25      0.1214384       0.787432
      3399.5000          1.218         1.0712         0.9624         0.9352         5.7797         0.3001         0.1008           49.5       47.00723          0.375          -55.2      -10.18137        -999.25      0.2980262      0.8519134
      3400.0000         1.0422         0.9578         0.9218         0.8959         5.8799         0.2946         0.1009          52.95       52.63961         0.4038          -51.2      -6.183525        -999.25      0.4178641      0.9163948
      3400.5000         0.9624         0.9218         0.9043         0.8798           5.96         0.2916          0.096             57       59.25229         0.4326            -49      -3.985683        -999.25      0.5585594      0.9518438
      3401.0000         0.9307         0.8959         0.8838         0.8601           5.86         0.3048         0.0719        60.6103       65.14658         0.4368          -48.8      -3.787838        -999.25      0.6839699      0.9550349
      3401.5000         0.9307            0.9         0.8838         0.8601           5.76         0.3102         0.0618        63.0397       69.11144           0.42            -50      -4.989994        -999.25      0.7683285      0.9356453
      3402.0000         0.9532         0.9307         0.9043         0.8798            5.7          0.303         0.0697        62.7429       68.62216         0.4008            -52      -6.992149        -999.25      0.7579184      0.9033524
      3402.5000         1.0185         0.9952         0.9532         0.9262           5.68          0.291         0.0916        59.4259       63.19833         0.4104          -53.8      -8.794304        -999.25      0.6425176      0.8742854
      3403.0000         1.1582         1.0962         1.0092          0.981           5.66         0.2886         0.0925        55.9749       57.55556         0.4152          -54.6      -9.596462        -999.25      0.5224587      0.8613474
      3403.5000         1.3171         1.2016         1.2071         1.1743           5.66         0.2814         0.0944        51.9194       50.92514         0.3882            -53      -7.998619        -999.25       0.381386      0.8871191
      3404.0000         1.3853         1.3917          1.424         1.4305           5.68         0.2724         0.0993        50.5683       48.71328         0.3564          -49.6      -4.600773        -999.25      0.3343251       0.941923
      3404.5000         1.1636         1.2991         1.2991         1.3726           5.64         0.2688         0.0992        53.2812       53.14136         0.3432          -46.4      -1.402931        -999.25      0.4285395      0.9935011
      3405.0000         1.0374         1.1689         1.1961         1.2238           5.58         0.2802         0.0991         57.654       60.28145         0.3672          -44.2      0.7949142        -999.25      0.5804564              1
      3405.5000         0.9952         1.1424         1.1689         1.2016           5.52         0.3012          0.092        60.8257       65.45913         0.4038          -42.8        2.19276        -999.25      0.6906198              1
