#------------------------------------------------------------------------------
# Created by    : vladimir.rabinovich
# Created on    : 09/19/2023 17:22:02
#------------------------------------------------------------------------------
~Version Information Section
VERS.           2.0     :   CWLS log ASCII Standard - VERSION 2.0
WRAP.           NO      :   One line per depth step
~Well Information Section
#MNEM       .UNIT                                         VALUE :DESCRIPTION
#------------------------------------------------------------------------------
STRT        .FT                                          2944.5 :START DEPTH
STOP        .FT                                           12030 :STOP DEPTH
STEP        .FT                                             0.5 :STEP      
NULL        .                                           -999.25 :NULL      
COMP        .                                  SAMEDAN OIL CORP :COMPANY   
WELL        .                                         ROBERTSON :WELL      
FLD         .                                     HAMSHIRE WEST :FIELD     
LOC         .                                                   :LOCATION  
CNTY        .                                         JEFFERSON :LOCATION  
STAT        .                                             TEXAS :STATE     
CTRY        .                                     UNITED STATES :COUNTRY   
SRVC        .                                                   :SERVICE COMPANY
DATE        .                             9/13/2023 11:18:46 AM :LOG DATE  
API         .                                    42245321120000 :API NUMBER
UWI         .                                    42245321120000 :UNIQUE WELL ID
XCOORD      .                                  1214919.43989532 :SURFACE X 
YCOORD      .                                  10839736.7579652 :SURFACE Y 
LAT         .                                        29.8609813 :LATITUDE  
LON         .                                       -94.3427285 :LONGITUDE 
ELEV        .FT                                              38 :ELEVATION VALUE
ELEV_TYPE   .                                                KB :ELEVATION REFERENCE TYPE
~Curve Information Section
#MNEM       .UNIT                                      API CODE :CURVE DESCRIPTION
#------------------------------------------------------------------------------
DEPT        .FT                                                 :DEPTH     
CALI        .IN                                                 :          
DPSS        .%                                                  :          
DRHO        .G/CM3                                              :          
GR          .GAPI                                               :          
GR_NORM     .GAPI                                               :GammaRay Normalized
ILD         .OHMM                                               :          
ILM         .OHMM                                               :          
NPSS        .%                                                  :Neutron Porosity Sandstone
SGRD        .OHMM                                               :          
SP          .MV                                                 :          
SP_NORM     .MV                                                 :SP Normalized
TENS        .LB                                                 :          
VSH_GR      .V/V                                                :Volume of Shale from GR
VSH_SP      .V/V                                                :Volume of Shale from SP
~A        DEPTH           CALI           DPSS           DRHO             GR        GR_NORM            ILD            ILM           NPSS           SGRD             SP        SP_NORM           TENS         VSH_GR         VSH_SP
# ...
      4204.5000        -999.25        -999.25        -999.25        47.0911       53.84856         1.5396         2.0656        -999.25         2.4159       -97.4749      -30.12916       1968.521      0.4435864      0.6532243
      4205.0000        -999.25        -999.25        -999.25        46.4929       53.03529         1.4637         1.9546        -999.25         2.3717       -98.4789      -31.13808       1969.523      0.4262828      0.6412133
      4205.5000        -999.25        -999.25        -999.25        45.5969       51.81623         1.3853         1.8246        -999.25         2.2545       -98.4871      -31.15122       1970.526      0.4003453      0.6410569
      4206.0000        -999.25        -999.25        -999.25        46.9389       53.64662         1.3171         1.6876        -999.25         2.0466       -98.0977      -30.76676       1911.526      0.4392898      0.6456338
      4206.5000        -999.25        -999.25        -999.25         53.795        62.9904          1.258         1.5538        -999.25         1.7996       -96.9136      -29.58759       1912.529      0.6380937      0.6596716
      4207.0000        -999.25        -999.25        -999.25        61.6932       73.75412         1.2182          1.424        -999.25         1.5826       -90.9488      -23.62772       1913.531      0.8671089      0.7306224
      4207.5000        -999.25        -999.25        -999.25        61.9857       74.15447         1.1961         1.3477        -999.25         1.4045         -89.76      -22.44386       1934.534      0.8756271      0.7447159
      4208.0000        -999.25        -999.25        -999.25        59.2893       70.48224         1.1743         1.2931        -999.25         1.3415       -82.3837      -15.07249       1955.537      0.7974945      0.8324704
      4208.5000        -999.25        -999.25        -999.25        59.2822        70.4744         1.1529         1.2522        -999.25         1.3601       -81.9881      -14.68182        1956.54      0.7973276      0.8371211
      4209.0000        -999.25        -999.25        -999.25        61.6666       73.72514         1.1476         1.2408        -999.25          1.379       -81.1926      -13.89125       1957.542      0.8664923      0.8465327
      4209.5000        -999.25        -999.25        -999.25         68.105       82.49976         1.1476         1.2295        -999.25         1.3853       -80.3962      -13.09979       1998.546              1      0.8559548
      4210.0000        -999.25        -999.25        -999.25        73.6503       90.05746         1.1529         1.2182        -999.25         1.3664       -76.5997      -9.308228       1979.548              1      0.9010925
      4210.5000        -999.25        -999.25        -999.25        75.5903       92.70269         1.1689          1.207        -999.25         1.3414       -75.4049      -8.118355           1980              1      0.9152577
      4211.0000        -999.25        -999.25        -999.25        73.0381       89.22694          1.185          1.207        -999.25         1.3352       -71.8442      -4.562592           1940              1      0.9575882
      4211.5000        -999.25        -999.25        -999.25        69.2808       84.10915         1.1959         1.2069        -999.25         1.3289       -71.2577      -3.981026           1900              1      0.9645116
      4212.0000        -999.25        -999.25        -999.25        63.1236       75.72131         1.2124         1.2124        -999.25         1.3227       -70.8691      -3.597359           1860      0.9089641      0.9690791
      4212.5000        -999.25        -999.25        -999.25          58.63       69.60025         1.2291         1.2234        -999.25         1.3287       -70.6785       -3.41169           1900      0.7787287      0.9712894
      4213.0000        -999.25        -999.25        -999.25        61.9087       74.06955          1.246          1.229        -999.25         1.3469        -71.282      -4.020119           1920      0.8738202      0.9640462
      4213.5000        -999.25        -999.25        -999.25        71.3507        86.9368         1.2631         1.2345        -999.25          1.378       -72.8793       -5.62236           1920              1      0.9449719
      4214.0000        -999.25        -999.25        -999.25        75.6869       92.84702         1.2573         1.2458        -999.25         1.4162        -74.677      -7.424995           1920              1       0.923512
      4214.5000        -999.25        -999.25        -999.25        69.5358       84.46751         1.2514         1.2514        -999.25         1.4291       -75.4829      -8.235825           1920              1      0.9138592
      4215.0000        -999.25        -999.25        -999.25        66.6784        80.5759         1.2456         1.2399        -999.25         1.3966       -75.0945      -7.852356           1960              1      0.9184243
      4215.5000        -999.25        -999.25        -999.25        74.7705       91.60381         1.2455         1.2342        -999.25         1.3524       -74.1092      -6.871994           1960              1      0.9300953
      4216.0000        -999.25        -999.25        -999.25         83.677       103.7414         1.2455         1.2173        -999.25         1.3217        -73.123      -5.890724           1960              1      0.9417771
      4216.5000        -999.25        -999.25        -999.25        91.5504       114.4713         1.2397         1.2006        -999.25         1.2977       -71.9365       -4.70916           1880              1      0.9558433
      4217.0000        -999.25        -999.25        -999.25        93.4874       117.1125         1.2339         1.1842        -999.25         1.3035       -71.5462      -4.323792           1880              1       0.960431
      4217.5000        -999.25        -999.25        -999.25        96.1743       120.7754         1.2282         1.1788        -999.25         1.3034       -70.9561      -3.738625           1880              1      0.9673973
      4218.0000        -999.25        -999.25        -999.25        87.5087       108.9697         1.2338         1.1895        -999.25         1.3152       -70.3654      -3.152863           1940              1      0.9743707
      4218.5000        -999.25        -999.25        -999.25        68.8758       83.58273         1.2393         1.2058        -999.25         1.3272       -69.7741       -2.56649           1880              1      0.9813513
      4219.0000        -999.25        -999.25        -999.25        56.6027       66.86153         1.2506         1.2168        -999.25         1.3453       -69.5818      -2.379128           1900       0.720458      0.9835818
      4219.5000        -999.25        -999.25        -999.25        58.0804       68.87682         1.2562         1.2335        -999.25           1.37       -69.3892       -2.19146           1920      0.7633365      0.9858159
      4220.0000        -999.25        -999.25        -999.25        61.6537       73.74753         1.2619         1.2447        -999.25         1.3824       -69.7963      -2.603493           1920      0.8669687      0.9809108
      4220.5000        -999.25        -999.25        -999.25          61.35       73.33553         1.2676         1.2504        -999.25          1.395       -70.2012      -3.013329        1940.55      0.8582027      0.9760318
      4221.0000        -999.25        -999.25        -999.25           60.3       71.90664         1.2792         1.2561        -999.25         1.4014       -70.6033      -3.420357       1961.556      0.8278008      0.9711862
      4221.5000        -999.25        -999.25        -999.25          61.35       73.33916         1.2909         1.2618        -999.25         1.4014        -71.005      -3.826988       1922.559      0.8582799      0.9663454
      4222.0000        -999.25        -999.25        -999.25          64.35        77.4287         1.3028         1.2618        -999.25         1.4014       -70.8074      -3.634331       1943.565      0.9452914      0.9686389
