#------------------------------------------------------------------------------
# Created by    : vladimir.rabinovich
# Created on    : 09/19/2023 17:20:58
#------------------------------------------------------------------------------
~Version Information Section
VERS.           2.0     :   CWLS log ASCII Standard - VERSION 2.0
WRAP.           NO      :   One line per depth step
~Well Information Section
#MNEM       .UNIT                                         VALUE :DESCRIPTION
#------------------------------------------------------------------------------
STRT        .FT                                            1876 :START DEPTH
STOP        .FT                                            8575 :STOP DEPTH
STEP        .FT                                             0.5 :STEP      
NULL        .                                           -999.25 :NULL      
COMP        .                                      L G D C CORP :COMPANY   
WELL        .                                          GARTH CO :WELL      
FLD         .                                       CHEEK SOUTH :FIELD     
LOC         .                                                   :LOCATION  
CNTY        .                                         JEFFERSON :LOCATION  
STAT        .                                             TEXAS :STATE     
CTRY        .                                     UNITED STATES :COUNTRY   
SRVC        .                                                   :SERVICE COMPANY
DATE        .                             9/13/2023 11:18:46 AM :LOG DATE  
API         .                                    42245322600000 :API NUMBER
UWI         .                                    42245322600000 :UNIQUE WELL ID
XCOORD      .                                  1261779.14844878 :SURFACE X 
YCOORD      .                                  10885364.2183051 :SURFACE Y 
LAT         .                                        29.9878888 :LATITUDE  
LON         .                                       -94.1963831 :LONGITUDE 
ELEV        .FT                                            39.9 :ELEVATION VALUE
ELEV_TYPE   .                                                KB :ELEVATION REFERENCE TYPE
~Curve Information Section
#MNEM       .UNIT                                      API CODE :CURVE DESCRIPTION
#------------------------------------------------------------------------------
DEPT        .FT                                                 :DEPTH     
AT10        .OHMM                                               :          
AT30        .OHMM                                               :          
AT60        .OHMM                                               :          
AT90        .OHMM                                               :          
DCAL        .IN                                                 :          
DPSS        .V/V                                                :          
DRHO        .G/CM3                                              :          
GR          .GAPI                                               :          
GR_NORM     .GAPI                                               :GammaRay Normalized
NPSS        .V/V                                                :Neutron Porosity Sandstone
SP          .MV                                                 :          
SP_NORM     .MV                                                 :SP Normalized
TENS        .LB                                                 :          
VSH_GR      .V/V                                                :Volume of Shale from GR
VSH_SP      .V/V                                                :Volume of Shale from SP
~A        DEPTH           AT10           AT30           AT60           AT90           DCAL           DPSS           DRHO             GR        GR_NORM           NPSS             SP        SP_NORM           TENS         VSH_GR         VSH_SP
# ...
      3814.0000          0.421         0.3257         0.3213         0.3126           3.32          0.396          0.016        46.3235       42.14149         0.4747       -97.2549      -52.81046        -999.25      0.1944997     0.09104464
      3814.5000          0.441         0.3332         0.3287         0.3198           3.18         0.3882          0.015        49.4118       46.34587         0.4586       -92.9412      -48.49676        -999.25      0.2839548      0.1667235
      3815.0000         0.4729         0.3488         0.3363         0.3272            3.1         0.3828          0.022        52.3529        50.3497         0.4455       -88.8235      -44.37906        -999.25      0.3691427      0.2389639
      3815.5000         0.5162         0.3752         0.3504         0.3409              3         0.3786          0.033        55.2941       54.35366         0.4414       -84.1176      -39.67316        -999.25      0.4543333      0.3215236
      3816.0000         0.5527         0.3982         0.3769         0.3668           2.86         0.3678          0.043             55       53.94928         0.4343       -81.1765      -36.73206        -999.25      0.4457294      0.3731218
      3816.5000         0.5046         0.3821         0.3568         0.3472           2.62         0.3576          0.039        52.9412       51.14036          0.414       -82.7451      -38.30066        -999.25       0.385965      0.3456025
      3817.0000         0.4369         0.3568         0.3302         0.3213           2.42         0.3533          0.027        49.2647        46.1272         0.4002       -88.2353      -43.79086        -999.25      0.2793022      0.2492832
      3817.5000          0.419         0.3317         0.3213         0.3126           2.34         0.3666          0.011        47.6471       43.91945         0.4206       -93.5294      -49.08496        -999.25      0.2323286      0.1564042
      3818.0000         0.4269         0.3347         0.3302         0.3213           2.42         0.3828          0.005        47.3529       43.51493         0.4378        -95.098      -50.65356        -999.25       0.223722       0.128885
      3818.5000         0.4493         0.3568         0.3488         0.3394           2.42         0.3942           0.01        47.3529       43.51128         0.4295       -94.3137      -49.86926        -999.25      0.2236443      0.1426446
      3819.0000         0.4795         0.3839         0.3701         0.3601           2.36         0.3948          0.011        47.7941        44.1088         0.4158       -90.9804      -46.53596        -999.25      0.2363574      0.2011236
      3819.5000         0.5655         0.4514          0.421         0.4094           2.28         0.3816          0.012        50.1471       47.31129         0.4098        -85.098      -40.65356        -999.25      0.3044955      0.3043236
      3820.0000         0.7432         0.5838         0.5186         0.5046            2.1         0.3448          0.012           52.5       50.51364          0.411       -74.0816      -29.63715        -999.25      0.3726306      0.4975938
      3820.5000         0.9336         0.7432         0.7032         0.6843           1.92         0.2982          0.011        55.1471       54.11686         0.4032       -61.8367      -17.39226        -999.25       0.449295      0.7124165
      3821.0000         1.1121         0.8874         0.9596         0.9336           1.78         0.2652          0.009        57.6471       57.51966         0.3924          -52.4      -7.955559        -999.25      0.5216948      0.8779727
      3821.5000         1.2255         1.0425         1.2198         1.1865           1.74          0.258          0.005        58.8235       59.11894         0.3798          -46.4      -1.955559        -999.25      0.5557222      0.9832358
      3822.0000         1.2311         1.2142         1.2658         1.3074            1.7         0.2562          0.008        60.4592       61.34406         0.3678            -45     -0.5555573        -999.25      0.6030651              1
      3822.5000              1         1.1173          1.154         1.2142            1.6         0.2532           0.01        65.8163       68.63986         0.3624            -45     -0.5555573        -999.25      0.7582949              1
      3823.0000         0.8708         0.9954         1.0521         1.0867            1.5         0.2508          0.013        70.8673       75.51859          0.375          -44.8     -0.3555565        -999.25      0.9046509              1
      3823.5000         0.7466            0.9         0.9684         0.9864           1.38         0.2514          0.024        73.3163        78.8519         0.4026            -44      0.4444427        -999.25      0.9755723              1
      3824.0000         0.7466            0.9         0.9684         0.9864           1.38         0.2514          0.024        73.3163       78.84824         0.4026            -44      0.4444427        -999.25      0.9754946              1
      3824.5000            0.7            0.8         0.8832         0.9083           1.34         0.2556          0.039        74.0816       79.88735         0.4301          -43.6      0.8444443        -999.25      0.9976032              1
      3825.0000         0.6629         0.7746         0.8347         0.8586            1.2         0.2736          0.054        74.6939       80.71803         0.4747          -43.4       1.044441        -999.25              1              1
      3825.5000         0.6451         0.7605         0.8229         0.8347            1.1            0.3          0.054          75.15       81.33585         0.4896            -43       1.444443        -999.25              1              1
      3826.0000         0.6307         0.7535         0.8114         0.8268           1.02         0.3158          0.055           75.6       81.94536         0.5046          -43.2       1.244442        -999.25              1              1
      3826.5000          0.625         0.7535         0.8114         0.8307           0.92         0.3261          0.058          80.85       89.09523         0.5118          -43.6      0.8444443        -999.25              1              1
      3827.0000         0.6222         0.7535         0.8152         0.8386           0.82         0.3388          0.047          83.85       93.17931          0.507          -43.8      0.6444435        -999.25              1              1
      3827.5000          0.625         0.7535         0.8152         0.8386           0.76         0.3533          0.036           85.5       95.42392         0.5028          -44.4     0.04444122        -999.25              1              1
      3828.0000         0.6335         0.7535         0.8076         0.8386           0.76         0.3618          0.025          84.75       94.39834         0.5058          -44.8     -0.3555565        -999.25              1              1
      3828.5000         0.6364         0.7535         0.8076         0.8347           0.78         0.3618          0.016          82.95       91.94204         0.5076          -45.2      -0.755558        -999.25              1              1
      3829.0000         0.6278         0.7501            0.8         0.8229           0.82         0.3582          0.012          82.05       90.71208         0.5034          -45.4     -0.9555588        -999.25              1              1
      3829.5000         0.6165         0.7364         0.7818         0.8038           0.86         0.3515          0.011           81.6       90.09525         0.4962          -45.4     -0.9555588        -999.25              1              1
      3830.0000         0.6165         0.7263         0.7675          0.789           0.94         0.3461           0.01          80.85       89.06967         0.4872            -45     -0.5555573        -999.25              1              1
      3830.5000         0.6278          0.733         0.7605         0.7818           1.04           0.34           0.01           78.6        85.3018         0.4818          -44.6     -0.1555557        -999.25              1              1
