#------------------------------------------------------------------------------
# Created by    : vladimir.rabinovich
# Created on    : 09/19/2023 17:22:42
#------------------------------------------------------------------------------
~Version Information Section
VERS.           2.0     :   CWLS log ASCII Standard - VERSION 2.0
WRAP.           NO      :   One line per depth step
~Well Information Section
#MNEM       .UNIT                                         VALUE :DESCRIPTION
#------------------------------------------------------------------------------
STRT        .FT                                             932 :START DEPTH
STOP        .FT                                            7546 :STOP DEPTH
STEP        .FT                                             0.5 :STEP      
NULL        .                                           -999.25 :NULL      
COMP        .                   SUN EXPLORATION & PRODUCTION CO :COMPANY   
WELL        .                                BROUSSARD & HEBERT :WELL      
FLD         .                                          LA BELLE :FIELD     
LOC         .                                                   :LOCATION  
CNTY        .                                         JEFFERSON :LOCATION  
STAT        .                                             TEXAS :STATE     
CTRY        .                                     UNITED STATES :COUNTRY   
SRVC        .                                                   :SERVICE COMPANY
DATE        .                             9/13/2023 11:18:46 AM :LOG DATE  
API         .                                    42245319210000 :API NUMBER
UWI         .                                    42245319210000 :UNIQUE WELL ID
XCOORD      .                                  1279394.73540744 :SURFACE X 
YCOORD      .                                  10819915.3695329 :SURFACE Y 
LAT         .                                        29.8083786 :LATITUDE  
LON         .                                       -94.1386839 :LONGITUDE 
ELEV        .FT                                              23 :ELEVATION VALUE
ELEV_TYPE   .                                                KB :ELEVATION REFERENCE TYPE
~Curve Information Section
#MNEM       .UNIT                                      API CODE :CURVE DESCRIPTION
#------------------------------------------------------------------------------
DEPT        .FT                                                 :DEPTH     
DCAL        .IN                                                 :          
DPSS        .V/V                                                :          
DRHO        .G/CM3                                              :          
GR          .GAPI                                               :          
GR_NORM     .GAPI                                               :GammaRay Normalized
ILD         .OHMM                                               :          
ILM         .OHMM                                               :          
NPSS        .V/V                                                :Neutron Porosity Sandstone
SFL         .OHMM                                               :          
SP          .MV                                                 :          
SP_NORM     .MV                                                 :SP Normalized
TENS        .LB                                                 :          
VSH_GR      .V/V                                                :Volume of Shale from GR
VSH_SP      .V/V                                                :Volume of Shale from SP
~A        DEPTH           DCAL           DPSS           DRHO             GR        GR_NORM            ILD            ILM           NPSS            SFL             SP        SP_NORM           TENS         VSH_GR         VSH_SP
# ...
      3614.0000        -999.25        -999.25        -999.25             75       72.57654         1.0968         1.0377        -999.25         0.9379       -17.2277      -2.823017       2686.869       0.842054      0.9753646
      3614.5000        -999.25        -999.25        -999.25        78.9796       77.47397         1.0918         1.0425        -999.25         0.9209       -18.4158      -4.013397       2707.071      0.9462547      0.9592784
      3615.0000        -999.25        -999.25        -999.25         80.051       78.79248         1.0918          1.057        -999.25         0.9293        -19.802      -5.401876        2696.97      0.9743081      0.9405152
      3615.5000        -999.25        -999.25        -999.25        79.7449       78.41579         1.0918         1.0473        -999.25         0.9864          -20.6      -6.202156       2686.869      0.9662935      0.9297006
      3616.0000        -999.25        -999.25        -999.25        78.3673       76.72047         1.0968         1.0473        -999.25         1.0281          -21.4      -7.004435       2676.768      0.9302227       0.918859
      3616.5000        -999.25        -999.25        -999.25        74.2574       71.66267         1.1173         1.0425        -999.25         1.0187          -22.6      -8.206715       2666.667      0.8226099       0.902612
      3617.0000        -999.25        -999.25        -999.25        68.6139       64.71759         1.0918         1.0329        -999.25         1.0093          -23.2      -8.808994       2666.667      0.6748424      0.8944731
      3617.5000        -999.25        -999.25        -999.25        63.5644       58.50349         1.0425         1.0281        -999.25         1.0377          -23.6      -9.211273       2666.667      0.5426274      0.8890368
      3618.0000        -999.25        -999.25        -999.25        62.5248       57.22412         0.9729         1.0187        -999.25         1.1173          -23.6      -9.213552       2666.667      0.5154068      0.8890061
      3618.5000        -999.25        -999.25        -999.25         65.495       60.87936         0.9379              1        -999.25         1.1701          -23.8       -9.41583       2686.869       0.593178      0.8862725
      3619.0000        -999.25        -999.25        -999.25        67.5743       63.43822         0.8959         0.9818        -999.25         1.1434          -23.4      -9.018109       2686.869      0.6476218      0.8916472
      3619.5000        -999.25        -999.25        -999.25        66.2376       61.79324          0.864         0.9596        -999.25          1.154          -22.6      -8.220389       2676.768      0.6126221      0.9024272
      3620.0000        -999.25        -999.25        -999.25        65.6436       61.06223         0.8601         0.9379        -999.25          1.192          -20.6      -6.222669       2676.768      0.5970686      0.9294234
      3620.5000        -999.25        -999.25        -999.25        68.3168       64.35197          0.868         0.9209        -999.25         1.2311       -18.4158      -4.040748       2666.667      0.6670631      0.9589088
      3621.0000        -999.25        -999.25        -999.25        73.2178       70.38329         0.8759         0.9209        -999.25         1.1486       -15.2475     -0.8747272       2646.465      0.7953892              1
      3621.5000        -999.25        -999.25        -999.25         77.602       75.77865         0.8959         0.9336        -999.25          0.964       -11.8812       2.489294       2646.465       0.910184              1
      3622.0000        -999.25        -999.25        -999.25        80.8163       79.73429         0.9209         0.9509        -999.25          0.964         -9.703       4.665215       2656.566      0.9943466              1
      3622.5000        -999.25        -999.25        -999.25        83.7245       83.31321         0.9465         0.9552        -999.25          0.964        -8.5149       5.851036       2666.667              1              1
      3623.0000        -999.25        -999.25        -999.25        85.5612       85.57353         0.9864         0.9729        -999.25         0.9818        -8.3168       6.046857       2666.667              1              1
      3623.5000        -999.25        -999.25        -999.25        85.8673       85.95022         1.0328         0.9909        -999.25         0.9864        -8.7129       5.648478       2666.667              1              1
      3624.0000        -999.25        -999.25        -999.25        83.4184       82.93652         1.0765          1.028        -999.25         0.9954        -9.1089       5.250198       2666.667              1              1
      3624.5000        -999.25        -999.25        -999.25        80.6633       79.54599         1.1221         1.0569        -999.25              1         -9.901       4.455819       2666.667      0.9903402              1
      3625.0000        -999.25        -999.25        -999.25        81.1224       80.11098         1.1535         1.0965        -999.25         1.0046       -11.0891        3.26544       2666.667              1              1
      3625.5000        -999.25        -999.25        -999.25        82.3469        81.6179         1.1534         1.1066        -999.25         1.0666       -11.4851       2.867161       2666.667              1              1
      3626.0000        -999.25        -999.25        -999.25        81.5816       80.67608         1.1587         1.1066        -999.25         1.1066       -11.4851       2.864882       2666.667              1              1
      3626.5000        -999.25        -999.25        -999.25        78.8265       77.28557         1.1533         1.1015        -999.25         1.1271       -10.8911       3.456603       2666.667      0.9422461              1
      3627.0000        -999.25        -999.25        -999.25        75.7653       73.51834         1.1322         1.0913        -999.25         1.0616        -10.297       4.048424       2646.465      0.8620924              1
      3627.5000        -999.25        -999.25        -999.25        74.4059       71.84542         1.0813         1.0567        -999.25              1         -9.901       4.442144       2666.667      0.8264983              1
      3628.0000        -999.25        -999.25        -999.25             75       72.57654         1.0616         1.0186        -999.25         0.9465        -9.3069       5.033965       2686.869       0.842054              1
      3628.5000        -999.25        -999.25        -999.25         77.602       75.77865         1.0327         0.9818        -999.25            0.9        -8.7129       5.625686       2707.071       0.910184              1
      3629.0000        -999.25        -999.25        -999.25        83.2653        82.7481         1.0092         0.9465        -999.25         0.8563        -8.3168       6.019506       2717.172              1              1
      3629.5000        -999.25        -999.25        -999.25           90.9       92.14365         0.9818         0.9125        -999.25         0.8146        -8.7129       5.621127       2737.374              1              1
      3630.0000        -999.25        -999.25        -999.25          95.85       98.23528         0.9596         0.8959        -999.25         0.8146         -9.505       4.826749       2747.475              1              1
      3630.5000        -999.25        -999.25        -999.25          97.95       100.8196         0.9336         0.8798        -999.25         0.8146        -10.297        4.03247       2747.475              1              1
      3631.0000        -999.25        -999.25        -999.25        89.3878       90.28268         0.9293         0.8759        -999.25         0.8146       -11.2871       3.040091       2737.374              1              1
      3631.5000        -999.25        -999.25        -999.25        81.5816       80.67608         0.9293         0.8759        -999.25         0.8146       -12.0792       2.245711       2717.172              1              1
