#------------------------------------------------------------------------------
# Created by    : vladimir.rabinovich
# Created on    : 09/19/2023 17:22:42
#------------------------------------------------------------------------------
~Version Information Section
VERS.           2.0     :   CWLS log ASCII Standard - VERSION 2.0
WRAP.           NO      :   One line per depth step
~Well Information Section
#MNEM       .UNIT                                         VALUE :DESCRIPTION
#------------------------------------------------------------------------------
STRT        .FT                                             932 :START DEPTH
STOP        .FT                                            7546 :STOP DEPTH
STEP        .FT                                             0.5 :STEP      
NULL        .                                           -999.25 :NULL      
COMP        .                   SUN EXPLORATION & PRODUCTION CO :COMPANY   
WELL        .                                BROUSSARD & HEBERT :WELL      
FLD         .                                          LA BELLE :FIELD     
LOC         .                                                   :LOCATION  
CNTY        .                                         JEFFERSON :LOCATION  
STAT        .                                             TEXAS :STATE     
CTRY        .                                     UNITED STATES :COUNTRY   
SRVC        .                                                   :SERVICE COMPANY
DATE        .                             9/13/2023 11:18:46 AM :LOG DATE  
API         .                                    42245319210000 :API NUMBER
UWI         .                                    42245319210000 :UNIQUE WELL ID
XCOORD      .                                  1279394.73540744 :SURFACE X 
YCOORD      .                                  10819915.3695329 :SURFACE Y 
LAT         .                                        29.8083786 :LATITUDE  
LON         .                                       -94.1386839 :LONGITUDE 
ELEV        .FT                                              23 :ELEVATION VALUE
ELEV_TYPE   .                                                KB :ELEVATION REFERENCE TYPE
~Curve Information Section
#MNEM       .UNIT                                      API CODE :CURVE DESCRIPTION
#------------------------------------------------------------------------------
DEPT        .FT                                                 :DEPTH     
DCAL        .IN                                                 :          
DPSS        .V/V                                                :          
DRHO        .G/CM3                                              :          
GR          .GAPI                                               :          
GR_NORM     .GAPI                                               :GammaRay Normalized
ILD         .OHMM                                               :          
ILM         .OHMM                                               :          
NPSS        .V/V                                                :Neutron Porosity Sandstone
SFL         .OHMM                                               :          
SP          .MV                                                 :          
SP_NORM     .MV                                                 :SP Normalized
TENS        .LB                                                 :          
VSH_GR      .V/V                                                :Volume of Shale from GR
VSH_SP      .V/V                                                :Volume of Shale from SP
~A        DEPTH           DCAL           DPSS           DRHO             GR        GR_NORM            ILD            ILM           NPSS            SFL             SP        SP_NORM           TENS         VSH_GR         VSH_SP
# ...
      5774.0000        -999.25        -999.25        -999.25        61.1881       55.96236         0.2314         0.2714        -999.25         0.6138            -36      -35.31428           3410      0.4885609       0.576367
      5774.5000        -999.25        -999.25        -999.25        62.8218       57.80891         0.2726         0.3042        -999.25         0.6393          -34.8      -34.11808           3410      0.5278491      0.5911348
      5775.0000        -999.25        -999.25        -999.25        62.3762       57.30126           0.34         0.3545        -999.25         0.6599          -27.2      -26.52188           3400      0.5170481      0.6849151
      5775.5000        -999.25        -999.25        -999.25        60.1485       54.77592         0.4167         0.4074        -999.25          0.651          -16.6      -15.92568           3400      0.4633174      0.8157324
      5776.0000          -3.08         0.2794        -999.25        61.7822       56.62247         0.4932         0.4649         0.4345         0.6393           -8.8      -8.129482           3420      0.5026057      0.9119817
      5776.5000          -3.08         0.2794        -999.25         64.901       60.15046         0.5865         0.5403         0.4418         0.6451             -5      -4.333283           3420      0.5776693      0.9588484
      5777.0000          -3.08         0.2891        -999.25        68.0198       63.67844          0.672         0.5892         0.5018         0.6364             -2      -1.337084           3420      0.6527327      0.9958385
      5777.5000          -3.08         0.3097        -999.25        71.1386       67.20643         0.7364         0.5973         0.5588            0.6           -0.6     0.05911428           3410      0.7277964              1
      5778.0000          -3.08         0.3333        -999.25        74.2574       70.73441         0.7229         0.5973         0.5818         0.5403              0       0.655313           3410      0.8028598              1
      5778.5000          -3.08         0.3588        -999.25        74.2574       70.73128         0.7032         0.5973         0.5842         0.5281           -0.2      0.4515117           3410      0.8027931              1
      5779.0000           -3.1         0.3745        -999.25        74.1089       70.56001         0.6812         0.5892         0.5776         0.5329             -1     -0.3522896           3410      0.7991492              1
      5779.5000           -3.1         0.3703        -999.25         77.449       74.33855         0.6422         0.5759         0.5697         0.5186             -4      -3.356091           3420      0.8795435      0.9709125
      5780.0000           -3.1         0.3418        -999.25        80.9694       78.32123            0.6         0.5603           0.56         0.5046           -8.4      -7.759892           3440      0.9642814      0.9165446
      5780.5000          -3.12         0.3158        -999.25        80.5102       77.65765         0.5069         0.5403         0.5303         0.6027            -18      -17.36369       3449.851      0.9501627      0.7979791
      5781.0000          -3.12         0.3133        -999.25        75.3061       71.38611         0.3945         0.5162         0.5079         0.6481          -32.2       -31.5675       3449.577      0.8167257      0.6226235
      5781.5000          -3.12         0.3673        -999.25        67.2772       61.71217         0.3014         0.4225         0.5055         0.6781        -45.102       -44.4733       3449.303      0.6108972      0.4632926
      5782.0000          -3.12         0.4121        -999.25           59.7       52.58231         0.2605           0.34         0.5188          0.669       -57.7551       -57.1302       3439.011      0.4166448      0.3070346
      5782.5000          -3.12         0.4455        -999.25          55.05       46.97816         0.2211         0.2789         0.5339         0.6481       -59.3878       -58.7667       3418.686      0.2974077      0.2868309
      5783.0000          -3.12         0.4527        -999.25          54.15        45.8908         0.2151         0.2605         0.5267         0.6393       -51.6327       -51.0154       3418.396      0.2742724      0.3825259
      5783.5000          -3.12         0.4188        -999.25           58.2       50.76558         0.2151         0.2558         0.4982         0.6393          -38.4       -37.7865       3428.138      0.3779911      0.5458456
      5784.0000          -3.12         0.3733        -999.25         64.604       58.47569         0.2211          0.284         0.4691         0.6364          -24.8       -24.1903       3427.853      0.5420359         0.7137
      5784.5000          -3.12         0.3315        -999.25        72.4752       67.95301         0.2411         0.3369         0.4479         0.6422          -13.6       -12.9941       3427.567      0.7436811      0.8519247
      5785.0000          -3.12         0.3164        -999.25        77.7551       74.30919         0.2879         0.3963         0.4545         0.6451             -7      -6.397905       3427.252      0.8789189      0.9333592
      5785.5000          -3.12         0.3339        -999.25        81.5816       78.91476         0.3714         0.4756         0.4794         0.6335             -3      -2.401706       3416.913      0.9769099       0.982695
      5786.0000          -3.12          0.363        -999.25        82.3469       79.83322         0.4932         0.5378         0.5079          0.625             -1     -0.4055076       3426.679      0.9964515              1
      5786.5000          -3.12         0.3782        -999.25        81.1224       78.35501          0.651         0.6138         0.5236          0.654           -0.4      0.1906911       3436.455      0.9650002              1
      5787.0000          -3.12         0.3673        -999.25        79.5918       76.50809         0.7963         0.6937         0.5261         0.7032            0.2      0.7868898       3446.241      0.9257041              1
      5787.5000          -3.12         0.3327        -999.25         77.602       74.10811         0.8919         0.7466         0.5103         0.7854            0.4      0.9830885       3445.963      0.8746406              1
      5788.0000          -3.12         0.3024        -999.25        75.3061       71.33942            0.9         0.7963         0.4861         0.8371              0      0.5792872       3445.686      0.8157322              1
      5788.5000           -3.1         0.2764        -999.25         74.703       70.60966            0.9         0.8183         0.4467         0.8563           -1.2     -0.6245141       3435.324      0.8002056              1
      5789.0000           -3.1         0.2606        -999.25             75       70.96406         0.8409         0.8371           0.42         0.9083           -3.8      -3.228315       3424.953      0.8077459        0.97249
      5789.5000           -3.1          0.257        -999.25        74.5545       70.42413         0.7782          0.822         0.3994         0.9864           -8.8      -8.232117       3424.664       0.796258      0.9107146
      5790.0000           -3.1         0.2691        -999.25        72.3267       67.73746         0.7097         0.7501         0.3939         0.9774          -15.4      -14.83592       3424.375       0.739095      0.8291862
      5790.5000           -3.1         0.3273        -999.25        69.3564       64.15647         0.6279         0.6813           0.42          0.938          -22.2      -21.63972       3424.242      0.6629037      0.7451887
      5791.0000          -3.12         0.3921        -999.25        65.9406       60.03891         0.5867         0.6196         0.4545         0.8841          -26.8      -26.24352       3424.242      0.5752959      0.6883516
      5791.5000          -3.14         0.4085        -999.25        62.6733        56.1002         0.5479         0.5657         0.4685         0.8452          -27.4      -26.84732       3414.141      0.4914936      0.6808973
