#------------------------------------------------------------------------------
# Created by    : vladimir.rabinovich
# Created on    : 09/19/2023 17:22:42
#------------------------------------------------------------------------------
~Version Information Section
VERS.           2.0     :   CWLS log ASCII Standard - VERSION 2.0
WRAP.           NO      :   One line per depth step
~Well Information Section
#MNEM       .UNIT                                         VALUE :DESCRIPTION
#------------------------------------------------------------------------------
STRT        .FT                                             932 :START DEPTH
STOP        .FT                                            7546 :STOP DEPTH
STEP        .FT                                             0.5 :STEP      
NULL        .                                           -999.25 :NULL      
COMP        .                   SUN EXPLORATION & PRODUCTION CO :COMPANY   
WELL        .                                BROUSSARD & HEBERT :WELL      
FLD         .                                          LA BELLE :FIELD     
LOC         .                                                   :LOCATION  
CNTY        .                                         JEFFERSON :LOCATION  
STAT        .                                             TEXAS :STATE     
CTRY        .                                     UNITED STATES :COUNTRY   
SRVC        .                                                   :SERVICE COMPANY
DATE        .                             9/13/2023 11:18:46 AM :LOG DATE  
API         .                                    42245319210000 :API NUMBER
UWI         .                                    42245319210000 :UNIQUE WELL ID
XCOORD      .                                  1279394.73540744 :SURFACE X 
YCOORD      .                                  10819915.3695329 :SURFACE Y 
LAT         .                                        29.8083786 :LATITUDE  
LON         .                                       -94.1386839 :LONGITUDE 
ELEV        .FT                                              23 :ELEVATION VALUE
ELEV_TYPE   .                                                KB :ELEVATION REFERENCE TYPE
~Curve Information Section
#MNEM       .UNIT                                      API CODE :CURVE DESCRIPTION
#------------------------------------------------------------------------------
DEPT        .FT                                                 :DEPTH     
DCAL        .IN                                                 :          
DPSS        .V/V                                                :          
DRHO        .G/CM3                                              :          
GR          .GAPI                                               :          
GR_NORM     .GAPI                                               :GammaRay Normalized
ILD         .OHMM                                               :          
ILM         .OHMM                                               :          
NPSS        .V/V                                                :Neutron Porosity Sandstone
SFL         .OHMM                                               :          
SP          .MV                                                 :          
SP_NORM     .MV                                                 :SP Normalized
TENS        .LB                                                 :          
VSH_GR      .V/V                                                :Volume of Shale from GR
VSH_SP      .V/V                                                :Volume of Shale from SP
~A        DEPTH           DCAL           DPSS           DRHO             GR        GR_NORM            ILD            ILM           NPSS            SFL             SP        SP_NORM           TENS         VSH_GR         VSH_SP
# ...
      4910.0000        -999.25        -999.25        -999.25        78.9796       80.36636         0.8601          0.864        -999.25         0.8719        -1.5842       4.069404       3393.939              1              1
      4910.5000        -999.25        -999.25        -999.25         77.602       78.48689         0.9293            0.9        -999.25         0.8759        -0.7921        4.86009       3353.535       0.967806              1
      4911.0000        -999.25        -999.25        -999.25        81.1224       83.28979         1.0092         0.9209        -999.25         0.8798            0.2       5.850777       3313.131              1              1
      4911.5000        -999.25        -999.25        -999.25        83.8776       87.04871         1.0615         0.9422        -999.25         0.8798              1       6.649363       3262.626              1              1
      4912.0000        -999.25        -999.25        -999.25        84.0306       87.25745         1.1114         0.9596        -999.25         0.8798            1.2       6.847949       3242.424              1              1
      4912.5000        -999.25        -999.25        -999.25        83.5714       86.63097         1.1165         0.9729        -999.25         0.8879            0.8       6.446536       3242.424              1              1
      4913.0000        -999.25        -999.25        -999.25        84.6429        88.0928         1.1268         0.9774        -999.25         0.8919         -0.396       5.249122       3242.424              1              1
      4913.5000        -999.25        -999.25        -999.25        86.1735       90.18102         1.1372         0.9774        -999.25         0.8879        -1.7822       3.861509       3242.424              1              1
      4914.0000        -999.25        -999.25        -999.25        83.4184       86.42224         1.1268         0.9774        -999.25          0.864        -4.3564       1.285895       3242.424              1              1
      4914.5000        -999.25        -999.25        -999.25        79.5918       81.20159         1.0713         0.9684        -999.25         0.8183        -8.1188      -2.477919       3242.424              1      0.9812922
      4915.0000        -999.25        -999.25        -999.25        78.5204       79.73987         0.9774         0.9509        -999.25         0.8036       -13.0693      -7.429832       3232.323      0.9944653      0.9186097
      4915.5000        -999.25        -999.25        -999.25        79.7449       81.41046         0.8485         0.9251        -999.25         0.8146        -19.604      -13.96595       3222.222              1      0.8358741
      4916.0000        -999.25        -999.25        -999.25        79.2857       80.78396            0.7          0.864        -999.25         0.8371          -27.2      -21.56336        3202.02              1      0.7397043
      4916.5000        -999.25        -999.25        -999.25        74.8515       74.73439         0.5892         0.8073        -999.25         0.8601          -34.6      -28.96477       3191.919      0.8879657      0.6460155
      4917.0000        -999.25        -999.25        -999.25        71.4356       70.07404         0.4887          0.687        -999.25         0.8563       -42.8571      -37.22329       3181.818      0.7888094      0.5414773
      4917.5000        -999.25        -999.25        -999.25        69.3564       67.23739         0.4037         0.5707        -999.25            0.8       -49.3878       -43.7554       3171.717      0.7284551      0.4587924
      4918.0000        -999.25        -999.25        -999.25        66.9802       63.99554         0.3472         0.4628        -999.25         0.7263        -54.898      -49.26701       3171.717      0.6594795      0.3890252
      4918.5000        -999.25        -999.25        -999.25        61.1881       56.09334         0.2986         0.3735        -999.25         0.6405       -59.5918      -53.96223       3181.818      0.4913476      0.3295921
      4919.0000        -999.25        -999.25        -999.25          57.45       50.99344         0.2674         0.3317        -999.25         0.5578       -60.7921      -55.16394       3212.121      0.3828391      0.3143805
      4919.5000        -999.25        -999.25        -999.25          57.45       50.99344         0.2405         0.3028        -999.25         0.5023       -60.5941      -54.96735       3252.525      0.3828391      0.3168689
      4920.0000        -999.25        -999.25        -999.25           59.7       54.06313         0.2213         0.2972        -999.25         0.5209       -57.9592      -52.33387       3292.929      0.4481516      0.3502042
      4920.5000        -999.25        -999.25        -999.25        61.0396       55.89075         0.2066         0.2986        -999.25         0.5759       -53.4694      -47.84548       3333.333      0.4870372      0.4070192
      4921.0000        -999.25        -999.25        -999.25          58.95        53.0399         0.2028         0.3014        -999.25         0.6258       -48.7755        -43.153       3343.434      0.4263808      0.4664178
      4921.5000        -999.25        -999.25        -999.25           55.2       47.92376         0.2123         0.3041        -999.25         0.6142       -41.2245      -35.60341       3323.232      0.3175267      0.5619822
      4922.0000        -999.25        -999.25        -999.25           51.9       43.42156         0.2394         0.3069        -999.25            0.6          -29.6      -23.98032       3292.929      0.2217353      0.7091098
      4922.5000        -999.25        -999.25        -999.25          50.55       41.57975         0.2878         0.3183        -999.25            0.6       -16.0396      -10.42134       3242.424      0.1825478      0.8807425
      4923.0000        -999.25        -999.25        -999.25          53.25       45.26337          0.352         0.3787        -999.25         0.6085        -6.7327       -1.11585        3202.02      0.2609227      0.9985335
      4923.5000        -999.25        -999.25        -999.25          58.35       52.22131         0.4225         0.4442        -999.25         0.6199              0       5.615436       3181.818      0.4089641              1
      4924.0000        -999.25        -999.25        -999.25        62.2277       57.51167         0.5115         0.5162        -999.25         0.6316              3       8.614023       3181.818       0.521525              1
      4924.5000        -999.25        -999.25        -999.25        66.8317       63.79293         0.6316            0.6        -999.25         0.6807            3.4       9.012609       3171.717      0.6551687              1
      4925.0000        -999.25        -999.25        -999.25        70.8416       69.26365          0.764         0.7097        -999.25         0.7398              3       8.611195       3181.818       0.771567              1
      4925.5000        -999.25        -999.25        -999.25        78.0612       79.11339         0.8563          0.822        -999.25         0.8036            2.2       7.809782       3212.121      0.9811359              1
      4926.0000        -999.25        -999.25        -999.25         85.102       88.71917         0.9465            0.9        -999.25         0.8409            1.6       7.208368       3242.424              1              1
      4926.5000        -999.25        -999.25        -999.25        89.8469       95.19266         1.0518         0.9166        -999.25         0.8798            1.2       6.806954       3252.525              1              1
      4927.0000        -999.25        -999.25        -999.25        89.3878       94.56631         1.0374         0.9293        -999.25         0.9125            0.4       6.005541       3262.626              1              1
      4927.5000        -999.25        -999.25        -999.25        84.3367       87.67507         1.0092         0.9293        -999.25         0.9166        -0.5941       5.010027       3262.626              1              1
