#------------------------------------------------------------------------------
# Created by    : vladimir.rabinovich
# Created on    : 09/19/2023 17:20:44
#------------------------------------------------------------------------------
~Version Information Section
VERS.           2.0     :   CWLS log ASCII Standard - VERSION 2.0
WRAP.           NO      :   One line per depth step
~Well Information Section
#MNEM       .UNIT                                         VALUE :DESCRIPTION
#------------------------------------------------------------------------------
STRT        .FT                                             390 :START DEPTH
STOP        .FT                                           18486 :STOP DEPTH
STEP        .FT                                             0.5 :STEP      
NULL        .                                           -999.25 :NULL      
COMP        .                           SOCONY MOBIL OIL CO INC :COMPANY   
WELL        .                                     JANIE HAWKINS :WELL      
FLD         .                                           WILDCAT :FIELD     
LOC         .                                                   :LOCATION  
CNTY        .                                         MATAGORDA :LOCATION  
STAT        .                                             TEXAS :STATE     
CTRY        .                                     UNITED STATES :COUNTRY   
SRVC        .                                                   :SERVICE COMPANY
DATE        .                             9/13/2023 11:18:46 AM :LOG DATE  
API         .                                    42321025990000 :API NUMBER
UWI         .                                    42321025990000 :UNIQUE WELL ID
XCOORD      .                                  768943.736103792 :SURFACE X 
YCOORD      .                                  10479372.3345515 :SURFACE Y 
LAT         .                                        28.8489235 :LATITUDE  
LON         .                                       -95.7226077 :LONGITUDE 
ELEV        .FT                                              39 :ELEVATION VALUE
ELEV_TYPE   .                                                KB :ELEVATION REFERENCE TYPE
~Curve Information Section
#MNEM       .UNIT                                      API CODE :CURVE DESCRIPTION
#------------------------------------------------------------------------------
DEPT        .FT                                                 :DEPTH     
ASN         .OHMM                                               :          
CILD        .MMHO                                               :          
SP          .MV                                                 :          
SP_NORM     .MV                                                 :SP Normalized
VSH_SP      .V/V                                                :Volume of Shale from SP
~A        DEPTH            ASN           CILD             SP        SP_NORM         VSH_SP
       390.0000         3.7529       140.7781       -39.5063       2.469006      0.8456872
       390.5000         3.7766       151.8093       -39.9526       2.022709      0.8735807
       391.0000         3.8004       159.8513       -40.3458       1.629509      0.8981557
       391.5000         3.8241       166.6594       -40.7081       1.267208      0.9207995
       392.0000         3.8479       174.1399       -41.0253      0.9500084      0.9406245
       392.5000         3.8726       184.4282       -41.3425      0.6328087      0.9604495
       393.0000         3.8986       194.7173       -41.6598       0.315506      0.9802809
       393.5000         3.9247       204.9878        -41.977   -0.001693726              1
       394.0000         3.9508       215.0278       -42.2943     -0.3189926              1
       394.5000         3.9769       223.2187       -42.5406     -0.5652924              1
       395.0000          4.003       218.5205       -42.7722     -0.7968941              1
       395.5000         4.0308       213.8972       -43.0038      -1.024948              1
       396.0000          4.061        210.686       -43.2355      -1.207527              1
       396.5000         4.0912       207.4746       -43.4671      -1.390007              1
       397.0000         4.1214       204.2632       -43.5673       -1.44109              1
       397.5000         4.1517       201.0518       -43.6512      -1.475868              1
       398.0000         4.1819       195.9426        -43.735      -1.510551              1
       398.5000         4.2317       190.0151       -43.8188      -1.545235              1
       399.0000         4.2835       184.0872       -43.9027      -1.580009              1
       399.5000         4.3353       178.1592       -43.9865      -1.614693              1
       400.0000          4.387       172.2314       -44.1254      -1.704475              1
       400.5000         4.4388       167.2534       -44.2723      -1.802254              1
       401.0000         4.4905       162.5898       -44.4194      -1.900234              1
       401.5000          4.542        157.926       -44.5664      -1.998112              1
       402.0000         4.5935       154.5508       -44.7134      -2.095997              1
       402.5000          4.583        156.781       -44.8605      -2.193977              1
       403.0000         4.5316       159.0115       -44.9988      -2.283154              1
       403.5000          4.483       161.2417       -45.1088      -2.344036              1
       404.0000         4.4345       168.5349       -45.2188      -2.404919              1
       404.5000         4.3889       175.8892       -45.3288      -2.465797              1
       405.0000         4.3453       183.2432       -45.4388       -2.52668              1
       405.5000         4.3016       190.5974       -45.5488      -2.587563              1
       406.0000          4.258       197.9946       -45.6588      -2.648438              1
       406.5000         4.2165       205.4673       -45.7687      -2.709221              1
       407.0000          4.183       212.9402       -45.8787        -2.7701              1
       407.5000         4.1494       220.4133       -45.9628       -2.80508              1
       408.0000         4.1159       227.8857       -46.0334      -2.826565              1
       408.5000         4.0823       235.3589       -46.1039      -2.847942              1
       409.0000         4.0488       241.3682       -46.1746      -2.869522              1
       409.5000         4.0155       244.1965       -46.2451      -2.890903              1
       410.0000         3.9922       235.8525       -46.3157      -2.912384              1
       410.5000         4.0273       225.6934       -46.3863      -2.933865              1
       411.0000         4.0739       210.9509       -46.4568      -2.955246              1
       411.5000         4.1204        196.209       -46.4786      -2.927925              1
       412.0000         4.1669       181.4663       -46.4934      -2.893608              1
       412.5000         4.2112       166.7246       -46.5082      -2.859287              1
       413.0000         4.2496       157.3525        -46.523      -2.824966              1
       413.5000         4.2881       148.9504       -46.5378      -2.790649              1
       414.0000         4.3265       150.2832       -46.5181      -2.721828              1
       414.5000         4.3649       156.1965       -46.4825      -2.637108              1
       415.0000         4.4034       162.5339       -46.4471      -2.552593              1
       415.5000         4.4419       170.0251       -46.4116      -2.467968              1
       416.0000         4.4809       177.5161        -46.376      -2.383251              1
       416.5000           4.52       185.0073       -46.3405      -2.298634              1
       417.0000          4.559       191.8884        -46.305      -2.214012              1
       417.5000          4.598       183.0361       -46.2695      -2.129395              1
       418.0000         4.6371       171.7388       -46.2339      -2.044674              1
       418.5000         4.6772       160.4404       -46.2128      -1.974453              1
       419.0000         4.7222       149.1431       -46.1978      -1.910336              1
       419.5000         4.7672        138.646       -46.1828      -1.846214              1
       420.0000         4.8122       129.7991       -46.1677      -1.781998              1
       420.5000         4.8572       120.9524       -46.1527      -1.717876              1
       421.0000         4.8446       112.1056       -46.1377      -1.653755              1
       421.5000         4.8203       106.3555       -46.1226      -1.589539              1
       422.0000         4.7942       105.4738       -46.1076      -1.525421              1
       422.5000         4.7268       108.0912       -46.0926        -1.4613              1
       423.0000         4.6594       113.0684       -46.0776      -1.397179              1
       423.5000          4.592        118.045       -46.0625      -1.332962              1
       424.0000         4.5163       123.0221        -46.061      -1.282341              1
       424.5000         4.4392       127.9989       -46.0606      -1.232822              1
       425.0000          4.362       138.7913       -46.0602        -1.1833              1
       425.5000         4.2952       149.6936       -46.0598      -1.133781              1
       426.0000         4.2303       160.3027       -46.0594      -1.084263              1
       426.5000         4.1654       169.2231        -46.059       -1.03474              1
       427.0000         4.1083        178.144       -46.0587     -0.9853249              1
       427.5000         4.0555       187.0645       -46.0582     -0.9357071              1
       428.0000         4.0027       195.9846       -46.0579     -0.8862839              1
       428.5000         3.9587       203.7607       -46.0574     -0.8366661              1
       429.0000         3.9162       211.0664       -46.0571     -0.7872467              1
       429.5000         3.8737       218.3723       -46.0566     -0.7376251              1
       430.0000         3.8312       225.6785       -46.0563     -0.6882095              1
       430.5000         3.7891       232.9844       -46.0558      -0.638588              1
       431.0000         3.7528        240.002        -46.059     -0.5926666              1
       431.5000         3.7164         243.24       -46.0686     -0.5531502              1
       432.0000           3.68        246.478       -46.0782     -0.5136299              1
       432.5000         3.6437       249.7163       -46.0878     -0.4741096              1
       433.0000         3.6032       252.9543       -46.0975     -0.4346924              1
       433.5000         3.5683       252.3218       -46.1071     -0.3951721              1
