#------------------------------------------------------------------------------
# Created by    : vladimir.rabinovich
# Created on    : 09/19/2023 17:20:44
#------------------------------------------------------------------------------
~Version Information Section
VERS.           2.0     :   CWLS log ASCII Standard - VERSION 2.0
WRAP.           NO      :   One line per depth step
~Well Information Section
#MNEM       .UNIT                                         VALUE :DESCRIPTION
#------------------------------------------------------------------------------
STRT        .FT                                             390 :START DEPTH
STOP        .FT                                           18486 :STOP DEPTH
STEP        .FT                                             0.5 :STEP      
NULL        .                                           -999.25 :NULL      
COMP        .                           SOCONY MOBIL OIL CO INC :COMPANY   
WELL        .                                     JANIE HAWKINS :WELL      
FLD         .                                           WILDCAT :FIELD     
LOC         .                                                   :LOCATION  
CNTY        .                                         MATAGORDA :LOCATION  
STAT        .                                             TEXAS :STATE     
CTRY        .                                     UNITED STATES :COUNTRY   
SRVC        .                                                   :SERVICE COMPANY
DATE        .                             9/13/2023 11:18:46 AM :LOG DATE  
API         .                                    42321025990000 :API NUMBER
UWI         .                                    42321025990000 :UNIQUE WELL ID
XCOORD      .                                  768943.736103792 :SURFACE X 
YCOORD      .                                  10479372.3345515 :SURFACE Y 
LAT         .                                        28.8489235 :LATITUDE  
LON         .                                       -95.7226077 :LONGITUDE 
ELEV        .FT                                              39 :ELEVATION VALUE
ELEV_TYPE   .                                                KB :ELEVATION REFERENCE TYPE
~Curve Information Section
#MNEM       .UNIT                                      API CODE :CURVE DESCRIPTION
#------------------------------------------------------------------------------
DEPT        .FT                                                 :DEPTH     
ASN         .OHMM                                               :          
CILD        .MMHO                                               :          
SP          .MV                                                 :          
SP_NORM     .MV                                                 :SP Normalized
VSH_SP      .V/V                                                :Volume of Shale from SP
~A        DEPTH            ASN           CILD             SP        SP_NORM         VSH_SP
# ...
     14822.0000         0.9672        1241.16       -23.9667       1.327394              1
     14822.5000         0.9302       1247.529       -23.9782       1.315626              1
     14823.0000         0.9185       1253.898       -23.9962       1.297361              1
     14823.5000         0.9081       1260.266        -24.014       1.279295              1
     14824.0000         0.9049       1266.646        -24.032       1.261028              1
     14824.5000         0.9017       1273.016       -24.0499       1.242861              1
     14825.0000         0.8985       1278.477       -24.0678       1.224693              1
     14825.5000         0.8953       1279.596       -24.0857       1.206528              1
     14826.0000         0.8948       1280.713       -24.1036        1.18836              1
     14826.5000         0.8953       1281.834       -24.1215       1.170193              1
     14827.0000         0.8959       1282.953       -24.1394       1.152025              1
     14827.5000         0.8964        1284.07       -24.1503        1.14086              1
     14828.0000          0.897       1285.189       -24.1376       1.153292              1
     14828.5000         0.8975       1286.311        -24.125       1.165625              1
     14829.0000         0.8954        1287.43       -24.1124       1.177959              1
     14829.5000         0.8911       1288.547       -24.0998       1.190292              1
     14830.0000         0.8869       1289.666       -24.0872       1.202625              1
     14830.5000         0.8826       1290.787       -24.0746       1.214958              1
     14831.0000         0.8784       1291.904        -24.062       1.227291              1
     14831.5000         0.8756       1293.578       -24.0494       1.239624              1
     14832.0000         0.8729       1295.592       -24.0368       1.251957              1
     14832.5000         0.8702       1297.611       -24.0242        1.26429              1
     14833.0000         0.8675       1299.623       -24.0206       1.267624              1
     14833.5000         0.8648       1301.643       -24.0368       1.251156              1
     14834.0000         0.8621       1303.656       -24.0529       1.234789              1
     14834.5000         0.8594       1305.676       -24.0691       1.218323              1
     14835.0000         0.8573       1307.689       -24.0853       1.201855              1
     14835.5000         0.8591       1309.152       -24.1014        1.18549              1
     14836.0000          0.861       1309.881       -24.1176       1.169024              1
     14836.5000         0.8628       1310.609       -24.1338       1.152555              1
     14837.0000         0.8646       1311.338       -24.1499       1.136189              1
     14837.5000         0.8665       1312.066       -24.1661       1.119722              1
     14838.0000         0.8683       1312.797       -24.1823       1.103254              1
     14838.5000         0.8703       1313.197       -24.1974       1.087889              1
     14839.0000         0.8727       1308.414       -24.2078       1.077221              1
     14839.5000         0.8751       1303.619       -24.2182       1.066553              1
     14840.0000         0.8774       1298.824       -24.2287       1.055786              1
     14840.5000         0.8798       1294.029       -24.2391        1.04512              1
     14841.0000         0.8822       1289.234       -24.2495       1.034452              1
     14841.5000         0.8846       1284.451       -24.2599       1.023788              1
     14842.0000          0.887       1279.656       -24.2569        1.02652              1
     14842.5000         0.8866       1274.861       -24.2458       1.037354              1
     14843.0000         0.8857       1270.066       -24.2348       1.048086              1
     14843.5000         0.8847       1268.102       -24.2237        1.05892              1
     14844.0000         0.8838       1268.084       -24.2126       1.069752              1
     14844.5000         0.8829       1268.066       -24.2015       1.080585              1
     14845.0000         0.8822       1268.049       -24.1905       1.091318              1
     14845.5000         0.8855       1266.715       -24.1794       1.102152              1
     14846.0000         0.8889       1263.531       -24.1683       1.112984              1
     14846.5000         0.8922       1260.348       -24.1573       1.123716              1
     14847.0000         0.8955       1257.162       -24.1462        1.13455              1
     14847.5000         0.8988       1253.984       -24.1351       1.145384              1
     14848.0000         0.9022       1250.801        -24.124       1.156218              1
     14848.5000         0.9055       1247.615       -24.1192       1.160751              1
     14849.0000         0.9088       1244.432       -24.1149       1.164783              1
     14849.5000         0.9156       1238.236       -24.1106       1.168818              1
     14850.0000         0.9225       1231.707       -24.1064        1.17275              1
     14850.5000         0.9295       1225.189       -24.1021       1.176783              1
     14851.0000         0.9364        1218.66       -24.0978       1.180817              1
     14851.5000         0.9301       1212.143       -24.0935       1.184849              1
     14852.0000         0.9152       1205.625       -24.0892       1.188883              1
     14852.5000         0.9071       1211.609       -24.0849       1.192915              1
     14853.0000         0.8993       1220.631       -24.0806       1.196947              1
     14853.5000         0.8915        1229.65       -24.0763       1.200981              1
     14854.0000         0.8903        1238.67       -24.0721       1.204914              1
     14854.5000         0.8899       1246.066       -24.0677       1.209049              1
     14855.0000         0.8921       1244.553       -24.0634       1.213081              1
     14855.5000         0.8943       1243.035       -24.0592       1.217014              1
     14856.0000         0.8965       1241.518       -24.0494       1.226547              1
     14856.5000         0.8987           1240       -24.0364       1.239281              1
     14857.0000         0.9009       1237.988       -24.0235       1.251913              1
     14857.5000         0.9031       1235.232       -24.0105       1.264647              1
     14858.0000         0.9011       1232.469       -23.9975        1.27738              1
     14858.5000         0.8991       1229.713       -23.9845       1.290112              1
     14859.0000          0.897       1234.756       -23.9716       1.302746              1
     14859.5000         0.8945        1244.32       -23.9586       1.315479              1
     14860.0000         0.8903        1253.91       -23.9456       1.328211              1
     14860.5000          0.886       1263.475       -23.9326       1.340946              1
     14861.0000         0.8817       1273.064       -23.9197       1.353579              1
     14861.5000         0.8775       1282.631       -23.9067       1.366312              1
     14862.0000         0.8826       1280.549       -23.8937       1.379045              1
     14862.5000         0.8904       1274.838       -23.8808       1.391678              1
     14863.0000          0.897       1269.125       -23.8754       1.396811              1
     14863.5000         0.9001       1263.934       -23.8766       1.395344              1
     14864.0000         0.9032       1259.436       -23.8777       1.393976              1
     14864.5000         0.9062       1254.951       -23.8788       1.392611              1
     14865.0000         0.9093       1250.453       -23.8799       1.391243              1
     14865.5000         0.9124       1245.969       -23.8811       1.389776              1
