#------------------------------------------------------------------------------
# Created by    : vladimir.rabinovich
# Created on    : 09/19/2023 17:20:44
#------------------------------------------------------------------------------
~Version Information Section
VERS.           2.0     :   CWLS log ASCII Standard - VERSION 2.0
WRAP.           NO      :   One line per depth step
~Well Information Section
#MNEM       .UNIT                                         VALUE :DESCRIPTION
#------------------------------------------------------------------------------
STRT        .FT                                             390 :START DEPTH
STOP        .FT                                           18486 :STOP DEPTH
STEP        .FT                                             0.5 :STEP      
NULL        .                                           -999.25 :NULL      
COMP        .                           SOCONY MOBIL OIL CO INC :COMPANY   
WELL        .                                     JANIE HAWKINS :WELL      
FLD         .                                           WILDCAT :FIELD     
LOC         .                                                   :LOCATION  
CNTY        .                                         MATAGORDA :LOCATION  
STAT        .                                             TEXAS :STATE     
CTRY        .                                     UNITED STATES :COUNTRY   
SRVC        .                                                   :SERVICE COMPANY
DATE        .                             9/13/2023 11:18:46 AM :LOG DATE  
API         .                                    42321025990000 :API NUMBER
UWI         .                                    42321025990000 :UNIQUE WELL ID
XCOORD      .                                  768943.736103792 :SURFACE X 
YCOORD      .                                  10479372.3345515 :SURFACE Y 
LAT         .                                        28.8489235 :LATITUDE  
LON         .                                       -95.7226077 :LONGITUDE 
ELEV        .FT                                              39 :ELEVATION VALUE
ELEV_TYPE   .                                                KB :ELEVATION REFERENCE TYPE
~Curve Information Section
#MNEM       .UNIT                                      API CODE :CURVE DESCRIPTION
#------------------------------------------------------------------------------
DEPT        .FT                                                 :DEPTH     
ASN         .OHMM                                               :          
CILD        .MMHO                                               :          
SP          .MV                                                 :          
SP_NORM     .MV                                                 :SP Normalized
VSH_SP      .V/V                                                :Volume of Shale from SP
~A        DEPTH            ASN           CILD             SP        SP_NORM         VSH_SP
# ...
      3998.0000         1.4413       1365.404       -95.0338      -53.10772      0.3566948
      3998.5000         1.4697        1438.43       -88.9349      -47.00636      0.4320203
      3999.0000         1.5147       1476.316       -83.1613      -41.23029      0.5033297
      3999.5000         0.9357       1514.723       -72.3588      -30.42533      0.6367243
      4000.0000         0.8603       1566.246       -56.4039      -14.46796      0.8337288
      4000.5000         0.8255       1563.623       -48.3685      -6.430099      0.9329618
      4001.0000         0.7988       1541.945       -46.5158      -4.574936       0.955865
      4001.5000         0.7768       1518.695       -45.1766      -3.233273      0.9724287
      4002.0000         0.7678       1505.926       -44.0407      -2.094906      0.9864826
      4002.5000         0.7589       1508.326       -42.9049     -0.9566422              1
      4003.0000         0.7509       1515.719       -42.2003     -0.2495766              1
      4003.5000         0.7458       1529.893       -42.2924     -0.3392143              1
      4004.0000         0.7408       1548.947       -43.1816      -1.225948      0.9972105
      4004.5000         0.7357       1578.842       -44.2509      -2.292786      0.9840397
      4005.0000         0.7307       1609.898       -45.3202      -3.359623      0.9708688
      4005.5000         0.7282       1643.652       -46.5812      -4.618156      0.9553314
      4006.0000         0.7262       1688.541       -47.9321      -5.966587      0.9386841
      4006.5000         0.7241       1717.223        -49.283      -7.315025      0.9220367
      4007.0000         0.7221       1745.928       -50.3961      -8.425659      0.9083252
      4007.5000           0.72       1770.205       -50.9948      -9.021896      0.9009643
      4008.0000         0.7193       1794.158       -51.1588      -9.183594       0.898968
      4008.5000         0.7186       1818.162       -51.1873       -9.21632      0.8985639
      4009.0000          0.718       1852.066       -51.2158      -9.249039        0.89816
      4009.5000         0.7174        1851.42       -51.2443      -9.281761       0.897756
      4010.0000         0.7168       1848.246       -50.7055      -8.747185      0.9043558
      4010.5000         0.7161       1845.072       -49.9622      -8.008106      0.9134802
      4011.0000         0.7155         1841.9       -48.9989      -7.049026      0.9253207
      4011.5000         0.7161       1838.727        -47.791      -5.845348      0.9401809
      4012.0000         0.7172       1835.516       -47.3417      -5.400272      0.9456757
      4012.5000         0.7182       1831.393       -49.3755       -7.43829      0.9205149
      4013.0000         0.7192        1827.27       -51.1646      -9.231613      0.8983752
      4013.5000         0.7202       1823.146       -52.1273      -10.19854      0.8864378
      4014.0000         0.7243       1819.023         -53.09      -11.16546      0.8745005
      4014.5000         0.7291         1814.9       -54.0243      -12.10398      0.8629138
      4015.0000         0.7357       1810.779       -55.0825       -13.1664      0.8497975
      4015.5000          0.748       1810.115       -57.2543      -15.34242      0.8229331
      4016.0000         0.8129       1889.928        -60.506      -18.59834      0.7827365
      4016.5000         0.9487       2053.551       -63.5037      -21.60027      0.7456757
      4017.0000         1.0824       2181.637       -66.9056      -25.00639      0.7036248
      4017.5000         1.2549       2309.824       -74.5034      -32.60841      0.6097727
      4018.0000         1.3845        2437.91       -91.9326      -50.04183      0.3945453
      4018.5000         1.5146       2565.996        -96.094      -54.20745      0.3431178
      4019.0000         1.6521       2694.086       -98.2498      -56.36748      0.3164509
      4019.5000         1.6939       2822.172      -100.0951        -58.217      0.2936173
      4020.0000         1.6393       2950.359       -99.6649      -57.79102      0.2988763
      4020.5000         1.4871       2565.996       -94.8934      -53.02374      0.3577316
      4021.0000         0.8493        2403.66       -90.2834      -48.41796       0.414593
      4021.5000         0.8153       2241.324       -82.5747      -40.71348      0.5097101
      4022.0000         0.7924       2078.891       -77.8883       -36.0313      0.5675148
      4022.5000         0.7785       1983.814        -69.048      -27.19522      0.6766022
      4023.0000         0.7688       1912.545       -64.5267      -22.67815      0.7323685
      4023.5000         0.7597       1841.227       -59.1994      -17.35507      0.7980855
      4024.0000         0.7598       1769.957       -54.3824      -12.54229      0.8575025
      4024.5000         0.7598       1698.639       -51.4216      -9.585716      0.8940035
      4025.0000         0.7598       1631.799       -49.1844      -7.352734      0.9215712
      4025.5000         0.7599       1586.266       -47.7102      -5.882759       0.939719
      4026.0000          0.758       1552.178       -46.2348      -4.411579      0.9578817
      4026.5000          0.756       1567.545       -44.8829        -3.0639      0.9745197
      4027.0000          0.754       1587.713       -44.2352      -2.420422       0.982464
      4027.5000         0.7519       1609.365       -43.5875      -1.776947      0.9904081
      4028.0000         0.7499       1631.006       -42.9391      -1.132767      0.9983609
      4028.5000         0.7482       1648.662       -42.6794     -0.8772888              1
      4029.0000         0.7468       1665.615       -42.7275     -0.9296112              1
      4029.5000         0.7455       1682.566       -42.7756     -0.9819336              1
      4030.0000         0.7441       1699.518       -43.2068      -1.417351      0.9948475
      4030.5000         0.7427       1711.186       -43.6938      -1.908577       0.988783
      4031.0000         0.7413       1718.102        -44.181      -2.399998      0.9827161
      4031.5000         0.7401       1715.979       -44.6678      -2.891018      0.9766541
      4032.0000         0.7393       1709.471        -45.155      -3.382439      0.9705872
      4032.5000         0.7384       1698.373       -45.6949      -3.926563      0.9638696
      4033.0000         0.7376       1687.279       -45.5396      -3.775486      0.9657347
      4033.5000         0.7367       1676.182        -43.854      -2.094105      0.9864925
      4034.0000         0.7358       1663.906       -42.6923     -0.9366264              1
      4034.5000          0.735       1650.408       -41.5299        0.22155              1
      4035.0000         0.7341       1636.922       -40.3682       1.379032              1
      4035.5000         0.7331       1623.422       -39.3654       2.377609              1
      4036.0000         0.7319       1629.287       -38.8259       2.912884              1
      4036.5000         0.7307       1645.508       -38.2866       3.447964              1
      4037.0000         0.7295       1661.729       -37.7473       3.983044              1
      4037.5000         0.7284        1676.65       -37.2078       4.518318              1
      4038.0000         0.7281       1691.549       -36.9216       4.800297              1
      4038.5000         0.7302       1706.445        -37.145       4.572678              1
      4039.0000         0.7335       1719.426       -39.3198       2.393654              1
      4039.5000         0.7391       1731.594       -41.5878      0.1214333              1
      4040.0000         0.7447        1743.77       -44.1664      -2.461391      0.9819582
      4040.5000         0.7503       1755.938       -46.3383      -4.637508      0.9550925
      4041.0000         0.7559       1752.104       -47.7238      -6.027233      0.9379354
      4041.5000         0.7615       1738.926       -49.1093      -7.416954      0.9207783
