#------------------------------------------------------------------------------
# Created by    : vladimir.rabinovich
# Created on    : 09/19/2023 17:20:44
#------------------------------------------------------------------------------
~Version Information Section
VERS.           2.0     :   CWLS log ASCII Standard - VERSION 2.0
WRAP.           NO      :   One line per depth step
~Well Information Section
#MNEM       .UNIT                                         VALUE :DESCRIPTION
#------------------------------------------------------------------------------
STRT        .FT                                             390 :START DEPTH
STOP        .FT                                           18486 :STOP DEPTH
STEP        .FT                                             0.5 :STEP      
NULL        .                                           -999.25 :NULL      
COMP        .                           SOCONY MOBIL OIL CO INC :COMPANY   
WELL        .                                     JANIE HAWKINS :WELL      
FLD         .                                           WILDCAT :FIELD     
LOC         .                                                   :LOCATION  
CNTY        .                                         MATAGORDA :LOCATION  
STAT        .                                             TEXAS :STATE     
CTRY        .                                     UNITED STATES :COUNTRY   
SRVC        .                                                   :SERVICE COMPANY
DATE        .                             9/13/2023 11:18:46 AM :LOG DATE  
API         .                                    42321025990000 :API NUMBER
UWI         .                                    42321025990000 :UNIQUE WELL ID
XCOORD      .                                  768943.736103792 :SURFACE X 
YCOORD      .                                  10479372.3345515 :SURFACE Y 
LAT         .                                        28.8489235 :LATITUDE  
LON         .                                       -95.7226077 :LONGITUDE 
ELEV        .FT                                              39 :ELEVATION VALUE
ELEV_TYPE   .                                                KB :ELEVATION REFERENCE TYPE
~Curve Information Section
#MNEM       .UNIT                                      API CODE :CURVE DESCRIPTION
#------------------------------------------------------------------------------
DEPT        .FT                                                 :DEPTH     
ASN         .OHMM                                               :          
CILD        .MMHO                                               :          
SP          .MV                                                 :          
SP_NORM     .MV                                                 :SP Normalized
VSH_SP      .V/V                                                :Volume of Shale from SP
~A        DEPTH            ASN           CILD             SP        SP_NORM         VSH_SP
# ...
      6418.0000         1.3417       585.2637       -49.6808      -12.52765       0.862766
      6418.5000         1.3294       582.6172       -48.8661      -11.71524      0.8724376
      6419.0000         1.3482       582.3096       -48.0955      -10.94693      0.8815842
      6419.5000         1.3757       593.0205       -47.4308      -10.28452        0.88947
      6420.0000         1.4109       614.9248       -47.0043      -9.860306      0.8945202
      6420.5000         1.4342       657.9648       -46.5368      -9.395096      0.9000584
      6421.0000         1.4216       710.6855       -45.9577      -8.818283      0.9069252
      6421.5000         1.4089       759.0371       -45.1027      -7.965572      0.9170765
      6422.0000         1.3621       795.5742       -44.0388      -6.903961      0.9297147
      6422.5000          1.306       824.8379       -42.9365      -5.803951      0.9428101
      6423.0000         1.2676       822.5049       -41.9035      -4.773239      0.9550805
      6423.5000           1.24       813.8672       -40.8892      -3.761227      0.9671283
      6424.0000         1.2318       796.5166       -40.4373      -3.311619      0.9724807
      6424.5000         1.3263        779.167       -40.3609      -3.237507       0.973363
      6425.0000         1.4118        761.792       -40.2845      -3.163395      0.9742453
      6425.5000         1.5379       745.2861         -40.17      -3.051182      0.9755812
      6426.0000         1.6034       729.0781       -38.9366      -1.820072      0.9902372
      6426.5000          1.668        722.252       -39.1388      -2.024563      0.9878028
      6427.0000         1.7027       739.0312       -39.3408      -2.228851      0.9853708
      6427.5000         1.6782        755.835       -39.3496      -2.239941      0.9852388
      6428.0000         1.4766       795.0771       -39.2206      -2.113228      0.9867473
      6428.5000         1.3806       843.5283        -38.744      -1.638916      0.9923939
      6429.0000         1.2501       893.2207       -38.1643      -1.061504      0.9992678
      6429.5000         1.1929        971.209       -37.5846     -0.4840927              1
      6430.0000         1.1612       1061.707        -36.928      0.1702156              1
      6430.5000          1.154       1100.727       -36.1939      0.9020271              1
      6431.0000         1.1483       1121.154       -35.6877       1.405941              1
      6431.5000         1.1423       1121.488       -35.9149       1.176449              1
      6432.0000         1.1374       1108.271       -36.1418      0.9472618              1
      6432.5000         1.1327       1095.055        -36.371      0.7157745              1
      6433.0000         1.1279       1081.836       -36.6251      0.4593849              1
      6433.5000         1.1308       1066.758       -36.8793      0.2028961              1
      6434.0000         1.1595       1051.344       -37.1335    -0.05359268              1
      6434.5000         1.1937        1035.93       -37.3878     -0.3101807              1
      6435.0000          1.203       1020.528        -37.642     -0.5666695              1
      6435.5000         1.2122       1005.114       -37.7903     -0.7172585              1
      6436.0000         1.2214       991.0537       -37.8923     -0.8215485              1
      6436.5000         1.2304       977.4141       -37.9941     -0.9256363              1
      6437.0000         1.2375       963.7627       -38.0961      -1.029926      0.9993892
      6437.5000         1.2447        950.123       -38.1979      -1.134014       0.997265
      6438.0000          1.246       935.7148       -38.1537      -1.092106      0.9981203
      6438.5000         1.2403       919.3818       -38.0931      -1.033794      0.9993103
      6439.0000         1.2347       905.7432       -38.0325     -0.9754829              1
      6439.5000         1.2291       900.5059       -37.9718     -0.9170723              1
      6440.0000          1.216       908.8828       -37.9111     -0.8586578              1
      6440.5000         1.2023       955.7207       -37.7905     -0.7403488              1
      6441.0000         1.1885       1016.482       -37.6616     -0.6137352              1
      6441.5000         1.1748       1081.316       -37.5328     -0.4872246              1
      6442.0000         1.1519       1139.199       -37.4041     -0.3608131              1
      6442.5000         1.1279        1215.35       -37.3322     -0.2912025              1
      6443.0000         1.1187       1278.941       -37.2909     -0.2521935              1
      6443.5000         1.1225       1299.047       -38.4092      -1.374454      0.9923581
      6444.0000         1.1362       1304.582       -41.9792      -4.952961      0.9193273
      6444.5000         1.1519       1281.424       -43.4399      -6.422169      0.8893435
      6445.0000         1.1676       1258.266       -44.2558      -7.246574      0.8725189
      6445.5000         1.1833       1235.133       -44.4393      -7.438587      0.8686002
      6446.0000          1.187       1217.484       -43.3742      -6.381992      0.8901634
      6446.5000         1.1845        1200.01        -42.309      -5.325298      0.9117286
      6447.0000         1.1741       1199.203       -41.2438      -4.268608      0.9332937
      6447.5000           1.16       1213.563       -40.1688      -3.202114      0.9550589
      6448.0000         1.1458       1227.922       -39.5109      -2.552719      0.9683118
      6448.5000         1.1317        1244.02       -39.9734      -3.023727      0.9586995
      6449.0000         1.1427       1263.131       -40.4366      -3.495434      0.9490728
      6449.5000         1.1674        1249.07       -41.0522      -4.119541      0.9363359
      6450.0000         1.1925       1218.676       -41.7994      -4.875248      0.9209133
      6450.5000         1.2175       1182.486       -42.5471      -5.631454      0.9054805
      6451.0000         1.2314       1138.504       -43.2502      -6.343063      0.8909579
      6451.5000         1.2239       1092.385       -42.1131       -5.21447      0.9139904
      6452.0000         1.2049       1038.127       -40.6226      -3.732479      0.9442351
      6452.5000         1.1858       1006.901       -39.1235      -2.241886      0.9746554
      6453.0000         1.1712       993.7217       -37.8326     -0.9594917              1
      6453.5000         1.1804        1003.65       -36.8046     0.06000137              1
      6454.0000         1.1892       1013.566       -35.9626      0.8934937              1
      6454.5000         1.1947       1023.482       -35.4468       1.400787              1
      6455.0000         1.1995       1034.627        -34.931       1.908081              1
      6455.5000         1.1982       1045.883       -34.4146       2.415974              1
      6456.0000         1.1994        1019.56       -34.3167       2.505367              1
      6456.5000         1.2221        978.457       -34.4075       2.406055              1
      6457.0000         1.2447       937.3525       -34.4984       2.306648              1
      6457.5000          1.267       896.1494        -34.629       2.167542              1
      6458.0000         1.3152       845.2656       -35.1474       1.640636              1
      6458.5000          1.352       797.0137       -35.6663       1.113228              1
      6459.0000         1.3809       758.1934       -36.1846       0.586422              1
      6459.5000         1.4051       733.3721       -36.7036     0.05891418              1
      6460.0000         1.4432       718.7646        -37.233     -0.4789925              1
      6460.5000          1.487       741.8105       -37.8134      -1.067898      0.9986143
      6461.0000         1.4646       767.9971       -37.2585     -0.5215034              1
      6461.5000         1.4235       795.0771       -36.4277      0.3007889              1
