#------------------------------------------------------------------------------
# Created by    : vladimir.rabinovich
# Created on    : 09/19/2023 17:20:44
#------------------------------------------------------------------------------
~Version Information Section
VERS.           2.0     :   CWLS log ASCII Standard - VERSION 2.0
WRAP.           NO      :   One line per depth step
~Well Information Section
#MNEM       .UNIT                                         VALUE :DESCRIPTION
#------------------------------------------------------------------------------
STRT        .FT                                             390 :START DEPTH
STOP        .FT                                           18486 :STOP DEPTH
STEP        .FT                                             0.5 :STEP      
NULL        .                                           -999.25 :NULL      
COMP        .                           SOCONY MOBIL OIL CO INC :COMPANY   
WELL        .                                     JANIE HAWKINS :WELL      
FLD         .                                           WILDCAT :FIELD     
LOC         .                                                   :LOCATION  
CNTY        .                                         MATAGORDA :LOCATION  
STAT        .                                             TEXAS :STATE     
CTRY        .                                     UNITED STATES :COUNTRY   
SRVC        .                                                   :SERVICE COMPANY
DATE        .                             9/13/2023 11:18:46 AM :LOG DATE  
API         .                                    42321025990000 :API NUMBER
UWI         .                                    42321025990000 :UNIQUE WELL ID
XCOORD      .                                  768943.736103792 :SURFACE X 
YCOORD      .                                  10479372.3345515 :SURFACE Y 
LAT         .                                        28.8489235 :LATITUDE  
LON         .                                       -95.7226077 :LONGITUDE 
ELEV        .FT                                              39 :ELEVATION VALUE
ELEV_TYPE   .                                                KB :ELEVATION REFERENCE TYPE
~Curve Information Section
#MNEM       .UNIT                                      API CODE :CURVE DESCRIPTION
#------------------------------------------------------------------------------
DEPT        .FT                                                 :DEPTH     
ASN         .OHMM                                               :          
CILD        .MMHO                                               :          
SP          .MV                                                 :          
SP_NORM     .MV                                                 :SP Normalized
VSH_SP      .V/V                                                :Volume of Shale from SP
~A        DEPTH            ASN           CILD             SP        SP_NORM         VSH_SP
# ...
     16010.0000         0.8993       1216.381       -25.4108     -0.7909279              1
     16010.5000         0.8962       1222.859       -25.3945     -0.7752361              1
     16011.0000         0.8943       1229.354        -25.378     -0.7593422              1
     16011.5000         0.8923       1235.846       -25.3616     -0.7435513              1
     16012.0000         0.8904        1237.58       -25.3452     -0.7277584              1
     16012.5000         0.8885       1239.135       -25.3288     -0.7119675              1
     16013.0000         0.8865       1240.688       -25.3124     -0.6961765              1
     16013.5000         0.8846       1242.242        -25.296     -0.6803837              1
     16014.0000         0.8903       1243.797       -25.2796     -0.6645927              1
     16014.5000         0.8996       1238.002       -25.2632     -0.6488018              1
     16015.0000         0.9089       1221.002       -25.2468      -0.633009              1
     16015.5000         0.9182       1204.002       -25.2304      -0.617218              1
     16016.0000         0.9274       1187.004        -25.214     -0.6014252              1
     16016.5000         0.9394       1169.953       -25.1976     -0.5856323              1
     16017.0000         0.9514       1152.955       -25.1812     -0.5698414              1
     16017.5000         0.9634       1132.982       -25.1648     -0.5540504              1
     16018.0000          0.953       1134.369       -25.1483     -0.5381584              1
     16018.5000          0.919       1150.824        -25.132     -0.5224667              1
     16019.0000         0.8981       1167.277       -25.1155     -0.5065746              1
     16019.5000         0.8873       1183.732       -25.0991     -0.4907837              1
     16020.0000         0.8858       1200.186        -25.102     -0.4942913              1
     16020.5000          0.893        1208.58       -25.1108     -0.5037003              1
     16021.0000         0.9001       1210.811       -25.1197     -0.5132065              1
     16021.5000         0.9072       1213.041       -25.1285     -0.5226154              1
     16022.0000         0.9143       1211.238       -25.1373     -0.5320244              1
     16022.5000         0.9214       1202.789       -25.1461     -0.5414314              1
     16023.0000         0.9285       1194.338       -25.1549     -0.5508404              1
     16023.5000         0.9356       1185.863       -25.1638     -0.5603485              1
     16024.0000         0.9428       1177.412       -25.1726     -0.5697575              1
     16024.5000         0.9429       1175.184       -25.1814     -0.5791664              1
     16025.0000         0.9358       1179.334       -25.1902     -0.5885754              1
     16025.5000         0.9286       1183.473        -25.199     -0.5979824              1
     16026.0000         0.9215       1187.623       -25.2079     -0.6074886              1
     16026.5000         0.9162       1191.762       -25.2167     -0.6168976              1
     16027.0000          0.912       1195.912       -25.2255     -0.6263065              1
     16027.5000         0.9078       1200.063       -25.2343     -0.6357155              1
     16028.0000         0.9036       1204.201       -25.2431     -0.6451225              1
     16028.5000         0.8995       1208.184        -25.252     -0.6546326              1
     16029.0000         0.8953       1210.693       -25.2608     -0.6640396              1
     16029.5000         0.8911       1213.195       -25.2696     -0.6734486              1
     16030.0000         0.8869       1215.705       -25.2785     -0.6829567              1
     16030.5000         0.8827       1218.215       -25.2872     -0.6922665              1
     16031.0000         0.8785       1220.723       -25.2961     -0.7017727              1
     16031.5000         0.8763       1223.232       -25.3049     -0.7111797              1
     16032.0000         0.8773       1225.734       -25.8423      -1.249189      0.9949145
     16032.5000         0.8782       1228.244       -25.8633      -1.270798      0.9944735
     16033.0000         0.8792       1230.752       -25.8843      -1.292406      0.9940325
     16033.5000         0.8801       1233.262       -25.9052      -1.313913      0.9935936
     16034.0000          0.881       1235.766       -25.9262      -1.335524      0.9931526
     16034.5000          0.882       1238.273       -25.9345      -1.344431      0.9929708
     16035.0000         0.8829       1240.783       -25.9427      -1.353239      0.9927911
     16035.5000         0.8842       1243.291       -25.9508      -1.361948      0.9926133
     16036.0000         0.8858       1245.801        -25.959      -1.370754      0.9924336
     16036.5000         0.8875       1247.275       -25.9672      -1.379562      0.9922538
     16037.0000         0.8892       1246.977       -25.9754      -1.388372       0.992074
     16037.5000         0.8901        1246.68       -25.9835      -1.397079      0.9918963
     16038.0000         0.8826       1246.078       -25.9917      -1.405888      0.9917166
     16038.5000         0.8752       1245.264       -25.9999      -1.414698      0.9915368
     16039.0000         0.8686       1244.451       -26.0081      -1.423506       0.991357
     16039.5000         0.8631       1246.934       -26.0162      -1.432213      0.9911793
     16040.0000          0.858       1251.432       -26.0244      -1.441023      0.9909995
     16040.5000         0.8647        1255.93       -26.0326      -1.449831      0.9908198
     16041.0000         0.8714       1260.428       -26.0407      -1.458538      0.9906421
     16041.5000          0.878       1261.865       -26.0489      -1.467346      0.9904623
     16042.0000         0.8847       1252.646        -26.057      -1.476053      0.9902846
     16042.5000         0.8914       1243.428       -26.0652      -1.484863      0.9901049
     16043.0000         0.8948       1234.234       -26.0734      -1.493671      0.9899251
     16043.5000         0.8915       1226.354       -26.0798      -1.500679       0.989782
     16044.0000         0.8882       1219.738       -26.0863      -1.507788       0.989637
     16044.5000         0.8849       1219.268       -26.0927      -1.514795       0.989494
     16045.0000         0.8816       1229.873       -26.0992      -1.521904      0.9893489
     16045.5000         0.8786       1240.455       -26.1056      -1.528913      0.9892058
     16046.0000         0.8756       1251.061       -26.1121       -1.53602      0.9890608
     16046.5000         0.8726       1261.666       -26.1185      -1.543028      0.9889178
     16047.0000         0.8696       1272.248       -26.1249      -1.550037      0.9887748
     16047.5000         0.8666       1250.441       -26.1314      -1.557144      0.9886297
     16048.0000          0.865       1225.066       -26.1379      -1.564253      0.9884846
     16048.5000         0.8749       1199.691       -26.1443      -1.571262      0.9883416
     16049.0000         0.8846       1185.096       -26.1507       -1.57827      0.9881986
     16049.5000         0.8945        1172.16       -26.1572      -1.585379      0.9880535
     16050.0000         0.9043       1159.174       -26.1636      -1.592388      0.9879104
     16050.5000         0.9141       1146.238       -26.1701      -1.599495      0.9877654
     16051.0000         0.9239       1142.398       -26.1765      -1.606503      0.9876224
     16051.5000          0.934       1171.936        -26.183      -1.613611      0.9874773
     16052.0000         0.9425       1200.285       -26.1894      -1.620619      0.9873343
     16052.5000         0.9356       1220.258       -26.1959      -1.627728      0.9871892
     16053.0000         0.9287       1240.182       -26.2023      -1.634735      0.9870462
     16053.5000         0.9218       1260.154       -26.2087      -1.641745      0.9869032
