#------------------------------------------------------------------------------
# Created by    : vladimir.rabinovich
# Created on    : 09/19/2023 17:20:44
#------------------------------------------------------------------------------
~Version Information Section
VERS.           2.0     :   CWLS log ASCII Standard - VERSION 2.0
WRAP.           NO      :   One line per depth step
~Well Information Section
#MNEM       .UNIT                                         VALUE :DESCRIPTION
#------------------------------------------------------------------------------
STRT        .FT                                             390 :START DEPTH
STOP        .FT                                           18486 :STOP DEPTH
STEP        .FT                                             0.5 :STEP      
NULL        .                                           -999.25 :NULL      
COMP        .                           SOCONY MOBIL OIL CO INC :COMPANY   
WELL        .                                     JANIE HAWKINS :WELL      
FLD         .                                           WILDCAT :FIELD     
LOC         .                                                   :LOCATION  
CNTY        .                                         MATAGORDA :LOCATION  
STAT        .                                             TEXAS :STATE     
CTRY        .                                     UNITED STATES :COUNTRY   
SRVC        .                                                   :SERVICE COMPANY
DATE        .                             9/13/2023 11:18:46 AM :LOG DATE  
API         .                                    42321025990000 :API NUMBER
UWI         .                                    42321025990000 :UNIQUE WELL ID
XCOORD      .                                  768943.736103792 :SURFACE X 
YCOORD      .                                  10479372.3345515 :SURFACE Y 
LAT         .                                        28.8489235 :LATITUDE  
LON         .                                       -95.7226077 :LONGITUDE 
ELEV        .FT                                              39 :ELEVATION VALUE
ELEV_TYPE   .                                                KB :ELEVATION REFERENCE TYPE
~Curve Information Section
#MNEM       .UNIT                                      API CODE :CURVE DESCRIPTION
#------------------------------------------------------------------------------
DEPT        .FT                                                 :DEPTH     
ASN         .OHMM                                               :          
CILD        .MMHO                                               :          
SP          .MV                                                 :          
SP_NORM     .MV                                                 :SP Normalized
VSH_SP      .V/V                                                :Volume of Shale from SP
~A        DEPTH            ASN           CILD             SP        SP_NORM         VSH_SP
# ...
      7606.0000         0.5828       1906.363       -33.1743      -2.250944      0.9744706
      7606.5000         0.5806       1916.785       -33.2008       -2.27812      0.9739159
      7607.0000         0.5783       1924.906       -33.1993       -2.27729      0.9739329
      7607.5000          0.576       1933.029       -33.1213      -2.199965       0.975511
      7608.0000         0.5737       1941.426       -33.0435      -2.122837      0.9770849
      7608.5000         0.5714       1951.201       -32.9656       -2.04561       0.978661
      7609.0000         0.5728       1960.975       -32.8877      -1.968386       0.980237
      7609.5000         0.5755        1939.34       -32.8098      -1.891159      0.9818131
      7610.0000         0.5783       1906.303       -32.7319      -1.813932      0.9833891
      7610.5000         0.5811       1873.264        -32.654      -1.736706      0.9849652
      7611.0000         0.5839       1837.494       -32.5978      -1.681181      0.9860983
      7611.5000         0.5866       1796.408       -32.5603      -1.644354      0.9868499
      7612.0000         0.5894       1755.373       -32.5228      -1.607529      0.9876015
      7612.5000         0.5922       1737.141       -32.4854      -1.570803       0.988351
      7613.0000          0.595       1720.994       -32.4479      -1.533974      0.9891026
      7613.5000         0.5967       1708.555       -32.4105      -1.497248      0.9898521
      7614.0000         0.5983       1710.787        -32.373      -1.460424      0.9906036
      7614.5000            0.6       1725.342       -32.3712      -1.459297      0.9906266
      7615.0000         0.6017       1742.979       -32.3699       -1.45867      0.9906394
      7615.5000         0.6034       1760.613       -32.3686      -1.458042      0.9906522
      7616.0000         0.6051       1785.182       -32.3673      -1.457415       0.990665
      7616.5000         0.6068       1816.182        -32.366      -1.456793      0.9906777
      7617.0000         0.6085       1847.232       -32.4582      -1.549664      0.9887824
      7617.5000         0.6102       1877.934       -32.5714      -1.663538      0.9864584
      7618.0000         0.6119       1908.488       -32.6848      -1.777611      0.9841304
      7618.5000         0.6108       1937.055       -32.7972      -1.890684      0.9818228
      7619.0000         0.6093       1923.541       -32.8751      -1.969259      0.9802192
      7619.5000         0.6078       1895.123       -32.9487      -2.043533      0.9787034
      7620.0000         0.6063       1866.756       -32.8771      -1.972609      0.9801508
      7620.5000         0.6048        1838.34       -32.8055       -1.90168      0.9815984
      7621.0000         0.6032       1809.971       -32.7339      -1.830751      0.9830459
      7621.5000         0.6017       1790.695       -32.7206      -1.818129      0.9833035
      7622.0000         0.5996       1772.588       -32.7373      -1.835503      0.9829489
      7622.5000         0.5971        1863.18       -32.7541      -1.852976      0.9825923
      7623.0000         0.5946       1933.924       -32.7709      -1.870449      0.9822357
      7623.5000         0.5921       1990.709       -32.7876      -1.887823      0.9818811
      7624.0000         0.5897       1996.754       -32.8044      -1.905298      0.9815245
      7624.5000         0.5872       2008.734       -32.8212      -1.922771      0.9811679
      7625.0000         0.5847       2028.098        -32.838      -1.940245      0.9808114
      7625.5000         0.5822       2040.754       -32.8547      -1.957615      0.9804568
      7626.0000         0.5797       2033.078       -32.8715      -1.975088      0.9801002
      7626.5000         0.5773       2017.479       -32.8882      -1.992464      0.9797456
      7627.0000         0.5749       1914.201        -32.905      -2.009937       0.979389
      7627.5000         0.5725       1901.359       -32.9218      -2.027411      0.9790325
      7628.0000         0.5702       1874.158       -32.8894      -1.995686      0.9796799
      7628.5000         0.5678       1847.455       -32.8134      -1.920359      0.9812171
      7629.0000         0.5655        1832.08       -32.7374      -1.845034      0.9827544
      7629.5000         0.5631       1836.725       -32.6614      -1.769707      0.9842917
      7630.0000         0.5608       1849.059       -32.5854       -1.69438       0.985829
      7630.5000         0.5584       1859.988       -32.5006      -1.610252      0.9875458
      7631.0000         0.5561       1867.328        -32.413      -1.523325      0.9893199
      7631.5000         0.5537       1874.656       -32.3254      -1.436401      0.9910939
      7632.0000         0.5514       1881.996       -32.2377      -1.349377      0.9928699
      7632.5000         0.5499       1889.336       -32.1501      -1.262449      0.9946439
      7633.0000         0.5486       1896.676       -32.0625      -1.175522      0.9964179
      7633.5000         0.5472       1904.166       -32.0889      -1.202597      0.9958653
      7634.0000         0.5459       1916.734       -32.1398      -1.254169      0.9948128
      7634.5000         0.5446       1940.457       -32.1907      -1.305744      0.9937603
      7635.0000         0.5432       1973.271       -32.2416      -1.357317      0.9927078
      7635.5000         0.5419       2081.789       -32.2925       -1.40889      0.9916553
      7636.0000         0.5405       2118.156       -32.3434      -1.460463      0.9906028
      7636.5000         0.5392       2134.625       -32.3943      -1.512035      0.9895503
      7637.0000         0.5379       2158.348       -32.4784      -1.596813      0.9878201
      7637.5000         0.5363       2177.461       -32.6592      -1.778284      0.9841167
      7638.0000         0.5344       2188.203       -32.8403       -1.96006      0.9804069
      7638.5000         0.5325       2198.934       -32.9739      -2.094332      0.9776667
      7639.0000         0.5306        2209.68       -33.0827      -2.203804      0.9754326
      7639.5000         0.5288        2162.32       -32.9783      -2.100079      0.9775494
      7640.0000         0.5269       2134.551       -32.8388      -1.961252      0.9803826
      7640.5000          0.525       2106.727       -32.7063      -1.829426      0.9830729
      7641.0000         0.5232       2085.875        -32.591        -1.7148      0.9854122
      7641.5000         0.5213       2098.121       -32.4758      -1.600273      0.9877495
      7642.0000         0.5194       2116.094       -32.3605      -1.485649      0.9900888
      7642.5000         0.5187       2135.988       -32.2453      -1.371122      0.9924261
      7643.0000         0.5181       2155.863       -32.1299      -1.256397      0.9947674
      7643.5000         0.5174       2175.883       -32.1728      -1.299967      0.9938782
      7644.0000         0.5168       2199.656       -32.2706      -1.398441      0.9918686
      7644.5000         0.5162       2223.426       -32.3682      -1.496716      0.9898629
      7645.0000         0.5156       2246.602       -32.4659      -1.595091      0.9878553
      7645.5000         0.5149       2265.879       -32.5637      -1.693565      0.9858456
      7646.0000         0.5143       2285.129       -32.5668      -1.697336      0.9857687
      7646.5000         0.5163       2277.926       -32.5655      -1.696709      0.9857814
      7647.0000         0.5204       2256.738       -32.5642      -1.696087      0.9857941
      7647.5000         0.5246       2231.922       -32.5629      -1.695459      0.9858069
      7648.0000         0.5288       2207.105       -32.5616      -1.694832      0.9858198
      7648.5000          0.533       2182.316       -32.5604      -1.694304      0.9858305
      7649.0000         0.5372         2157.5       -32.5349      -1.669479      0.9863372
      7649.5000         0.5413       2152.594       -32.4088      -1.544052      0.9888969
