#------------------------------------------------------------------------------
# Created by    : vladimir.rabinovich
# Created on    : 09/19/2023 17:20:44
#------------------------------------------------------------------------------
~Version Information Section
VERS.           2.0     :   CWLS log ASCII Standard - VERSION 2.0
WRAP.           NO      :   One line per depth step
~Well Information Section
#MNEM       .UNIT                                         VALUE :DESCRIPTION
#------------------------------------------------------------------------------
STRT        .FT                                             390 :START DEPTH
STOP        .FT                                           18486 :STOP DEPTH
STEP        .FT                                             0.5 :STEP      
NULL        .                                           -999.25 :NULL      
COMP        .                           SOCONY MOBIL OIL CO INC :COMPANY   
WELL        .                                     JANIE HAWKINS :WELL      
FLD         .                                           WILDCAT :FIELD     
LOC         .                                                   :LOCATION  
CNTY        .                                         MATAGORDA :LOCATION  
STAT        .                                             TEXAS :STATE     
CTRY        .                                     UNITED STATES :COUNTRY   
SRVC        .                                                   :SERVICE COMPANY
DATE        .                             9/13/2023 11:18:46 AM :LOG DATE  
API         .                                    42321025990000 :API NUMBER
UWI         .                                    42321025990000 :UNIQUE WELL ID
XCOORD      .                                  768943.736103792 :SURFACE X 
YCOORD      .                                  10479372.3345515 :SURFACE Y 
LAT         .                                        28.8489235 :LATITUDE  
LON         .                                       -95.7226077 :LONGITUDE 
ELEV        .FT                                              39 :ELEVATION VALUE
ELEV_TYPE   .                                                KB :ELEVATION REFERENCE TYPE
~Curve Information Section
#MNEM       .UNIT                                      API CODE :CURVE DESCRIPTION
#------------------------------------------------------------------------------
DEPT        .FT                                                 :DEPTH     
ASN         .OHMM                                               :          
CILD        .MMHO                                               :          
SP          .MV                                                 :          
SP_NORM     .MV                                                 :SP Normalized
VSH_SP      .V/V                                                :Volume of Shale from SP
~A        DEPTH            ASN           CILD             SP        SP_NORM         VSH_SP
# ...
     12402.0000         0.8652       1205.063        -26.687     -0.1012192              1
     12402.5000         0.8629       1200.891       -26.7136     -0.1280842              1
     12403.0000         0.8644       1196.711       -26.7403     -0.1550503              1
     12403.5000         0.8731         1199.9        -26.767     -0.1820183              1
     12404.0000         0.8818        1213.18       -26.7936     -0.2088852              1
     12404.5000         0.8904       1228.957       -26.8203     -0.2358513              1
     12405.0000         0.8991       1252.152        -26.847     -0.2628193              1
     12405.5000         0.9078       1275.299       -26.8736     -0.2896862              1
     12406.0000         0.9168       1298.494       -26.9003     -0.3166523              1
     12406.5000         0.9086       1322.135       -26.9181     -0.3347206              1
     12407.0000         0.8751        1347.26       -26.9302     -0.3470879              1
     12407.5000         0.8493       1372.383       -26.9423     -0.3594551              1
     12408.0000         0.8288       1397.508       -26.9545     -0.3719215              1
     12408.5000         0.8082       1421.396       -26.9666     -0.3842888              1
     12409.0000         0.7916       1439.547       -26.9787     -0.3966541              1
     12409.5000         0.7762       1457.748       -26.9908     -0.4090214              1
     12410.0000         0.7622       1475.898        -27.003     -0.4214878              1
     12410.5000         0.7492       1492.564       -27.0151     -0.4338551              1
     12411.0000         0.7426       1508.096       -27.0273     -0.4463215              1
     12411.5000         0.7479        1523.65       -27.0394     -0.4586887              1
     12412.0000         0.7561       1511.705       -27.0515      -0.471056              1
     12412.5000         0.7642       1478.668       -27.0636     -0.4834232              1
     12413.0000         0.7723       1449.637       -27.0757     -0.4957905              1
     12413.5000         0.7804       1425.896       -27.0879     -0.5082569              1
     12414.0000         0.7886       1402.156          -27.1     -0.5206242              1
     12414.5000         0.7967       1378.367       -27.1122     -0.5330906              1
     12415.0000         0.8048       1354.629       -27.1243     -0.5454559              1
     12415.5000         0.8129       1330.889       -27.1306     -0.5520229              1
     12416.0000         0.8196       1308.559       -27.1211     -0.5427895              1
     12416.5000         0.8263       1291.916       -27.1115     -0.5334568              1
     12417.0000          0.833       1289.098        -27.102     -0.5242233              1
     12417.5000         0.8397        1303.91       -27.0924     -0.5148907              1
     12418.0000         0.8384       1318.723       -27.0828      -0.505558              1
     12418.5000         0.8207       1333.535       -27.0733     -0.4963245              1
     12419.0000         0.8049       1360.316       -27.0637     -0.4869919              1
     12419.5000         0.7891       1402.553       -27.0542     -0.4777584              1
     12420.0000         0.7733       1444.691       -27.0446     -0.4684258              1
     12420.5000         0.7575       1483.367        -27.035     -0.4590931              1
     12421.0000         0.7437       1505.227       -27.0255     -0.4498596              1
     12421.5000         0.7323       1527.086       -27.0159     -0.4405251              1
     12422.0000         0.7209       1548.947       -27.0063     -0.4311924              1
     12422.5000         0.7095       1566.504       -26.9968     -0.4219589              1
     12423.0000         0.6981       1580.723       -26.9872     -0.4126263              1
     12423.5000         0.6958       1594.967       -26.9777     -0.4033928              1
     12424.0000         0.7039       1609.186       -26.9681     -0.3940601              1
     12424.5000         0.7119       1638.762       -26.9586     -0.3848267              1
     12425.0000         0.7138       1672.541        -26.949      -0.375494              1
     12425.5000          0.713       1699.396       -26.9395     -0.3662624              1
     12426.0000         0.7093       1726.252       -26.9299     -0.3569279              1
     12426.5000         0.7045       1742.672       -26.9203     -0.3475952              1
     12427.0000         0.6996       1758.029       -26.9196     -0.3471622              1
     12427.5000         0.6947       1773.385       -26.9218     -0.3496304              1
     12428.0000         0.6899       1782.906       -26.9241     -0.3521957              1
     12428.5000          0.685       1779.381       -26.9263     -0.3546619              1
     12429.0000         0.6801       1771.061       -26.9286     -0.3572292              1
     12429.5000         0.6753       1760.922       -26.9308     -0.3596954              1
     12430.0000         0.6704       1750.783        -26.933     -0.3621635              1
     12430.5000         0.6655       1740.668       -26.9353     -0.3647308              1
     12431.0000         0.6617       1730.529       -26.9375      -0.367197              1
     12431.5000         0.6644       1720.391       -26.9398     -0.3697643              1
     12432.0000          0.667       1715.346        -26.942     -0.3722305              1
     12432.5000         0.6697       1726.994       -26.9442     -0.3746986              1
     12433.0000         0.6724       1748.359       -26.9465     -0.3772659              1
     12433.5000         0.6733       1769.676       -26.9487     -0.3797321              1
     12434.0000         0.6712       1791.041        -26.951     -0.3822975              1
     12434.5000         0.6691       1812.357       -26.9532     -0.3847637              1
     12435.0000          0.667       1833.723       -26.9554     -0.3872318              1
     12435.5000         0.6648       1844.072       -26.9577     -0.3897991              1
     12436.0000         0.6627       1851.998       -26.9599     -0.3922653              1
     12436.5000         0.6582       1859.936       -26.9622     -0.3948326              1
     12437.0000         0.6531       1867.873       -26.9644     -0.3972988              1
     12437.5000         0.6481       1875.799       -26.9666     -0.3997669              1
     12438.0000          0.643       1881.697       -26.9689     -0.4023342              1
     12438.5000         0.6379       1881.129       -26.9711     -0.4048004              1
     12439.0000         0.6328       1880.559       -26.9734     -0.4073677              1
     12439.5000         0.6277       1879.988       -26.9756     -0.4098339              1
     12440.0000         0.6226        1879.42       -26.9778      -0.412302              1
     12440.5000         0.6175       1878.852       -26.9801     -0.4148674              1
     12441.0000         0.6159       1878.283       -26.9823     -0.4173336              1
     12441.5000         0.6164       1877.826       -26.9846     -0.4199009              1
     12442.0000         0.6169       1878.232       -26.9868     -0.4223671              1
     12442.5000         0.6174       1878.639        -26.989     -0.4248352              1
     12443.0000          0.618       1879.045       -26.9913     -0.4274025              1
     12443.5000         0.6185       1879.451       -26.9935     -0.4298687              1
     12444.0000          0.619       1879.859       -26.9958      -0.432436              1
     12444.5000         0.6195       1880.266        -26.998     -0.4349022              1
     12445.0000         0.6201       1880.672       -27.0002     -0.4373703              1
     12445.5000         0.6206       1883.936       -27.0025     -0.4399376              1
