#------------------------------------------------------------------------------
# Created by    : vladimir.rabinovich
# Created on    : 09/19/2023 17:20:44
#------------------------------------------------------------------------------
~Version Information Section
VERS.           2.0     :   CWLS log ASCII Standard - VERSION 2.0
WRAP.           NO      :   One line per depth step
~Well Information Section
#MNEM       .UNIT                                         VALUE :DESCRIPTION
#------------------------------------------------------------------------------
STRT        .FT                                             390 :START DEPTH
STOP        .FT                                           18486 :STOP DEPTH
STEP        .FT                                             0.5 :STEP      
NULL        .                                           -999.25 :NULL      
COMP        .                           SOCONY MOBIL OIL CO INC :COMPANY   
WELL        .                                     JANIE HAWKINS :WELL      
FLD         .                                           WILDCAT :FIELD     
LOC         .                                                   :LOCATION  
CNTY        .                                         MATAGORDA :LOCATION  
STAT        .                                             TEXAS :STATE     
CTRY        .                                     UNITED STATES :COUNTRY   
SRVC        .                                                   :SERVICE COMPANY
DATE        .                             9/13/2023 11:18:46 AM :LOG DATE  
API         .                                    42321025990000 :API NUMBER
UWI         .                                    42321025990000 :UNIQUE WELL ID
XCOORD      .                                  768943.736103792 :SURFACE X 
YCOORD      .                                  10479372.3345515 :SURFACE Y 
LAT         .                                        28.8489235 :LATITUDE  
LON         .                                       -95.7226077 :LONGITUDE 
ELEV        .FT                                              39 :ELEVATION VALUE
ELEV_TYPE   .                                                KB :ELEVATION REFERENCE TYPE
~Curve Information Section
#MNEM       .UNIT                                      API CODE :CURVE DESCRIPTION
#------------------------------------------------------------------------------
DEPT        .FT                                                 :DEPTH     
ASN         .OHMM                                               :          
CILD        .MMHO                                               :          
SP          .MV                                                 :          
SP_NORM     .MV                                                 :SP Normalized
VSH_SP      .V/V                                                :Volume of Shale from SP
~A        DEPTH            ASN           CILD             SP        SP_NORM         VSH_SP
# ...
     11214.0000         0.7181       1323.816       -28.3748     -0.9092026              1
     11214.5000         0.7044        1469.42       -28.3113     -0.8470726              1
     11215.0000         0.6935       1617.297       -28.2476     -0.7847443              1
     11215.5000         0.6825       1669.029       -28.1839     -0.7224159              1
     11216.0000         0.6715       1752.119       -28.1203     -0.6601868              1
     11216.5000         0.6605       1828.283       -28.2166     -0.7578583              1
     11217.0000         0.6496       1901.875        -28.385     -0.9276295              1
     11217.5000         0.6426       1985.359       -28.5538      -1.097799      0.9980041
     11218.0000         0.6364       2185.898       -28.7226      -1.267971      0.9945312
     11218.5000         0.6302       2134.266       -28.8913      -1.438042      0.9910604
     11219.0000         0.6241       2089.852       -29.0601      -1.608213      0.9875875
     11219.5000         0.6179       2062.203       -29.2289      -1.778385      0.9841146
     11220.0000         0.6164       2083.473       -29.2957      -1.846556      0.9827234
     11220.5000         0.6159       2098.953       -29.3236      -1.875826       0.982126
     11221.0000         0.6153       2109.883       -29.3515      -1.905096      0.9815286
     11221.5000         0.6147       2120.813       -29.3794      -1.934368      0.9809313
     11222.0000         0.6141       2131.742       -29.4073       -1.96364      0.9803339
     11222.5000         0.6123       2142.672       -29.4351      -1.992811      0.9797385
     11223.0000         0.6099       2131.988        -29.463      -2.022081      0.9791412
     11223.5000         0.6074       2117.844        -29.437      -1.997452      0.9796438
     11224.0000         0.6057       2103.699       -29.4096      -1.971422      0.9801751
     11224.5000         0.6109       2089.555       -29.3823      -1.945494      0.9807042
     11225.0000          0.616       2060.375       -29.3549      -1.919466      0.9812354
     11225.5000         0.6212       2031.146       -29.3696      -1.935537      0.9809074
     11226.0000         0.6264       2042.867       -29.4438      -2.011106      0.9793652
     11226.5000         0.6333       2086.191        -29.518      -2.086678      0.9778229
     11227.0000         0.6403        2112.75       -29.5922      -2.162249      0.9762806
     11227.5000         0.6385       2139.309       -29.6664      -2.237822      0.9747384
     11228.0000         0.6293       2165.816       -29.7404      -2.313192      0.9732001
     11228.5000         0.6202       2188.125       -29.8146      -2.388763      0.9716579
     11229.0000          0.611       2204.691       -29.8888      -2.464333      0.9701157
     11229.5000         0.6033       2186.887        -29.963      -2.539904      0.9685734
     11230.0000          0.596        2141.98       -30.0372      -2.615477      0.9670311
     11230.5000         0.5888       2097.074       -30.0428      -2.622448      0.9668888
     11231.0000         0.5834         2042.5       -29.9751      -2.556118      0.9682425
     11231.5000         0.5893       1978.039       -29.9072       -2.48959      0.9696002
     11232.0000         0.5952       1929.967       -29.8395       -2.42326      0.9709539
     11232.5000         0.6011       1907.266       -29.7716      -2.356731      0.9723116
     11233.0000          0.607       1891.934       -29.7039      -2.290401      0.9736653
     11233.5000         0.6129       1885.195        -29.636      -2.223873       0.975023
     11234.0000         0.6188       1878.457       -29.5683      -2.157545      0.9763767
     11234.5000         0.6247       1871.719       -29.5005      -2.091116      0.9777323
     11235.0000         0.6306       1864.992       -29.5226      -2.114586      0.9772534
     11235.5000         0.6331       1871.979       -29.6147      -2.208057      0.9753458
     11236.0000         0.6337       1882.883       -29.7069      -2.301628      0.9734362
     11236.5000         0.6342       1888.535       -29.7701      -2.366199      0.9721184
     11237.0000         0.6347       1894.186       -29.7048      -2.302271      0.9734231
     11237.5000         0.6352       1899.848       -29.6397      -2.238541      0.9747236
     11238.0000         0.6334       1905.498       -29.5746      -2.174812      0.9760242
     11238.5000         0.6316       1911.148       -29.5095      -2.111084      0.9773248
     11239.0000         0.6299       1916.813       -29.4549      -2.057856      0.9784111
     11239.5000         0.6281       1922.463       -29.4359      -2.040226      0.9787709
     11240.0000         0.6263       1928.211        -29.417      -2.022697      0.9791286
     11240.5000         0.6245       1934.084       -29.3981      -2.005167      0.9794864
     11241.0000         0.6228        1940.65       -29.3791      -1.987539      0.9798461
     11241.5000          0.621        1979.92       -29.3602      -1.970011      0.9802039
     11242.0000          0.619        2028.75       -29.3412      -1.952381      0.9805636
     11242.5000          0.617       2073.332       -29.3555      -1.968052      0.9802439
     11243.0000         0.6149       2091.285        -29.405      -2.018925      0.9792056
     11243.5000         0.6129       2080.703       -29.4545      -2.069794      0.9781675
     11244.0000         0.6109       2065.914        -29.504      -2.120665      0.9771293
     11244.5000         0.6089       2043.115       -29.5535      -2.171535      0.9760911
     11245.0000         0.6069        2002.25        -29.603      -2.222408      0.9750529
     11245.5000         0.6049       1951.283       -29.6525      -2.273279      0.9740147
     11246.0000         0.6063       1935.334       -29.7019      -2.324051      0.9729785
     11246.5000         0.6108       1921.684       -29.7515      -2.375019      0.9719384
     11247.0000         0.6153       1908.033       -29.8265      -2.451391      0.9703798
     11247.5000         0.6199       1895.471       -29.9029      -2.529163      0.9687926
     11248.0000         0.6244       1882.957       -29.9792      -2.606834      0.9672074
     11248.5000         0.6232       1870.471       -30.0556      -2.684605      0.9656203
     11249.0000         0.6203       1897.424       -30.0335      -2.663876      0.9660434
     11249.5000         0.6174       1952.223       -29.8493      -2.481047      0.9697745
     11250.0000         0.6136       2007.125       -29.6653      -2.298418      0.9735017
     11250.5000         0.6095       2047.188       -29.5891      -2.223589      0.9750288
     11251.0000         0.6054       2079.859        -29.513      -2.148861      0.9765539
     11251.5000         0.6013       2100.535       -29.4368      -2.074032       0.978081
     11252.0000         0.5972       2120.664       -29.3608      -1.999401      0.9796041
     11252.5000         0.5931       2141.586       -29.2847      -1.924673      0.9811291
     11253.0000          0.589       2171.508       -29.2085      -1.849844      0.9826562
     11253.5000         0.5849       2201.426       -29.2968      -1.939516      0.9808262
     11254.0000         0.5808       2223.387       -29.4692      -2.113287      0.9772798
     11254.5000         0.5767       2224.648       -29.6414      -2.286858      0.9737376
     11255.0000         0.5726       2212.184       -29.8135      -2.460327      0.9701974
     11255.5000         0.5685       2199.746        -29.986      -2.634199       0.966649
     11256.0000         0.5644       2187.281       -30.1582       -2.80777      0.9631068
     11256.5000         0.5603       2190.398       -30.3108      -2.961742      0.9599645
     11257.0000         0.5562       2215.078       -30.4158      -3.068113      0.9577936
     11257.5000         0.5521       2241.836       -30.5209      -3.174583      0.9556208
