#------------------------------------------------------------------------------
# Created by    : vladimir.rabinovich
# Created on    : 09/19/2023 17:20:44
#------------------------------------------------------------------------------
~Version Information Section
VERS.           2.0     :   CWLS log ASCII Standard - VERSION 2.0
WRAP.           NO      :   One line per depth step
~Well Information Section
#MNEM       .UNIT                                         VALUE :DESCRIPTION
#------------------------------------------------------------------------------
STRT        .FT                                             390 :START DEPTH
STOP        .FT                                           18486 :STOP DEPTH
STEP        .FT                                             0.5 :STEP      
NULL        .                                           -999.25 :NULL      
COMP        .                           SOCONY MOBIL OIL CO INC :COMPANY   
WELL        .                                     JANIE HAWKINS :WELL      
FLD         .                                           WILDCAT :FIELD     
LOC         .                                                   :LOCATION  
CNTY        .                                         MATAGORDA :LOCATION  
STAT        .                                             TEXAS :STATE     
CTRY        .                                     UNITED STATES :COUNTRY   
SRVC        .                                                   :SERVICE COMPANY
DATE        .                             9/13/2023 11:18:46 AM :LOG DATE  
API         .                                    42321025990000 :API NUMBER
UWI         .                                    42321025990000 :UNIQUE WELL ID
XCOORD      .                                  768943.736103792 :SURFACE X 
YCOORD      .                                  10479372.3345515 :SURFACE Y 
LAT         .                                        28.8489235 :LATITUDE  
LON         .                                       -95.7226077 :LONGITUDE 
ELEV        .FT                                              39 :ELEVATION VALUE
ELEV_TYPE   .                                                KB :ELEVATION REFERENCE TYPE
~Curve Information Section
#MNEM       .UNIT                                      API CODE :CURVE DESCRIPTION
#------------------------------------------------------------------------------
DEPT        .FT                                                 :DEPTH     
ASN         .OHMM                                               :          
CILD        .MMHO                                               :          
SP          .MV                                                 :          
SP_NORM     .MV                                                 :SP Normalized
VSH_SP      .V/V                                                :Volume of Shale from SP
~A        DEPTH            ASN           CILD             SP        SP_NORM         VSH_SP
# ...
      1578.0000         1.0328       1956.396       -88.8579      -42.81013      0.1959589
      1578.5000          0.988       1998.178       -89.9457      -43.88518       0.175285
      1579.0000         0.9576       2006.383       -91.0332      -44.95993      0.1546167
      1579.5000         0.9348       2153.379       -92.1943      -46.10828      0.1325331
      1580.0000         0.9121       2370.105       -93.3859      -47.28713      0.1098628
      1580.5000         0.9792       2541.797       -94.5775      -48.46598     0.08719276
      1581.0000         0.9934       2687.801       -96.2222      -50.09792     0.05580917
      1581.5000         1.0077       2833.801       -98.6042      -52.46718     0.01024657
      1582.0000         1.0219       2898.305       -98.8588      -52.70903    0.005595647
      1582.5000         1.0318       2848.613       -97.9745      -51.81197     0.02284666
      1583.0000           1.04       2798.934       -96.6804      -50.50512     0.04797848
      1583.5000         1.0482       2749.246       -95.3865      -49.19847      0.0731064
      1584.0000         1.0565       2626.379       -94.3212      -48.12042      0.0938381
      1584.5000         1.0647       2491.859       -93.3173      -47.10377      0.1133891
      1585.0000         1.0729       2357.289       -92.5933      -46.36702      0.1275574
      1585.5000         1.0849       2287.602       -91.9595      -45.72047       0.139991
      1586.0000         1.0978       2223.125       -91.2209      -44.96912      0.1544401
      1586.5000         1.1107       2158.648       -90.3917      -44.12716      0.1706315
      1587.0000         1.1237       2113.449       -89.5629      -43.28561      0.1868152
      1587.5000         1.1393        2156.16       -88.1633      -41.87326      0.2139758
      1588.0000         1.1555       2039.625       -86.3162      -40.01341      0.2497421
      1588.5000          1.152       1924.424       -84.0255      -37.70996      0.2940393
      1589.0000         1.0724       1836.029       -82.1815      -35.85321      0.3297459
      1589.5000         1.0097        1747.66       -72.0112      -25.67016      0.5255738
      1590.0000         0.9664       1659.291       -65.2157       -18.8619      0.6565018
      1590.5000         0.9342       1536.303       -61.0212      -14.65465      0.7374105
      1591.0000         0.9082       1396.932       -57.1021      -10.72281       0.813023
      1591.5000          0.883       1257.561       -54.4656      -8.073551      0.8639702
      1592.0000         0.8663       1112.002       -52.5032      -6.098404      0.9019538
      1592.5000         0.8532       1120.471       -52.5392      -6.121651      0.9015067
      1593.0000         0.8401       1146.449       -52.8411      -6.410797      0.8959462
      1593.5000         0.8296       1183.357       -53.4123       -6.96925      0.8852068
      1594.0000         0.8213        1232.59       -53.9835      -7.527699      0.8744673
      1594.5000         0.8129        1270.99       -54.5548      -8.086243      0.8637261
      1595.0000         0.8048       1300.834       -55.1259      -8.644596      0.8529885
      1595.5000         0.7967       1325.123       -55.7147      -9.220642      0.8419107
      1596.0000         0.7886       1347.928        -56.335      -9.828194       0.830227
      1596.5000         0.7806       1369.314       -56.9551      -10.43554      0.8185472
      1597.0000         0.7725       1389.762       -55.7457       -9.21339      0.8420502
      1597.5000         0.7645       1410.207       -53.9769      -7.431839      0.8763108
      1598.0000         0.7576       1427.598       -52.0706      -5.512787      0.9132156
      1598.5000         0.7508       1443.119       -50.6143      -4.043736      0.9414666
      1599.0000          0.744       1458.643       -49.6146      -3.031288      0.9609368
      1599.5000         0.7372       1474.164       -48.6153      -2.019234      0.9803994
      1600.0000         0.7303       1462.564       -47.4526     -0.8437843              1
      1600.5000         0.7285       1439.648       -46.3407      0.2808685              1
      1601.0000         0.7297        1409.23        -46.471      0.1633186              1
      1601.5000         0.7339       1384.984       -46.6013     0.04576874              1
      1602.0000         0.7382       1368.139       -46.7766     -0.1167793              1
      1602.5000         0.7424       1351.287       -47.1422     -0.4696274              1
      1603.0000         0.7467       1336.092       -47.5079     -0.8225784              1
      1603.5000         0.7509       1321.033       -47.8737      -1.175625      0.9966226
      1604.0000         0.7552       1305.977       -48.2394      -1.528576      0.9898351
      1604.5000         0.7591       1290.898       -48.6051      -1.881523      0.9830476
      1605.0000         0.7623       1275.791       -48.9708       -2.23447      0.9762602
      1605.5000         0.7655       1260.688       -49.3365      -2.587421      0.9694726
      1606.0000         0.7687       1247.795        -49.631      -2.869171      0.9640544
      1606.5000         0.7719       1237.484       -49.8947      -3.120117      0.9592285
      1607.0000         0.7751       1227.178       -50.1584      -3.371071      0.9544025
      1607.5000         0.7783       1216.871       -50.3798      -3.579716      0.9503901
      1608.0000         0.7815       1206.564       -50.3521      -3.539268      0.9511679
      1608.5000         0.7848       1197.764       -50.3244      -3.498817      0.9519458
      1609.0000         0.7851       1215.479       -50.2968      -3.458462      0.9527219
      1609.5000         0.7795        1246.82       -50.2691      -3.418015      0.9534997
      1610.0000         0.7739       1291.389       -50.2414      -3.377563      0.9542776
      1610.5000         0.7684       1351.002       -50.2137      -3.337109      0.9550556
      1611.0000         0.7628       1387.361       -50.2544      -3.365059      0.9545181
      1611.5000         0.7572       1407.895       -50.3107      -3.408607      0.9536806
      1612.0000         0.7521       1428.434       -50.3671      -3.455261      0.9527835
      1612.5000         0.7489       1445.486       -50.4234      -3.529217      0.9513612
      1613.0000         0.7458       1460.365       -50.4797      -3.603165      0.9499391
      1613.5000         0.7427       1471.436       -50.5243      -3.665421      0.9487419
      1614.0000         0.7395       1462.791       -50.5557       -3.71447      0.9477987
      1614.5000         0.7379        1453.09       -50.5871      -3.763527      0.9468552
      1615.0000         0.7373       1443.387       -50.6185      -3.812576       0.945912
      1615.5000         0.7367       1433.682         -50.65      -3.861732      0.9449667
      1616.0000         0.7361       1423.982       -50.6814      -3.910782      0.9440234
      1616.5000         0.7355       1413.477       -50.7128      -3.959831      0.9430802
      1617.0000         0.7349       1402.539       -50.7058      -3.970486      0.9428753
      1617.5000         0.7343       1391.598       -50.6676      -3.949936      0.9432704
      1618.0000         0.7337        1380.66       -50.6294       -3.92939      0.9436656
      1618.5000         0.7341       1369.719       -50.5912      -3.908844      0.9440607
      1619.0000         0.7358        1362.08        -50.553      -3.888298      0.9444558
      1619.5000         0.7374       1357.463       -50.5148      -3.867748       0.944851
      1620.0000         0.7391       1356.219       -50.4766      -3.847202      0.9452461
      1620.5000         0.7407       1364.742       -50.4385      -3.826752      0.9456394
      1621.0000         0.7424        1382.15       -50.4003      -3.806206      0.9460345
      1621.5000          0.744       1399.555       -50.4999      -3.923458      0.9437796
