#------------------------------------------------------------------------------
# Created by    : vladimir.rabinovich
# Created on    : 09/19/2023 17:20:44
#------------------------------------------------------------------------------
~Version Information Section
VERS.           2.0     :   CWLS log ASCII Standard - VERSION 2.0
WRAP.           NO      :   One line per depth step
~Well Information Section
#MNEM       .UNIT                                         VALUE :DESCRIPTION
#------------------------------------------------------------------------------
STRT        .FT                                             390 :START DEPTH
STOP        .FT                                           18486 :STOP DEPTH
STEP        .FT                                             0.5 :STEP      
NULL        .                                           -999.25 :NULL      
COMP        .                           SOCONY MOBIL OIL CO INC :COMPANY   
WELL        .                                     JANIE HAWKINS :WELL      
FLD         .                                           WILDCAT :FIELD     
LOC         .                                                   :LOCATION  
CNTY        .                                         MATAGORDA :LOCATION  
STAT        .                                             TEXAS :STATE     
CTRY        .                                     UNITED STATES :COUNTRY   
SRVC        .                                                   :SERVICE COMPANY
DATE        .                             9/13/2023 11:18:46 AM :LOG DATE  
API         .                                    42321025990000 :API NUMBER
UWI         .                                    42321025990000 :UNIQUE WELL ID
XCOORD      .                                  768943.736103792 :SURFACE X 
YCOORD      .                                  10479372.3345515 :SURFACE Y 
LAT         .                                        28.8489235 :LATITUDE  
LON         .                                       -95.7226077 :LONGITUDE 
ELEV        .FT                                              39 :ELEVATION VALUE
ELEV_TYPE   .                                                KB :ELEVATION REFERENCE TYPE
~Curve Information Section
#MNEM       .UNIT                                      API CODE :CURVE DESCRIPTION
#------------------------------------------------------------------------------
DEPT        .FT                                                 :DEPTH     
ASN         .OHMM                                               :          
CILD        .MMHO                                               :          
SP          .MV                                                 :          
SP_NORM     .MV                                                 :SP Normalized
VSH_SP      .V/V                                                :Volume of Shale from SP
~A        DEPTH            ASN           CILD             SP        SP_NORM         VSH_SP
# ...
     17242.0000         0.8958       1295.045       -24.9572      -1.836065      0.9829375
     17242.5000         0.8808       1324.781       -24.9811      -1.860575      0.9824373
     17243.0000         0.8656       1345.459       -25.0051      -1.885183       0.981935
     17243.5000         0.8505       1344.713       -25.0291      -1.909792      0.9814328
     17244.0000         0.8354       1343.967        -25.053      -1.934298      0.9809327
     17244.5000         0.8203       1343.221       -25.0633      -1.945206      0.9807101
     17245.0000         0.8052       1341.188       -25.0604      -1.942915      0.9807568
     17245.5000         0.7984       1326.914       -25.0574      -1.940523      0.9808056
     17246.0000         0.8006       1312.641       -25.0545      -1.938232      0.9808524
     17246.5000         0.8095       1298.367       -25.0515      -1.935841      0.9809012
     17247.0000         0.8216       1284.092       -25.0486      -1.933548       0.980948
     17247.5000         0.8338       1265.012       -25.0456      -1.931158      0.9809968
     17248.0000         0.8458       1231.904       -25.0426      -1.928766      0.9810456
     17248.5000          0.858       1198.898       -25.0397      -1.926474      0.9810924
     17249.0000         0.8701       1191.365       -25.0367       -1.92408      0.9811412
     17249.5000         0.8822       1199.318       -25.0338      -1.921789       0.981188
     17250.0000         0.8944       1208.115       -25.0308      -1.919397      0.9812368
     17250.5000         0.8949       1217.037       -25.0278      -1.917006      0.9812856
     17251.0000         0.8938       1225.957       -25.0027      -1.892515      0.9817854
     17251.5000         0.8901       1234.879       -24.9753      -1.865723      0.9823322
     17252.0000         0.8853       1243.799       -24.9479      -1.838932      0.9828789
     17252.5000         0.8804       1252.721       -24.9205       -1.81214      0.9834257
     17253.0000         0.8756       1261.643       -24.8931      -1.785349      0.9839725
     17253.5000         0.8708       1270.537       -24.8657      -1.758556      0.9845192
     17254.0000         0.8659       1279.459       -24.8383      -1.731764      0.9850661
     17254.5000         0.8611       1288.379       -24.7881      -1.682171      0.9860781
     17255.0000         0.8562       1297.301       -24.7283       -1.62298      0.9872861
     17255.5000         0.8514       1302.107       -24.6685      -1.563789      0.9884941
     17256.0000         0.8499       1295.566       -24.6088      -1.504698         0.9897
     17256.5000         0.8514           1289        -24.549      -1.445505      0.9909081
     17257.0000         0.8528       1282.457       -24.4892      -1.386314       0.992116
     17257.5000         0.8543       1275.916       -24.4293      -1.327023      0.9933261
     17258.0000         0.8557       1269.373       -24.3695       -1.26783      0.9945341
     17258.5000         0.8578       1262.832       -24.3107      -1.209639      0.9957216
     17259.0000         0.8634       1255.918       -24.2602      -1.159746      0.9967399
     17259.5000         0.8689       1247.789       -24.2098      -1.109955       0.997756
     17260.0000         0.8745       1239.662       -24.1593      -1.060062      0.9987742
     17260.5000           0.88       1232.055       -24.1089      -1.010271      0.9997904
     17261.0000         0.8856        1240.23       -24.0584     -0.9603786              1
     17261.5000         0.8839       1248.408       -24.0079     -0.9104881              1
     17262.0000         0.8799       1256.611       -23.9575     -0.8606968              1
     17262.5000         0.8759       1264.789       -23.9071     -0.8109055              1
     17263.0000          0.872       1272.967       -23.8566      -0.761013              1
     17263.5000          0.868       1281.145       -23.8405     -0.7455215              1
     17264.0000          0.864       1289.346       -23.8407     -0.7463284              1
     17264.5000           0.86       1297.523       -23.8409     -0.7471371              1
     17265.0000         0.8561       1305.701       -23.8411     -0.7479458              1
     17265.5000         0.8521       1313.904       -23.8413     -0.7487526              1
     17266.0000         0.8506       1320.309       -23.8415     -0.7495613              1
     17266.5000         0.8497       1324.695       -23.8417       -0.75037              1
     17267.0000         0.8488       1329.082       -23.8419     -0.7511787              1
     17267.5000         0.8479       1333.467       -23.8421     -0.7519875              1
     17268.0000          0.847       1337.867       -23.8422     -0.7526951              1
     17268.5000         0.8501       1342.252       -23.8584     -0.7695045              1
     17269.0000         0.8586       1335.809       -23.8911     -0.8028107              1
     17269.5000         0.8672       1323.965       -23.9239     -0.8362198              1
     17270.0000         0.8757       1312.145       -23.9567      -0.869627              1
     17270.5000         0.8843       1300.324       -23.9894     -0.9029369              1
     17271.0000         0.8968       1288.504       -24.0221      -0.936245              1
     17271.5000         0.9118         1266.4       -24.0549     -0.9696522              1
     17272.0000         0.9268       1231.607       -24.0877      -1.003061      0.9999375
     17272.5000         0.9417       1196.717       -24.1205       -1.03647      0.9992557
     17273.0000         0.9547       1148.842       -24.1532      -1.069778      0.9985759
     17273.5000          0.961       1115.338       -24.1859      -1.103086      0.9978962
     17274.0000         0.9477       1106.119       -24.2143      -1.132093      0.9973042
     17274.5000         0.9344        1132.09       -24.2382      -1.156601      0.9968041
     17275.0000         0.9211       1154.641        -24.262      -1.181009      0.9963059
     17275.5000         0.9078        1177.24       -24.2859      -1.205519      0.9958057
     17276.0000         0.8945       1199.789       -24.3098      -1.230026      0.9953056
     17276.5000         0.8812        1222.34       -24.3337      -1.254536      0.9948054
     17277.0000         0.8679       1245.584       -24.3576      -1.279043      0.9943053
     17277.5000         0.8555       1271.059       -24.3815      -1.303553      0.9938051
     17278.0000         0.8521       1296.631       -24.4054       -1.32806      0.9933049
     17278.5000         0.8488       1322.105       -24.4293       -1.35257      0.9928047
     17279.0000         0.8455       1339.402       -24.4531      -1.376978      0.9923066
     17279.5000         0.8421        1347.01        -24.477      -1.401484      0.9918064
     17280.0000         0.8388       1354.594       -24.5009      -1.425993      0.9913062
     17280.5000         0.8355       1362.201       -24.5247      -1.450401      0.9908081
     17281.0000         0.8321       1368.246       -24.5487       -1.47501      0.9903059
     17281.5000         0.8408       1352.438       -24.5726      -1.499517      0.9898058
     17282.0000         0.8542       1336.627       -24.5965      -1.524027      0.9893056
     17282.5000         0.8676       1320.816       -24.6102      -1.538336      0.9890136
     17283.0000          0.881       1305.008       -24.6201      -1.548843      0.9887991
     17283.5000         0.8945       1289.197       -24.6301      -1.559452      0.9885826
     17284.0000         0.9079       1273.387         -24.64       -1.56996      0.9883682
     17284.5000         0.9187       1257.527         -24.65      -1.580566      0.9881517
     17285.0000         0.9238       1241.719       -24.6599      -1.591076      0.9879372
     17285.5000         0.9242       1225.908       -24.6699      -1.601685      0.9877207
