#------------------------------------------------------------------------------
# Created by    : vladimir.rabinovich
# Created on    : 09/19/2023 17:20:44
#------------------------------------------------------------------------------
~Version Information Section
VERS.           2.0     :   CWLS log ASCII Standard - VERSION 2.0
WRAP.           NO      :   One line per depth step
~Well Information Section
#MNEM       .UNIT                                         VALUE :DESCRIPTION
#------------------------------------------------------------------------------
STRT        .FT                                             390 :START DEPTH
STOP        .FT                                           18486 :STOP DEPTH
STEP        .FT                                             0.5 :STEP      
NULL        .                                           -999.25 :NULL      
COMP        .                           SOCONY MOBIL OIL CO INC :COMPANY   
WELL        .                                     JANIE HAWKINS :WELL      
FLD         .                                           WILDCAT :FIELD     
LOC         .                                                   :LOCATION  
CNTY        .                                         MATAGORDA :LOCATION  
STAT        .                                             TEXAS :STATE     
CTRY        .                                     UNITED STATES :COUNTRY   
SRVC        .                                                   :SERVICE COMPANY
DATE        .                             9/13/2023 11:18:46 AM :LOG DATE  
API         .                                    42321025990000 :API NUMBER
UWI         .                                    42321025990000 :UNIQUE WELL ID
XCOORD      .                                  768943.736103792 :SURFACE X 
YCOORD      .                                  10479372.3345515 :SURFACE Y 
LAT         .                                        28.8489235 :LATITUDE  
LON         .                                       -95.7226077 :LONGITUDE 
ELEV        .FT                                              39 :ELEVATION VALUE
ELEV_TYPE   .                                                KB :ELEVATION REFERENCE TYPE
~Curve Information Section
#MNEM       .UNIT                                      API CODE :CURVE DESCRIPTION
#------------------------------------------------------------------------------
DEPT        .FT                                                 :DEPTH     
ASN         .OHMM                                               :          
CILD        .MMHO                                               :          
SP          .MV                                                 :          
SP_NORM     .MV                                                 :SP Normalized
VSH_SP      .V/V                                                :Volume of Shale from SP
~A        DEPTH            ASN           CILD             SP        SP_NORM         VSH_SP
# ...
      5186.0000         1.3144       3048.961       -126.437      -86.21362              0
      5186.5000         1.3088       3061.906      -126.3381      -86.10818              0
      5187.0000         1.3036       3074.848      -126.2391      -86.00266              0
      5187.5000         1.2985       3083.617      -126.1403      -85.89732              0
      5188.0000         1.2908       3092.176      -126.0414      -85.79188              0
      5188.5000         1.2811       3099.961      -125.9425      -85.68644              0
      5189.0000         1.2715       3103.945      -125.7762       -85.5136              0
      5189.5000         1.2481       3099.074      -125.5215      -85.25237              0
      5190.0000         1.2227       3093.961      -125.2664      -84.99073   0.0001103537
      5190.5000         1.1807       3088.855      -125.0112      -84.72899    0.003226326
      5191.0000         1.1281       3083.742      -124.7561      -84.46736    0.006340935
      5191.5000         1.0822       3076.895      -124.9528      -84.65752    0.004077185
      5192.0000         1.0566       3060.625      -125.2498      -84.94798   0.0006192525
      5192.5000         1.1035       3044.355       -125.547      -85.23863              0
      5193.0000          1.137       3028.594        -125.77      -85.45509              0
      5193.5000         1.1593       3039.145      -125.9801      -85.65866              0
      5194.0000          1.181       3073.496      -126.1902      -85.86223              0
      5194.5000         1.2016       3126.738      -126.4001      -86.06559              0
      5195.0000         1.2204       3173.602      -126.6102      -86.26915              0
      5195.5000         1.2093        3212.52      -126.7817      -86.43411              0
      5196.0000         1.1494       3255.461      -126.6085      -86.25437              0
      5196.5000         1.0933       3303.563      -126.4353      -86.07464              0
      5197.0000         1.0604       3351.566      -126.2621       -85.8949              0
      5197.5000         1.0303       3396.023      -125.7407      -85.36696              0
      5198.0000          0.994       3426.207      -124.8672      -84.48692    0.006108057
      5198.5000         0.9508       3454.602      -123.9937      -83.60689     0.01658467
      5199.0000         0.8757       3480.391        -123.12      -82.72665     0.02706364
      5199.5000         0.8143       3500.063      -122.1578       -81.7579     0.03859638
      5200.0000         0.7689       3463.762      -121.0753      -80.66887     0.05156108
      5200.5000         0.7378       3370.531      -119.9915      -79.57854     0.06454123
      5201.0000         0.7134       3266.754      -119.1669      -78.74739     0.07443582
      5201.5000         0.6899        3273.52      -118.5332      -78.10716     0.08205759
      5202.0000         0.6647       3280.289      -117.9003      -77.46772        0.08967
      5202.5000         0.6358       3287.051      -117.2672      -76.82808     0.09728477
      5203.0000         0.6116       3293.734      -116.7592      -76.31355      0.1034102
      5203.5000         0.5941        3300.41      -116.2582      -75.80601      0.1094523
      5204.0000         0.5818       3304.656      -115.7572      -75.29847      0.1154944
      5204.5000         0.5933       3280.578      -115.2562      -74.79093      0.1215365
      5205.0000         0.6376       3252.754      -115.4519      -74.98009      0.1192847
      5205.5000         0.6832        3216.07      -116.2473      -75.76895      0.1098934
      5206.0000         0.7214       3176.703      -117.0433      -76.55841      0.1004951
      5206.5000         0.7638        3054.41      -117.8395      -77.34808     0.09109424
      5207.0000         0.8079       2873.313      -118.9338      -78.43584      0.0781448
      5207.5000         0.8496        2058.68       -120.196       -79.6915     0.06319646
      5208.0000         0.9125       1913.621      -121.4584      -80.94736     0.04824575
      5208.5000         1.0055       1801.031      -122.5781      -82.06053     0.03499367
      5209.0000         1.0977       1757.693      -123.6495      -83.12539      0.0223168
      5209.5000         1.1636       1734.475      -124.7208      -84.19016    0.009641011
      5210.0000         1.2507       1731.855       -125.752      -85.21481              0
      5210.5000         1.3686       1908.111      -126.6571      -86.11337              0
      5211.0000         1.3978       2031.426       -127.563      -87.01274              0
      5211.5000         1.4212       2115.969      -128.1606       -87.6038              0
      5212.0000         1.4651       2372.719      -128.4817      -87.91837              0
      5212.5000         1.4988       2745.434       -128.803      -88.23312              0
      5213.0000         1.4194       3032.465       -129.124      -88.54758              0
      5213.5000         1.3551       3150.813      -129.4453      -88.86235              0
      5214.0000         1.3307       3246.672      -129.7141       -89.1246              0
      5214.5000         1.3035       3292.891      -129.9692      -89.37317              0
      5215.0000         1.2513       3329.305      -130.2244      -89.62183              0
      5215.5000         1.2261       3339.145      -130.4797      -89.87061              0
      5216.0000         1.2046       3336.875      -130.7349      -90.11925              0
      5216.5000         1.1881       3319.672        -130.99      -90.36783              0
      5217.0000         1.1838       3294.875      -131.2454      -90.61669              0
      5217.5000         1.2008       3272.266      -131.6868      -91.05154              0
      5218.0000         1.2182       3253.809      -132.1509       -91.5091              0
      5218.5000         1.2049       3235.355       -132.615      -91.96667              0
      5219.0000         1.1653       3221.367      -133.0793      -92.42443              0
      5219.5000         1.1223       3214.797      -133.4675      -92.80609              0
      5220.0000         1.0776       3210.383      -133.8328      -93.16485              0
      5220.5000         1.0186       3214.676      -133.0413      -92.36682              0
      5221.0000         0.8885       3218.969      -131.9563      -91.27528              0
      5221.5000          0.792       3225.035      -130.8701      -90.18254              0
      5222.0000         0.7662       3233.477      -129.3708      -88.67671              0
      5222.5000          0.749       3241.914      -127.8531      -87.15247              0
      5223.0000         0.7761       3250.352      -126.3341      -85.62692              0
      5223.5000         0.8188        3226.57       -124.613      -83.89929     0.01310367
      5224.0000         0.8464       3181.395       -122.851      -82.13075     0.03415771
      5224.5000         0.8544        3059.57       -120.366      -79.63921     0.06381889
      5225.0000         0.8214       2831.363      -117.9554      -77.22208     0.09259433
      5225.5000         0.7656       2782.664      -112.4001      -71.66024      0.1588067
      5226.0000         0.7234       2695.098      -107.2269       -66.4805      0.2204702
      5226.5000         0.7989       2609.016        -104.67      -63.91706      0.2509874
      5227.0000         0.8733       2555.699      -105.0061      -64.24663      0.2470639
      5227.5000         0.9069         2529.5      -105.8889      -65.12289      0.2366323
      5228.0000         0.9414       2545.137      -106.7719      -65.99934      0.2261983
      5228.5000         0.9897       2565.031      -107.6547      -66.87561      0.2157665
      5229.0000         0.9975       2606.137      -108.5376      -67.75197      0.2053337
      5229.5000         0.9678       2679.012      -109.4514      -68.65924      0.1945328
