#------------------------------------------------------------------------------
# Created by    : vladimir.rabinovich
# Created on    : 09/19/2023 17:20:44
#------------------------------------------------------------------------------
~Version Information Section
VERS.           2.0     :   CWLS log ASCII Standard - VERSION 2.0
WRAP.           NO      :   One line per depth step
~Well Information Section
#MNEM       .UNIT                                         VALUE :DESCRIPTION
#------------------------------------------------------------------------------
STRT        .FT                                             390 :START DEPTH
STOP        .FT                                           18486 :STOP DEPTH
STEP        .FT                                             0.5 :STEP      
NULL        .                                           -999.25 :NULL      
COMP        .                           SOCONY MOBIL OIL CO INC :COMPANY   
WELL        .                                     JANIE HAWKINS :WELL      
FLD         .                                           WILDCAT :FIELD     
LOC         .                                                   :LOCATION  
CNTY        .                                         MATAGORDA :LOCATION  
STAT        .                                             TEXAS :STATE     
CTRY        .                                     UNITED STATES :COUNTRY   
SRVC        .                                                   :SERVICE COMPANY
DATE        .                             9/13/2023 11:18:46 AM :LOG DATE  
API         .                                    42321025990000 :API NUMBER
UWI         .                                    42321025990000 :UNIQUE WELL ID
XCOORD      .                                  768943.736103792 :SURFACE X 
YCOORD      .                                  10479372.3345515 :SURFACE Y 
LAT         .                                        28.8489235 :LATITUDE  
LON         .                                       -95.7226077 :LONGITUDE 
ELEV        .FT                                              39 :ELEVATION VALUE
ELEV_TYPE   .                                                KB :ELEVATION REFERENCE TYPE
~Curve Information Section
#MNEM       .UNIT                                      API CODE :CURVE DESCRIPTION
#------------------------------------------------------------------------------
DEPT        .FT                                                 :DEPTH     
ASN         .OHMM                                               :          
CILD        .MMHO                                               :          
SP          .MV                                                 :          
SP_NORM     .MV                                                 :SP Normalized
VSH_SP      .V/V                                                :Volume of Shale from SP
~A        DEPTH            ASN           CILD             SP        SP_NORM         VSH_SP
# ...
      8794.0000         0.4243       2729.969       -29.6702    -0.04057121              1
      8794.5000         0.4198       2746.289       -29.6812    -0.05157089              1
      8795.0000         0.4154       2738.961       -29.6921    -0.06247139              1
      8795.5000         0.4109       2721.945         -29.72    -0.09037018              1
      8796.0000         0.4065       2704.953       -29.8718     -0.2421703              1
      8796.5000         0.4117       2687.965       -30.0233      -0.393671              1
      8797.0000         0.4191       2670.973       -30.1748     -0.5451717              1
      8797.5000         0.4265        2653.98       -30.3263     -0.6966705              1
      8798.0000         0.4338       2636.992       -30.3285     -0.6988716              1
      8798.5000         0.4412       2608.402       -30.2796      -0.649971              1
      8799.0000         0.4486       2571.238       -30.2307     -0.6010704              1
      8799.5000          0.456       2534.129       -30.1818     -0.5521717              1
      8800.0000         0.4634       2486.535       -30.1329     -0.5032711              1
      8800.5000         0.4687       2417.082       -30.0753     -0.4456711              1
      8801.0000         0.4729        2331.93       -30.0139     -0.3842716              1
      8801.5000         0.4772       2281.754       -29.9525     -0.3228703              1
      8802.0000         0.4815       2201.965       -29.8911     -0.2614708              1
      8802.5000         0.4799       2140.559       -29.8297     -0.2000713              1
      8803.0000         0.4733       2304.008       -29.8017     -0.1720715              1
      8803.5000         0.4667       2342.609       -29.8054     -0.1757717              1
      8804.0000         0.4611       2381.262       -29.8091     -0.1794701              1
      8804.5000         0.4576       2424.684       -29.8128     -0.1831703              1
      8805.0000         0.4541        2468.75       -29.8165     -0.1868706              1
      8805.5000         0.4506       2512.766       -29.8203       -0.19067              1
      8806.0000         0.4471       2556.781        -29.824     -0.1943703              1
      8806.5000         0.4436       2600.848       -29.8277     -0.1980705              1
      8807.0000         0.4401       2625.219       -29.8314     -0.2017708              1
      8807.5000         0.4366       2636.992       -29.8425     -0.2128716              1
      8808.0000         0.4331       2640.918       -29.8998     -0.2701702              1
      8808.5000         0.4296       2639.477       -29.9573     -0.3276711              1
      8809.0000         0.4261       2629.699       -30.0148       -0.38517              1
      8809.5000         0.4228       2619.926       -30.0722     -0.4425716              1
      8810.0000         0.4225       2610.152       -30.1297     -0.5000706              1
      8810.5000         0.4222       2600.379       -30.1872     -0.5575714              1
      8811.0000         0.4218       2590.602       -30.2447     -0.6150703              1
      8811.5000         0.4215       2580.816       -30.3021     -0.6724701              1
      8812.0000         0.4212       2571.039       -30.2914     -0.6617718              1
      8812.5000         0.4208       2561.266       -30.2777     -0.6480713              1
      8813.0000         0.4205        2551.43        -30.264     -0.6343708              1
      8813.5000         0.4202       2541.582       -30.2503     -0.6206703              1
      8814.0000         0.4198        2531.73       -30.2366     -0.6069717              1
      8814.5000         0.4195       2521.883       -30.2229     -0.5932713              1
      8815.0000         0.4205       2529.633       -30.0662     -0.4365711              1
      8815.5000         0.4225       2539.617       -29.9054     -0.2757702              1
      8816.0000         0.4246        2547.23        -29.745     -0.1153717              1
      8816.5000         0.4266       2554.844       -29.5842     0.04542923              1
      8817.0000         0.4287       2562.457       -29.5151      0.1145287              1
      8817.5000         0.4307        2570.07       -29.4716      0.1580296              1
      8818.0000         0.4328       2577.688        -29.428      0.2016296              1
      8818.5000         0.4349       2585.301       -29.3845      0.2451286              1
      8819.0000         0.4369       2592.914       -29.3545      0.2751293              1
      8819.5000         0.4388       2600.527       -29.3812      0.2484283              1
      8820.0000         0.4377        2604.66       -29.4079      0.2217293              1
      8820.5000         0.4366       2607.281       -29.4345      0.1951294              1
      8821.0000         0.4355       2609.898       -29.4612      0.1684284              1
      8821.5000         0.4344       2612.516       -29.4879      0.1417294              1
      8822.0000         0.4333       2615.133       -29.5146      0.1150284              1
      8822.5000         0.4322       2618.406       -29.5413     0.08832932              1
      8823.0000         0.4311        2623.25        -29.568     0.06162834              1
      8823.5000           0.43       2628.098       -29.5946     0.03502846              1
      8824.0000         0.4289       2632.941       -29.6204     0.00922966              1
      8824.5000         0.4278       2626.074       -29.6016     0.02802849              1
      8825.0000         0.4281       2617.504       -29.5828     0.04682922              1
      8825.5000          0.429       2608.922        -29.564     0.06562996              1
      8826.0000           0.43       2600.352       -29.5451     0.08452988              1
      8826.5000         0.4309       2591.672       -29.5263      0.1033287              1
      8827.0000         0.4319       2580.406       -29.5075      0.1221294              1
      8827.5000         0.4328       2569.129       -29.4887      0.1409283              1
      8828.0000         0.4338       2557.863       -29.4698      0.1598282              1
      8828.5000         0.4347       2546.586        -29.451      0.1786289              1
      8829.0000         0.4357        2535.32       -29.4322      0.1974297              1
      8829.5000         0.4366       2524.043       -29.4147      0.2149296              1
      8830.0000         0.4376       2512.777       -29.4015      0.2281284              1
      8830.5000         0.4386         2501.5       -29.3882      0.2414284              1
      8831.0000         0.4395       2493.625        -29.375      0.2546291              1
      8831.5000         0.4405       2489.328       -29.3617      0.2679291              1
      8832.0000         0.4414        2496.82       -29.3484       0.281229              1
      8832.5000         0.4424       2504.309       -29.3457      0.2839298              1
      8833.0000         0.4433       2511.809       -29.5101      0.1195297              1
      8833.5000         0.4439       2519.301       -29.4821      0.1475296              1
      8834.0000         0.4444       2526.789       -29.4234      0.2062283              1
      8834.5000         0.4449       2534.289       -29.3647      0.2649288              1
      8835.0000         0.4455       2541.777        -29.318      0.3116283              1
      8835.5000          0.446       2548.598       -29.2845       0.345129              1
      8836.0000         0.4466       2554.797        -29.251      0.3786297              1
      8836.5000         0.4471       2559.887       -29.2175      0.4121284              1
      8837.0000         0.4476       2553.727        -29.184      0.4456291              1
      8837.5000         0.4482       2547.578       -29.1505      0.4791298              1
