#------------------------------------------------------------------------------
# Created by    : vladimir.rabinovich
# Created on    : 09/19/2023 17:20:44
#------------------------------------------------------------------------------
~Version Information Section
VERS.           2.0     :   CWLS log ASCII Standard - VERSION 2.0
WRAP.           NO      :   One line per depth step
~Well Information Section
#MNEM       .UNIT                                         VALUE :DESCRIPTION
#------------------------------------------------------------------------------
STRT        .FT                                             390 :START DEPTH
STOP        .FT                                           18486 :STOP DEPTH
STEP        .FT                                             0.5 :STEP      
NULL        .                                           -999.25 :NULL      
COMP        .                           SOCONY MOBIL OIL CO INC :COMPANY   
WELL        .                                     JANIE HAWKINS :WELL      
FLD         .                                           WILDCAT :FIELD     
LOC         .                                                   :LOCATION  
CNTY        .                                         MATAGORDA :LOCATION  
STAT        .                                             TEXAS :STATE     
CTRY        .                                     UNITED STATES :COUNTRY   
SRVC        .                                                   :SERVICE COMPANY
DATE        .                             9/13/2023 11:18:46 AM :LOG DATE  
API         .                                    42321025990000 :API NUMBER
UWI         .                                    42321025990000 :UNIQUE WELL ID
XCOORD      .                                  768943.736103792 :SURFACE X 
YCOORD      .                                  10479372.3345515 :SURFACE Y 
LAT         .                                        28.8489235 :LATITUDE  
LON         .                                       -95.7226077 :LONGITUDE 
ELEV        .FT                                              39 :ELEVATION VALUE
ELEV_TYPE   .                                                KB :ELEVATION REFERENCE TYPE
~Curve Information Section
#MNEM       .UNIT                                      API CODE :CURVE DESCRIPTION
#------------------------------------------------------------------------------
DEPT        .FT                                                 :DEPTH     
ASN         .OHMM                                               :          
CILD        .MMHO                                               :          
SP          .MV                                                 :          
SP_NORM     .MV                                                 :SP Normalized
VSH_SP      .V/V                                                :Volume of Shale from SP
~A        DEPTH            ASN           CILD             SP        SP_NORM         VSH_SP
# ...
     10026.0000         0.6997       1337.887        -31.971      -2.341372      0.9726251
     10026.5000         0.7041       1428.469        -32.046      -2.416372      0.9710944
     10027.0000         0.7085       1487.025       -32.1442       -2.51457      0.9690904
     10027.5000         0.7011       1545.584        -32.317      -2.687372      0.9655638
     10028.0000         0.6841        1604.24       -32.4898       -2.86017      0.9620373
     10028.5000         0.6677       1662.799       -32.6625      -3.032869      0.9585128
     10029.0000         0.6513       1721.355        -32.835       -3.20537      0.9549925
     10029.5000         0.6362       1779.914       -33.0078      -3.378172      0.9514659
     10030.0000         0.6252       1830.656       -33.0856      -3.455973      0.9498781
     10030.5000         0.6143       1870.717       -33.1452       -3.51557      0.9486619
     10031.0000         0.6034       1902.814       -33.2048      -3.575171      0.9474455
     10031.5000         0.5942        1913.77       -33.2645      -3.634871      0.9462271
     10032.0000         0.5897       1924.416        -33.324      -3.694372      0.9450128
     10032.5000         0.5852       1933.875       -33.3837      -3.754072      0.9437944
     10033.0000         0.5808           2012       -33.4433      -3.813669      0.9425782
     10033.5000         0.5763       2041.557       -33.3176      -3.687971      0.9451435
     10034.0000         0.5719       2051.953       -33.1664      -3.536772      0.9482291
     10034.5000         0.5692       2044.229       -33.0149      -3.385271       0.951321
     10035.0000         0.5665         2036.5       -32.8634       -3.23377      0.9544129
     10035.5000         0.5757       2028.773       -32.7122      -3.082571      0.9574986
     10036.0000         0.5851           1992       -32.6174      -2.987772      0.9594332
     10036.5000         0.5945       1858.748       -32.5665      -2.936872       0.960472
     10037.0000         0.6038       1797.916       -32.5156      -2.885969      0.9615108
     10037.5000         0.6132       1737.084       -32.4645      -2.834871      0.9625536
     10038.0000         0.6225        1676.25       -32.4136      -2.783972      0.9635924
     10038.5000         0.6319       1615.318       -32.3627      -2.733072      0.9646312
     10039.0000         0.6398       1554.486       -32.3174      -2.687773      0.9655557
     10039.5000         0.6454       1493.654       -32.2733      -2.643671      0.9664557
     10040.0000          0.651       1432.723       -32.2293      -2.599672      0.9673536
     10040.5000         0.6566       1405.174       -32.1852      -2.555571      0.9682537
     10041.0000         0.6622       1428.715       -32.1411      -2.511473      0.9691536
     10041.5000         0.6678       1452.258       -32.0878       -2.45817      0.9702414
     10042.0000         0.6635        1475.75        -31.936      -2.306372      0.9733394
     10042.5000         0.6563       1499.291       -31.7842      -2.154572      0.9764373
     10043.0000         0.6491       1510.766       -31.6324      -2.002771      0.9795353
     10043.5000         0.6451        1521.35       -31.4803      -1.850672      0.9826394
     10044.0000         0.6491       1531.934       -31.3285      -1.698872      0.9857373
     10044.5000         0.6532       1542.518       -31.1767      -1.547071      0.9888353
     10045.0000         0.6572       1557.355       -31.0593       -1.42967      0.9912312
     10045.5000         0.6612       1575.777       -31.0807      -1.451071      0.9907945
     10046.0000         0.6653       1594.201       -31.1021      -1.472471      0.9903578
     10046.5000         0.6693       1621.648       -31.1234      -1.493771      0.9899231
     10047.0000         0.6734       1652.709       -31.1447       -1.51507      0.9894884
     10047.5000         0.6738       1668.264        -31.166      -1.536371      0.9890537
     10048.0000         0.6737       1681.295       -31.1874      -1.557772      0.9886169
     10048.5000         0.6736       1694.352       -31.1403      -1.510672      0.9895781
     10049.0000         0.6736       1707.162        -31.056      -1.426371      0.9912986
     10049.5000         0.6735       1693.363       -30.9718      -1.342171      0.9930169
     10050.0000          0.672       1649.742       -30.8876      -1.257971      0.9947353
     10050.5000         0.6692       1591.678       -30.8033      -1.173672      0.9964557
     10051.0000         0.7466       1523.229       -30.7314       -1.10177      0.9979231
     10051.5000         0.7664       1358.238       -30.6859      -1.056271      0.9988516
     10052.0000         0.7863       1304.033       -30.6404      -1.010771      0.9997802
     10052.5000         0.8061       1282.568       -30.5948     -0.9651718              1
     10053.0000         0.8292       1261.154       -30.5493     -0.9196701              1
     10053.5000         0.8523       1255.521       -30.5038     -0.8741703              1
     10054.0000         0.8583       1260.957       -30.5276     -0.8979702              1
     10054.5000          0.845       1269.352       -30.5715     -0.9418716              1
     10055.0000         0.8342       1277.746       -30.6156     -0.9859715              1
     10055.5000         0.8252       1286.143       -30.6595      -1.029871      0.9993904
     10056.0000         0.8162       1294.525       -30.7035      -1.073872      0.9984924
     10056.5000         0.8072       1294.203       -30.7476      -1.117971      0.9975924
     10057.0000         0.7982        1279.75       -30.7928      -1.163172      0.9966699
     10057.5000         0.7892       1239.641       -30.9221      -1.292471      0.9940312
     10058.0000         0.7802       1199.529       -31.0511      -1.421471      0.9913986
     10058.5000         0.7712       1168.719       -31.1801       -1.55047      0.9887659
     10059.0000         0.7622       1143.248       -31.3093       -1.67967      0.9861292
     10059.5000         0.7532       1124.145       -31.4383       -1.80867      0.9834965
     10060.0000         0.7487       1118.172       -31.4737       -1.84407      0.9827741
     10060.5000          0.745       1111.719       -31.4528      -1.823172      0.9832006
     10061.0000         0.7413        1104.93       -31.4319      -1.802271      0.9836271
     10061.5000         0.7376       1087.213        -31.411       -1.78137      0.9840537
     10062.0000         0.7338       1057.043        -31.403      -1.773371      0.9842169
     10062.5000         0.7301       1026.873       -31.4304      -1.800772      0.9836577
     10063.0000         0.7276       1028.605       -31.4577      -1.828072      0.9831006
     10063.5000         0.7251       1045.248       -31.4851      -1.855471      0.9825414
     10064.0000         0.7226       1063.967       -31.5124      -1.882771      0.9819843
     10064.5000           0.72       1087.262       -31.5398      -1.910172       0.981425
     10065.0000         0.7175       1110.557       -31.5672      -1.937571      0.9808659
     10065.5000         0.7121       1137.807       -31.6163      -1.986671      0.9798638
     10066.0000         0.7059       1169.807       -31.6743       -2.04467      0.9786802
     10066.5000         0.6997       1204.377       -31.7321       -2.10247      0.9775006
     10067.0000         0.6935       1234.545         -31.79      -2.160372       0.976319
     10067.5000         0.6873       1261.549       -31.8479      -2.218271      0.9751373
     10068.0000         0.6756       1289.789       -31.9058      -2.276171      0.9739557
     10068.5000         0.6577       1318.969       -31.9637       -2.33407      0.9727741
     10069.0000         0.6398       1425.105       -32.0308      -2.401171      0.9714047
     10069.5000         0.6219       1530.746       -32.1057      -2.476072      0.9698761
