#------------------------------------------------------------------------------
# Created by    : vladimir.rabinovich
# Created on    : 09/19/2023 17:20:44
#------------------------------------------------------------------------------
~Version Information Section
VERS.           2.0     :   CWLS log ASCII Standard - VERSION 2.0
WRAP.           NO      :   One line per depth step
~Well Information Section
#MNEM       .UNIT                                         VALUE :DESCRIPTION
#------------------------------------------------------------------------------
STRT        .FT                                             390 :START DEPTH
STOP        .FT                                           18486 :STOP DEPTH
STEP        .FT                                             0.5 :STEP      
NULL        .                                           -999.25 :NULL      
COMP        .                           SOCONY MOBIL OIL CO INC :COMPANY   
WELL        .                                     JANIE HAWKINS :WELL      
FLD         .                                           WILDCAT :FIELD     
LOC         .                                                   :LOCATION  
CNTY        .                                         MATAGORDA :LOCATION  
STAT        .                                             TEXAS :STATE     
CTRY        .                                     UNITED STATES :COUNTRY   
SRVC        .                                                   :SERVICE COMPANY
DATE        .                             9/13/2023 11:18:46 AM :LOG DATE  
API         .                                    42321025990000 :API NUMBER
UWI         .                                    42321025990000 :UNIQUE WELL ID
XCOORD      .                                  768943.736103792 :SURFACE X 
YCOORD      .                                  10479372.3345515 :SURFACE Y 
LAT         .                                        28.8489235 :LATITUDE  
LON         .                                       -95.7226077 :LONGITUDE 
ELEV        .FT                                              39 :ELEVATION VALUE
ELEV_TYPE   .                                                KB :ELEVATION REFERENCE TYPE
~Curve Information Section
#MNEM       .UNIT                                      API CODE :CURVE DESCRIPTION
#------------------------------------------------------------------------------
DEPT        .FT                                                 :DEPTH     
ASN         .OHMM                                               :          
CILD        .MMHO                                               :          
SP          .MV                                                 :          
SP_NORM     .MV                                                 :SP Normalized
VSH_SP      .V/V                                                :Volume of Shale from SP
~A        DEPTH            ASN           CILD             SP        SP_NORM         VSH_SP
# ...
     18430.0000         1.1854       1054.873       -22.5351      -2.618959        0.96696
     18430.5000         1.1987       1042.334       -22.5113      -2.597725      0.9673934
     18431.0000         1.2121       1029.994       -22.4852      -2.574194      0.9678736
     18431.5000         1.2206       1017.654       -22.4568      -2.548361      0.9684008
     18432.0000         1.2244       1005.313       -22.4285      -2.522627       0.968926
     18432.5000         1.2283       994.3604       -22.4001      -2.496796      0.9694532
     18433.0000         1.2322       992.5391       -22.3716      -2.470863      0.9699824
     18433.5000         1.2361       994.2119       -22.3432      -2.445032      0.9705095
     18434.0000         1.2399       1002.736       -22.3148      -2.419199      0.9710367
     18434.5000         1.2438       1011.261       -22.2865      -2.393467      0.9715619
     18435.0000         1.2474        1019.81       -22.2581      -2.367634      0.9720891
     18435.5000         1.2503       1028.334       -22.2297      -2.341801      0.9726163
     18436.0000         1.2531       1036.859       -22.2013      -2.315969      0.9731435
     18436.5000          1.256       1048.926       -22.1729      -2.290136      0.9736707
     18437.0000         1.2225       1072.121       -22.1445      -2.264305      0.9741979
     18437.5000         1.1753       1095.316       -22.1161      -2.238472      0.9747251
     18438.0000         1.1619       1119.502       -22.0877      -2.212639      0.9752523
     18438.5000         1.1494       1143.785       -22.0593      -2.186806      0.9757795
     18439.0000         1.1369       1165.988       -22.0309      -2.160975      0.9763066
     18439.5000         1.1244       1187.895       -22.0025      -2.135143      0.9768338
     18440.0000         1.1114       1209.801       -21.9741       -2.10931       0.977361
     18440.5000         1.0965       1226.057       -21.9457      -2.083477      0.9778882
     18441.0000         1.0817       1237.654       -21.9173      -2.057644      0.9784154
     18441.5000         1.0668       1249.252       -21.8889      -2.031813      0.9789426
     18442.0000         1.0518       1233.938       -21.8605      -2.005981      0.9794698
     18442.5000         1.0363         1215.5       -21.8321      -1.980148       0.979997
     18443.0000         1.0209       1197.113       -21.8214      -1.972015       0.980163
     18443.5000         1.0055       1178.727       -21.8191      -1.972282      0.9801575
     18444.0000         1.0194        1160.34       -21.8168      -1.972549      0.9801521
     18444.5000         1.0406       1141.902       -21.8145      -1.972818      0.9801466
     18445.0000         1.0618       1123.516       -21.8122      -1.973087      0.9801411
     18445.5000         1.0915       1098.092       -21.8099      -1.973354      0.9801356
     18446.0000         1.1246       1071.922       -21.8076      -1.973621      0.9801302
     18446.5000         1.1578       1046.449       -21.8053      -1.973888      0.9801247
     18447.0000         1.1716       1073.607        -21.803      -1.974155      0.9801193
     18447.5000           1.14       1100.768       -21.8007      -1.974422      0.9801138
     18448.0000         1.1085        1121.93       -21.7984      -1.974693      0.9801083
     18448.5000          1.077       1142.498       -21.7961       -1.97496      0.9801028
     18449.0000         1.0456       1163.115       -21.7938      -1.975227      0.9800974
     18449.5000         1.0148       1183.682       -21.7915      -1.975494      0.9800919
     18450.0000         1.0008       1199.145       -21.7892      -1.975761      0.9800865
     18450.5000          1.021       1187.004       -21.7869      -1.976028      0.9800811
     18451.0000         1.0412       1174.811       -21.7846      -1.976297      0.9800755
     18451.5000         1.0614       1162.967       -21.7936      -1.987865      0.9798395
     18452.0000         1.0808       1152.385       -21.8203      -2.017132      0.9792422
     18452.5000         1.0888       1141.803        -21.847        -2.0464      0.9786449
     18453.0000         1.0956       1141.184       -21.8736      -2.075567      0.9780496
     18453.5000         1.0901       1145.955       -21.9003      -2.104834      0.9774524
     18454.0000         1.0847       1150.725        -21.927      -2.134104       0.976855
     18454.5000         1.0792       1155.494       -21.9537       -2.16337      0.9762577
     18455.0000         1.0737       1160.266       -21.9803      -2.192539      0.9756625
     18455.5000         1.0682       1165.035        -22.007      -2.221806      0.9750652
     18456.0000         1.0627       1169.805       -22.0128      -2.230173      0.9748944
     18456.5000         1.0572       1174.576       -21.9933       -2.21324        0.97524
     18457.0000         1.0525       1179.346       -21.9738       -2.19631      0.9755855
     18457.5000         1.0493       1184.115       -21.9542      -2.179277      0.9759331
     18458.0000         1.0461       1191.859       -21.9291      -2.156744       0.976393
     18458.5000         1.0429        1199.74       -21.8952      -2.125412      0.9770324
     18459.0000         1.0397       1207.596       -21.8612      -2.093979      0.9776739
     18459.5000         1.0365       1215.451       -21.8272      -2.062546      0.9783154
     18460.0000         1.0333       1223.332       -21.7932      -2.031113      0.9789569
     18460.5000         1.0301       1231.186       -21.7593      -1.999783      0.9795963
     18461.0000         1.0269       1239.066       -21.7253      -1.968349      0.9802378
     18461.5000         1.0237       1231.955       -21.6913      -1.936916      0.9808792
     18462.0000         1.0205       1217.186       -21.6573      -1.904215      0.9815466
     18462.5000         1.0172       1202.119       -21.6234      -1.870314      0.9822385
     18463.0000         1.0163       1187.053       -21.5894      -1.836313      0.9829324
     18463.5000         1.0181       1172.035       -21.5554      -1.802315      0.9836262
     18464.0000         1.0199       1156.969       -21.5214      -1.768314      0.9843201
     18464.5000         1.0217       1153.363       -21.4874      -1.734314       0.985014
     18465.0000         1.0317       1157.354       -21.4532      -1.700113       0.985712
     18465.5000         1.0522       1161.344       -21.4184      -1.665314      0.9864222
     18466.0000         1.0726       1165.332       -21.3836      -1.630514      0.9871324
     18466.5000          1.093       1169.322       -21.3488      -1.595715      0.9878426
     18467.0000          1.067       1173.313        -21.314      -1.560913      0.9885528
     18467.5000         1.0457       1177.301       -21.2792      -1.526114       0.989263
     18468.0000         1.0271       1180.498       -21.2444      -1.491314      0.9899732
     18468.5000         1.0321        1183.41       -21.2097      -1.456614      0.9906814
     18469.0000         1.0586       1186.322       -21.1748      -1.421715      0.9913936
     18469.5000         1.0815       1189.246         -21.14      -1.386913      0.9921038
     18470.0000         1.0756       1192.158       -21.1053      -1.352215      0.9928119
     18470.5000         1.0698       1195.082       -21.0704      -1.317314      0.9935242
     18471.0000         1.0639       1197.992       -21.0356      -1.282515      0.9942344
     18471.5000         1.0588       1200.904       -21.0009      -1.247814      0.9949425
     18472.0000          1.056       1203.828       -20.9661      -1.213015      0.9956527
     18472.5000         1.0533        1206.74       -20.9623      -1.209213      0.9957303
     18473.0000         1.0505       1209.652       -20.9898      -1.236713      0.9951691
     18473.5000         1.0478       1212.576       -21.0172      -1.264114      0.9946099
