#------------------------------------------------------------------------------
# Created by    : vladimir.rabinovich
# Created on    : 09/19/2023 17:20:44
#------------------------------------------------------------------------------
~Version Information Section
VERS.           2.0     :   CWLS log ASCII Standard - VERSION 2.0
WRAP.           NO      :   One line per depth step
~Well Information Section
#MNEM       .UNIT                                         VALUE :DESCRIPTION
#------------------------------------------------------------------------------
STRT        .FT                                             390 :START DEPTH
STOP        .FT                                           18486 :STOP DEPTH
STEP        .FT                                             0.5 :STEP      
NULL        .                                           -999.25 :NULL      
COMP        .                           SOCONY MOBIL OIL CO INC :COMPANY   
WELL        .                                     JANIE HAWKINS :WELL      
FLD         .                                           WILDCAT :FIELD     
LOC         .                                                   :LOCATION  
CNTY        .                                         MATAGORDA :LOCATION  
STAT        .                                             TEXAS :STATE     
CTRY        .                                     UNITED STATES :COUNTRY   
SRVC        .                                                   :SERVICE COMPANY
DATE        .                             9/13/2023 11:18:46 AM :LOG DATE  
API         .                                    42321025990000 :API NUMBER
UWI         .                                    42321025990000 :UNIQUE WELL ID
XCOORD      .                                  768943.736103792 :SURFACE X 
YCOORD      .                                  10479372.3345515 :SURFACE Y 
LAT         .                                        28.8489235 :LATITUDE  
LON         .                                       -95.7226077 :LONGITUDE 
ELEV        .FT                                              39 :ELEVATION VALUE
ELEV_TYPE   .                                                KB :ELEVATION REFERENCE TYPE
~Curve Information Section
#MNEM       .UNIT                                      API CODE :CURVE DESCRIPTION
#------------------------------------------------------------------------------
DEPT        .FT                                                 :DEPTH     
ASN         .OHMM                                               :          
CILD        .MMHO                                               :          
SP          .MV                                                 :          
SP_NORM     .MV                                                 :SP Normalized
VSH_SP      .V/V                                                :Volume of Shale from SP
~A        DEPTH            ASN           CILD             SP        SP_NORM         VSH_SP
# ...
      2810.0000         1.2185       691.9521       -46.2023      -6.696129       0.908127
      2810.5000         1.2165       704.1826       -45.9796      -6.473427      0.9117189
      2811.0000         1.2028       716.4199       -45.8384       -6.33223      0.9139963
      2811.5000         1.1739       734.5469       -45.7809      -6.274727      0.9149238
      2812.0000         1.1489       753.3037       -45.7234      -6.217228      0.9158512
      2812.5000         1.1293       774.0166       -45.6659      -6.159729      0.9167786
      2813.0000         1.1113       794.7295       -45.6084      -6.102226       0.917706
      2813.5000          1.103       817.7432       -45.5807      -6.074528      0.9181527
      2814.0000         1.0947       845.2246       -45.7806      -6.274429      0.9149286
      2814.5000         1.0863       872.6924       -45.9806      -6.474426      0.9117028
      2815.0000         1.0765       898.3545       -46.1805      -6.674328      0.9084786
      2815.5000         1.0636       921.0225       -46.3804      -6.874229      0.9052544
      2816.0000         1.0507       940.5166       -46.6784      -7.172226       0.900448
      2816.5000         1.0377       956.7373        -47.009      -7.502827      0.8951157
      2817.0000         1.0265        972.959       -47.3397      -7.833527      0.8897818
      2817.5000         1.0154       989.1797       -47.6705       -8.16433      0.8844463
      2818.0000         1.0044       997.1328       -48.0011      -8.494926      0.8791141
      2818.5000         0.9934       953.6006       -48.3305      -8.824329      0.8738011
      2819.0000         0.9874       936.5137       -48.3024      -8.796227      0.8742544
      2819.5000         0.9827       923.1816       -48.2742      -8.768028      0.8747092
      2820.0000         0.9779       909.8555        -48.246      -8.739826      0.8751641
      2820.5000         0.9732       917.9727       -48.2178      -8.711628      0.8756189
      2821.0000         0.9684       932.8633       -48.1897      -8.683529      0.8760721
      2821.5000         0.9636        953.292       -47.9537      -8.447529      0.8798786
      2822.0000         0.9589       973.7197       -47.5945      -8.088329      0.8856721
      2822.5000         0.9541       992.2178       -47.2355      -7.729328      0.8914624
      2823.0000         0.9494       1008.179       -46.8765      -7.370327      0.8972528
      2823.5000         0.9446       1024.146       -46.5125      -7.006329      0.9031237
      2824.0000         0.9398       1040.113       -45.9809      -6.474728      0.9116979
      2824.5000         0.9351       1053.154       -45.4493      -5.943127      0.9202722
      2825.0000         0.9303       1065.053       -44.9177       -5.41153      0.9288463
      2825.5000         0.9256       1075.807       -44.0284      -4.522228      0.9431899
      2826.0000         0.9208       1069.178       -42.9227      -3.416527      0.9610237
      2826.5000          0.916       1062.553       -42.1182      -2.612026      0.9739996
      2827.0000         0.9113       1051.219       -42.5178      -3.011627      0.9675544
      2827.5000         0.9065       1039.383       -42.9175      -3.411327      0.9611076
      2828.0000         0.9015       1027.543       -43.3172      -3.811028      0.9546608
      2828.5000         0.8966       1016.516       -43.6028      -4.096626      0.9500544
      2829.0000         0.8917       1008.396       -43.8234      -4.317226      0.9464964
      2829.5000         0.8868        1009.62       -44.0438      -4.537628      0.9429415
      2830.0000         0.8819        1022.03       -44.2644      -4.758228      0.9393834
      2830.5000          0.877       1034.441       -44.4849      -4.978729       0.935827
      2831.0000         0.8738       1046.875       -44.7053      -5.199127      0.9322721
      2831.5000         0.8719       1059.316       -44.5046      -4.998428      0.9355092
      2832.0000           0.87       1071.758       -44.2475      -4.741329       0.939656
      2832.5000         0.8681       1084.205       -43.9904      -4.484226      0.9438028
      2833.0000         0.8661       1096.646       -43.7332      -4.227028      0.9479511
      2833.5000         0.8649       1107.984       -43.4761      -3.969929       0.952098
      2834.0000         0.8657       1102.932       -42.8556      -3.349426       0.962106
      2834.5000         0.8672       1094.357        -42.072      -2.565826      0.9747447
      2835.0000         0.8709       1082.084       -41.2883      -1.782127       0.987385
      2835.5000         0.8745       1069.809       -40.5047     -0.9985275              1
      2836.0000         0.8782       1060.412       -39.7152     -0.2090263              1
      2836.5000         0.8818       1051.113       -38.8456      0.6605721              1
      2837.0000         0.8855       1041.777        -37.976        1.53017              1
      2837.5000           0.89        1032.35       -37.1064       2.399773              1
      2838.0000         0.8952       1022.928       -36.4768       3.029373              1
      2838.5000         0.9004       1013.506       -36.2777       3.228474              1
      2839.0000         0.9056       1003.211       -36.4777       3.028473              1
      2839.5000         0.9108        992.125       -36.6776       2.828571              1
      2840.0000          0.916       981.0449       -36.8775       2.628674              1
      2840.5000         0.9215        969.958       -37.0773       2.428871              1
      2841.0000         0.9302       954.3682       -37.4191        2.08707              1
      2841.5000         0.9389       933.1973       -37.7806       1.725571              1
      2842.0000         0.9476       910.7275       -38.1422       1.363972              1
      2842.5000         0.9607       881.6016       -38.5037       1.002472              1
      2843.0000          0.975       860.5977       -38.8652      0.6409721              1
      2843.5000         1.0479       843.6719       -39.2267      0.2794724              1
      2844.0000         1.1059       798.3174       -39.5883    -0.08212662              1
      2844.5000         1.1462       759.4658       -39.9497     -0.4435272              1
      2845.0000         1.1928       721.7773       -40.2663      -0.760128              1
      2845.5000         1.2389       690.4736       -40.5475      -1.041328      0.9993334
      2846.0000         1.2796       662.4355       -40.8287      -1.322529      0.9947979
      2846.5000          1.305       636.8232       -41.1099      -1.603729      0.9902624
      2847.0000         1.3266       612.9307       -41.3911       -1.88493       0.985727
      2847.5000         1.3357       598.8867       -41.7912      -2.285027      0.9792737
      2848.0000         1.3448       597.2783       -42.6541      -3.147926      0.9653561
      2848.5000         1.3539       635.5361       -43.5169      -4.010727      0.9514399
      2849.0000          1.363       657.8945         -44.38      -4.873829      0.9375189
      2849.5000         1.3764       676.8379       -45.3608       -5.85463      0.9216995
      2850.0000         1.3931       699.5801       -46.6644      -7.158226      0.9006737
      2850.5000          1.427         749.79       -47.9678      -8.461628      0.8796512
      2851.0000         1.5441       810.9385       -51.7791      -12.27293      0.8181786
      2851.5000          1.591       881.1436       -57.0596      -17.55343      0.7330092
      2852.0000         1.6175        951.374        -61.783      -22.27683      0.6568254
      2852.5000         1.6432       1021.579       -67.0437      -27.53753      0.5719754
      2853.0000         1.6678       1091.809       -69.7665      -30.26033      0.5280592
      2853.5000         1.6923       1162.014       -72.3822      -32.87603      0.4858705
