#------------------------------------------------------------------------------
# Created by    : vladimir.rabinovich
# Created on    : 09/19/2023 17:20:44
#------------------------------------------------------------------------------
~Version Information Section
VERS.           2.0     :   CWLS log ASCII Standard - VERSION 2.0
WRAP.           NO      :   One line per depth step
~Well Information Section
#MNEM       .UNIT                                         VALUE :DESCRIPTION
#------------------------------------------------------------------------------
STRT        .FT                                             390 :START DEPTH
STOP        .FT                                           18486 :STOP DEPTH
STEP        .FT                                             0.5 :STEP      
NULL        .                                           -999.25 :NULL      
COMP        .                           SOCONY MOBIL OIL CO INC :COMPANY   
WELL        .                                     JANIE HAWKINS :WELL      
FLD         .                                           WILDCAT :FIELD     
LOC         .                                                   :LOCATION  
CNTY        .                                         MATAGORDA :LOCATION  
STAT        .                                             TEXAS :STATE     
CTRY        .                                     UNITED STATES :COUNTRY   
SRVC        .                                                   :SERVICE COMPANY
DATE        .                             9/13/2023 11:18:46 AM :LOG DATE  
API         .                                    42321025990000 :API NUMBER
UWI         .                                    42321025990000 :UNIQUE WELL ID
XCOORD      .                                  768943.736103792 :SURFACE X 
YCOORD      .                                  10479372.3345515 :SURFACE Y 
LAT         .                                        28.8489235 :LATITUDE  
LON         .                                       -95.7226077 :LONGITUDE 
ELEV        .FT                                              39 :ELEVATION VALUE
ELEV_TYPE   .                                                KB :ELEVATION REFERENCE TYPE
~Curve Information Section
#MNEM       .UNIT                                      API CODE :CURVE DESCRIPTION
#------------------------------------------------------------------------------
DEPT        .FT                                                 :DEPTH     
ASN         .OHMM                                               :          
CILD        .MMHO                                               :          
SP          .MV                                                 :          
SP_NORM     .MV                                                 :SP Normalized
VSH_SP      .V/V                                                :Volume of Shale from SP
~A        DEPTH            ASN           CILD             SP        SP_NORM         VSH_SP
# ...
     13634.0000         0.9804       1330.988       -26.9918      -1.063604      0.9987019
     13634.5000         0.9979       1306.408       -26.9773      -1.049372      0.9989924
     13635.0000         1.0301       1267.533       -26.9627      -1.035038      0.9992849
     13635.5000         1.0935       1213.922       -26.9482      -1.020805      0.9995754
     13636.0000         1.1524       1160.408       -26.9337      -1.006573      0.9998659
     13636.5000         1.2077       1106.797       -26.9191      -0.992239              1
     13637.0000         1.2629       1053.186       -26.9046     -0.9780064              1
     13637.5000         1.3181       999.5732       -26.8901     -0.9637737              1
     13638.0000         1.3714       945.9619       -26.8755     -0.9494381              1
     13638.5000          1.397       898.9775       -26.8613     -0.9355049              1
     13639.0000         1.4248        850.459       -26.8472     -0.9216728              1
     13639.5000         1.5184       862.9971       -26.8331     -0.9078388              1
     13640.0000         1.6718       881.3701        -26.819     -0.8940067              1
     13640.5000         1.6413       901.6484       -26.8049     -0.8801727              1
     13641.0000         1.6109        921.876       -26.7908     -0.8663406              1
     13641.5000          1.573       942.1533       -26.7767     -0.8525066              1
     13642.0000         1.5318       962.4316       -26.7625     -0.8385754              1
     13642.5000         1.4906       982.6592       -26.7484     -0.8247414              1
     13643.0000         1.4495       1002.937       -26.7343     -0.8109093              1
     13643.5000         1.4118       1022.065       -26.7202     -0.7970753              1
     13644.0000         1.3822       1023.218       -26.7061     -0.7832413              1
     13644.5000         1.3525       1024.369        -26.692     -0.7694073              1
     13645.0000         1.3281       1025.523       -26.6779     -0.7555752              1
     13645.5000         1.3114       1026.676       -26.6638     -0.7417412              1
     13646.0000         1.2978       1011.295       -26.6496      -0.727808              1
     13646.5000         1.2847       994.1826       -26.6355     -0.7139759              1
     13647.0000         1.2725       977.0215       -26.6214     -0.7001438              1
     13647.5000         1.2676       959.9092       -26.6073     -0.6863098              1
     13648.0000         1.2627       942.7471       -26.6006     -0.6798763              1
     13648.5000         1.2681       925.6348       -26.5974     -0.6769447              1
     13649.0000         1.2936       908.5225       -26.5943     -0.6741104              1
     13649.5000         1.3192       891.3604       -26.5911     -0.6711788              1
     13650.0000         1.3447       894.3779        -26.588     -0.6683445              1
     13650.5000         1.3706       919.3535       -26.5848      -0.665411              1
     13651.0000           1.38       955.5566       -26.5816     -0.6624775              1
     13651.5000         1.3442       991.6602       -26.5785     -0.6596451              1
     13652.0000         1.3083       1027.764       -26.5753     -0.6567116              1
     13652.5000         1.2798       1065.945       -26.5721     -0.6537781              1
     13653.0000         1.2515       1104.621        -26.569     -0.6509457              1
     13653.5000         1.2232       1143.297       -26.5658     -0.6480122              1
     13654.0000         1.1864       1181.973       -26.5627     -0.6451797              1
     13654.5000         1.1421       1220.648       -26.5595     -0.6422462              1
     13655.0000         1.0927       1259.424       -26.5564     -0.6394138              1
     13655.5000         1.0653       1298.098       -26.5532     -0.6364803              1
     13656.0000         1.0378       1336.773         -26.55     -0.6335468              1
     13656.5000          1.025       1375.449       -26.5469     -0.6307144              1
     13657.0000         1.0141       1414.125       -26.5437      -0.627779              1
     13657.5000         1.0032       1448.994       -26.5406     -0.6249466              1
     13658.0000         0.9954       1451.416       -26.5374     -0.6220131              1
     13658.5000         1.0048       1429.211       -26.5342     -0.6190815              1
     13659.0000         1.0142       1407.004       -26.5236     -0.6087475              1
     13659.5000         1.0236       1378.021       -26.5042     -0.5896149              1
     13660.0000         1.0613       1327.773       -26.4846      -0.570282              1
     13660.5000         1.1004       1277.523       -26.4651     -0.5510483              1
     13661.0000         1.1395       1213.625       -26.4456     -0.5318165              1
     13661.5000         1.1786       1142.604       -26.4261     -0.5125828              1
     13662.0000          1.213       1123.711       -26.4066      -0.493351              1
     13662.5000         1.2293       1142.109       -26.3871     -0.4741173              1
     13663.0000         1.1777       1160.508       -26.3677     -0.4549828              1
     13663.5000          1.126       1178.906       -26.3481     -0.4356499              1
     13664.0000         1.0707       1197.305       -26.3286     -0.4164162              1
     13664.5000         1.0179       1215.355       -26.3091     -0.3971825              1
     13665.0000         1.0426       1231.381       -26.2896     -0.3779507              1
     13665.5000         1.0672       1247.404       -26.2701      -0.358717              1
     13666.0000         1.0918        1263.43       -26.2506     -0.3394852              1
     13666.5000         1.1275       1279.453       -26.2311     -0.3202515              1
     13667.0000         1.1707       1268.275       -26.2117     -0.3011189              1
     13667.5000         1.1894       1238.553       -26.1921      -0.281786              1
     13668.0000         1.1873       1208.928       -26.1726     -0.2625523              1
     13668.5000          1.179       1189.984       -26.1532     -0.2434196              1
     13669.0000         1.1657       1170.992       -26.1336     -0.2240868              1
     13669.5000         1.1524       1201.162       -26.1142     -0.2049522              1
     13670.0000         1.1392       1259.225       -26.0915      -0.182518              1
     13670.5000         1.1259       1317.289       -26.0668     -0.1580849              1
     13671.0000         1.1152       1320.244       -26.0421     -0.1336536              1
     13671.5000         1.1073       1315.965       -26.0175     -0.1093197              1
     13672.0000         1.0994       1307.693       -25.9928    -0.08488655              1
     13672.5000         1.0915       1268.227       -25.9682     -0.0605545              1
     13673.0000         1.0846       1228.857       -25.9435    -0.03612137              1
     13673.5000         1.0842        1189.49       -25.9188    -0.01168823              1
     13674.0000         1.0837       1150.023       -25.8941      0.0127449              1
     13674.5000         1.0833       1110.654       -25.8694     0.03717804              1
     13675.0000         1.0904       1095.719       -25.8448     0.06151009              1
     13675.5000         1.1104       1088.732       -25.8202     0.08584595              1
     13676.0000         1.1304         1081.5       -25.7955      0.1102791              1
     13676.5000         1.1503       1073.834       -25.7708      0.1347122              1
     13677.0000         1.1703       1066.193       -25.7461      0.1591454              1
     13677.5000         1.1903       1058.527       -25.7215      0.1834774              1
