#------------------------------------------------------------------------------
# Created by    : vladimir.rabinovich
# Created on    : 09/19/2023 17:19:42
#------------------------------------------------------------------------------
~Version Information Section
VERS.           2.0     :   CWLS log ASCII Standard - VERSION 2.0
WRAP.           NO      :   One line per depth step
~Well Information Section
#MNEM       .UNIT                                         VALUE :DESCRIPTION
#------------------------------------------------------------------------------
STRT        .FT                                             583 :START DEPTH
STOP        .FT                                            6498 :STOP DEPTH
STEP        .FT                                             0.5 :STEP      
NULL        .                                           -999.25 :NULL      
COMP        .                                        EXXON CORP :COMPANY   
WELL        .                                     ST TR 00692-S :WELL      
FLD         .                                           WILDCAT :FIELD     
LOC         .                                                   :LOCATION  
CNTY        .                      MATAGORDA ISLAND SMALL BLOCK :LOCATION  
STAT        .                                             TEXAS :STATE     
CTRY        .                                     UNITED STATES :COUNTRY   
SRVC        .                                                   :SERVICE COMPANY
DATE        .                             9/13/2023 11:19:17 AM :LOG DATE  
API         .                                    42603301950000 :API NUMBER
UWI         .                                    42603301950000 :UNIQUE WELL ID
XCOORD      .                                  518375.599551337 :SURFACE X 
YCOORD      .                                  10266878.6313095 :SURFACE Y 
LAT         .                                        28.2472954 :LATITUDE  
LON         .                                       -96.4850657 :LONGITUDE 
ELEV        .FT                                              89 :ELEVATION VALUE
ELEV_TYPE   .                                                KB :ELEVATION REFERENCE TYPE
~Curve Information Section
#MNEM       .UNIT                                      API CODE :CURVE DESCRIPTION
#------------------------------------------------------------------------------
DEPT        .FT                                                 :DEPTH     
ASFL        .OHMM                                               :          
CILD        .MMHO                                               :          
GR          .GAPI                                               :          
GR_NORM     .GAPI                                               :GammaRay Normalized
ILD         .OHMM                                               :          
SP          .MV                                                 :          
SP_NORM     .MV                                                 :SP Normalized
VSH_GR      .V/V                                                :Volume of Shale from GR
VSH_SP      .V/V                                                :Volume of Shale from SP
~A        DEPTH           ASFL           CILD             GR        GR_NORM            ILD             SP        SP_NORM         VSH_GR         VSH_SP
# ...
      1404.5000         0.7726       1381.893        54.5997       61.81097         0.7236           -6.8      -4.950292      0.6129993      0.8595099
      1405.0000         0.7627       1405.796        55.3913       63.03097         0.7113           -6.4      -4.537996      0.6389568      0.8791431
      1405.5000         0.7487       1445.624        57.1729       65.77759         0.6917             -6        -4.1257      0.6973955      0.8987762
      1406.0000         0.7209       1481.469         71.232       87.45705          0.675          -5.64      -3.753404              1      0.9165046
      1406.5000          0.699       1511.341        82.7165       105.1663         0.6617          -6.44      -4.541109              1      0.8789948
      1407.0000         0.6811       1543.204         82.419       104.7068          0.648          -6.64      -4.728813              1      0.8700565
      1407.5000         0.6632       1571.084        81.2304       102.8732         0.6365          -6.84      -4.916518              1      0.8611182
      1408.0000         0.6552       1581.047        79.4933       100.1937         0.6325          -7.04      -5.104222              1      0.8521799
      1408.5000         0.6513       1585.039        77.7563       97.51443         0.6309          -7.24      -5.291926              1      0.8432416
      1409.0000         0.6513       1624.861        74.0998       91.87512         0.6154          -7.64       -5.67963              1      0.8247795
      1409.5000         0.6513       1616.903        74.0008       91.72175         0.6185          -8.04      -6.067335              1      0.8063174
      1410.0000         0.6573       1607.637        72.8055       89.87779          0.622          -8.52       -6.53504              1      0.7840457
      1410.5000         0.6613       1598.372        71.6101       88.03368         0.6256             -9      -7.002744              1      0.7617741
      1411.0000         0.6613       1589.106        70.4148       86.18972         0.6293             -9      -6.990448              1      0.7623596
      1411.5000         0.6593        1579.84        69.2194       84.34561          0.633             -9      -6.978153              1      0.7629451
      1412.0000         0.6593       1570.574         68.024       82.50152         0.6367             -9      -6.965857              1      0.7635306
      1412.5000         0.6553       1559.249        66.8287       80.65755         0.6413          -8.92      -6.873561              1      0.7679256
      1413.0000         0.6554        1587.12        65.6333       78.81348         0.6301          -8.52      -6.461267      0.9747548      0.7875587
      1413.5000         0.6514       1607.033         64.438        76.9695         0.6223          -8.84       -6.76897      0.9355212      0.7729062
      1414.0000         0.6514        1642.87        63.2426        75.1254         0.6087           -9.4      -7.316674      0.8962852       0.746825
      1414.5000         0.6474       1642.879        62.0473       73.28143         0.6087          -9.96      -7.864379      0.8570516      0.7207438
      1415.0000         0.6435       1690.656        60.8519       71.43733         0.5915         -10.52      -8.412084      0.8178156      0.6946627
      1415.5000         0.6375        1794.16        59.6565       69.59323         0.5574         -11.04      -8.919787      0.7785794      0.6704863
      1416.0000         0.6315       1897.661        55.5436       63.25012          0.527          -11.6      -9.467493      0.6436195      0.6444051
      1416.5000         0.6256       1909.608        52.0429       57.85107         0.5237         -12.16       -10.0152      0.5287462       0.618324
      1417.0000         0.6117       1947.428        48.5422       52.45201         0.5135            -13       -10.8429      0.4138727      0.5789095
      1417.5000         0.6077       1969.326        45.0817       47.11496         0.5047          -12.8      -10.63061      0.3003182      0.5890188
      1418.0000         0.6037       1977.292        46.3688       49.09906         0.5047          -12.2      -10.01831      0.3425331      0.6181757
      1418.5000         0.6037       1977.297        48.9219       53.03541         0.4977         -11.64      -9.446014      0.4262854      0.6454279
      1419.0000         0.5998       1979.292        51.4749       56.97161         0.4977         -11.08      -8.873718      0.5100343      0.6726801
      1419.5000         0.5998       1979.297         54.028       60.90796         0.4885         -10.52      -8.301423      0.5937864      0.6999322
      1420.0000         0.5859       1977.313        56.5811       64.84431         0.4866          -9.92      -7.689127      0.6775385      0.7290892
      1420.5000         0.5819       1969.358        59.1341       68.78052         0.4862          -9.36      -7.116831      0.7612876      0.7563413
      1421.0000         0.5819       1854.633         60.623       71.07579         0.5392          -9.04      -6.784536      0.8101232      0.7721649
      1421.5000         0.5819       1805.119        61.1178       71.83809          0.554          -9.24       -6.97224      0.8263423      0.7632266
      1422.0000         0.5839       1755.605        61.8706       72.99827         0.5696          -9.36      -7.079945       0.851027      0.7580979
      1422.5000         0.5899       1706.091        62.6234       74.15841         0.5861          -9.44      -7.147649      0.8757108      0.7548739
      1423.0000         0.6019       1652.992        63.3763       75.31874          0.605          -9.32      -7.015353      0.9003987      0.7611737
      1423.5000         0.6238       1457.992        63.8878        76.1068         0.6859          -8.96      -6.643058      0.9171659       0.778902
      1424.0000         0.6496       1428.155        63.7885       75.95295         0.7213          -8.56      -6.230762      0.9138926      0.7985351
      1424.5000         0.6775       1410.259        63.0542       74.81989         0.7231          -8.16      -5.818467      0.8897849      0.8181683
      1425.0000         0.7074       1410.271        62.3198       73.68668         0.7249          -7.76      -5.406171      0.8656741      0.8378013
      1425.5000         0.7313       1384.416        61.8067       72.89471         0.7223          -7.36      -4.993876      0.8488237      0.8574345
      1426.0000          0.781       1403.246        61.6084       72.58821         0.7126          -7.76       -5.38158      0.8423024      0.8389724
      1426.5000          0.789       1422.076        51.3104       56.70722         0.7032          -8.92      -6.529284       0.504409      0.7843198
      1427.0000         0.8049       1440.906        51.3101       56.70607          0.694         -10.12      -7.716989      0.5043845      0.7277625
      1427.5000         0.8069       1459.736        51.3094       56.70427         0.6851         -11.72      -9.304693      0.5043461      0.6521575
      1428.0000          0.799       1476.003        51.3094       56.70356         0.6775         -10.72      -8.292397       0.504331       0.700362
      1428.5000          0.799        1444.18        54.7311       61.97935         0.6924          -9.72      -7.280102       0.616582      0.7485666
      1429.0000          0.793       1444.192        58.1528       67.25515         0.6924          -8.72      -6.267807       0.728833      0.7967711
      1429.5000         0.7851        1414.36        61.5745       72.53095          0.707          -7.68       -5.21551      0.8410841      0.8468804
      1430.0000         0.7771       1340.758        64.1784       76.54565         0.7458          -6.68      -4.203215      0.9265031       0.895085
      1430.5000         0.7732       1263.178        65.1989       78.11861         0.7917          -5.68      -3.190919      0.9599704      0.9432896
