#------------------------------------------------------------------------------
# Created by    : vladimir.rabinovich
# Created on    : 09/19/2023 17:20:26
#------------------------------------------------------------------------------
~Version Information Section
VERS.           2.0     :   CWLS log ASCII Standard - VERSION 2.0
WRAP.           NO      :   One line per depth step
~Well Information Section
#MNEM       .UNIT                                         VALUE :DESCRIPTION
#------------------------------------------------------------------------------
STRT        .FT                                             500 :START DEPTH
STOP        .FT                                            8974 :STOP DEPTH
STEP        .FT                                             0.5 :STEP      
NULL        .                                           -999.25 :NULL      
COMP        .                                    G M A OFFSHORE :COMPANY   
WELL        .                                     ST TR 00112-S :WELL      
FLD         .                                           WILDCAT :FIELD     
LOC         .                                                   :LOCATION  
CNTY        .                           HIGH ISLAND SMALL BLOCK :LOCATION  
STAT        .                                             TEXAS :STATE     
CTRY        .                                     UNITED STATES :COUNTRY   
SRVC        .                                                   :SERVICE COMPANY
DATE        .                             9/13/2023 11:19:17 AM :LOG DATE  
API         .                                    42606300040000 :API NUMBER
UWI         .                                    42606300040000 :UNIQUE WELL ID
XCOORD      .                                   1218436.6654802 :SURFACE X 
YCOORD      .                                  10720928.6649768 :SURFACE Y 
LAT         .                                        29.5343489 :LATITUDE  
LON         .                                        -94.327329 :LONGITUDE 
ELEV        .FT                                              63 :ELEVATION VALUE
ELEV_TYPE   .                                                KB :ELEVATION REFERENCE TYPE
~Curve Information Section
#MNEM       .UNIT                                      API CODE :CURVE DESCRIPTION
#------------------------------------------------------------------------------
DEPT        .FT                                                 :DEPTH     
ASN         .OHMM                                               :          
CILD        .MMHO                                               :          
GR          .GAPI                                               :          
GR_NORM     .GAPI                                               :GammaRay Normalized
ILD         .OHMM                                               :          
SP          .MV                                                 :          
SP_NORM     .MV                                                 :SP Normalized
VSH_GR      .V/V                                                :Volume of Shale from GR
VSH_SP      .V/V                                                :Volume of Shale from SP
~A        DEPTH            ASN           CILD             GR        GR_NORM            ILD             SP        SP_NORM         VSH_GR         VSH_SP
# ...
      3892.0000         0.8921        1416.34        -999.25        -999.25         0.8222       -58.9277      -12.26865        -999.25      0.8247335
      3892.5000         0.8911       1453.143        -999.25        -999.25          0.802       -60.6989      -14.03837        -999.25      0.7994518
      3893.0000         0.8809       1489.943        -999.25        -999.25         0.7764         -62.47      -15.80799        -999.25      0.7741715
      3893.5000         0.8713       1550.451        -999.25        -999.25         0.7407       -64.4308      -17.76731        -999.25      0.7461813
      3894.0000         0.8624       1639.346        -999.25        -999.25          0.705        -66.432      -19.76702        -999.25       0.717614
      3894.5000         0.8534       1728.537        -999.25        -999.25         0.6693       -68.4641      -21.79764        -999.25      0.6886051
      3895.0000         0.8444       1801.096        -999.25        -999.25         0.6336        -70.989      -24.32105        -999.25      0.6525564
      3895.5000         0.8354       1866.086        -999.25        -999.25         0.5979       -73.5139      -26.84447        -999.25      0.6165075
      3896.0000         0.8306       1926.842        -999.25        -999.25         0.5622       -76.5776      -29.90669        -999.25      0.5727616
      3896.5000         0.8271       1960.258        -999.25        -999.25         0.5265       -80.1781      -33.50571        -999.25       0.521347
      3897.0000         0.8237       2031.375        -999.25        -999.25         0.4908       -87.5596      -40.88572        -999.25      0.4159182
      3897.5000         0.8202           2280        -999.25        -999.25          0.456       -95.6055      -48.93014        -999.25       0.300998
      3898.0000         0.8168        2528.75        -999.25        -999.25         0.4239       -99.9982      -53.32135        -999.25      0.2382664
      3898.5000         0.8133        2738.68        -999.25        -999.25         0.3918      -103.2665      -56.58817        -999.25      0.1915975
      3899.0000         0.8099        2849.91        -999.25        -999.25         0.3596      -105.9341      -59.25429        -999.25      0.1535102
      3899.5000         0.7994       3000.855        -999.25        -999.25         0.3275      -106.9984       -60.3171        -999.25      0.1383271
      3900.0000         0.7888       3019.492        -999.25        -999.25         0.2954      -108.0619      -61.37912        -999.25      0.1231554
      3900.5000         0.7575       3033.512        -999.25        -999.25         0.2633      -109.1254      -62.44114        -999.25      0.1079838
      3901.0000         0.7236       3049.309        -999.25        -999.25          0.231      -110.5015      -63.81576        -999.25     0.08834632
      3901.5000         0.6952       3060.391        -999.25        -999.25         0.1983      -112.0886      -65.40137        -999.25     0.06569476
      3902.0000         0.6669       3030.336        -999.25        -999.25         0.1954      -113.4375      -66.74879        -999.25     0.04644579
      3902.5000         0.6473       2834.719        -999.25        -999.25         0.2154      -114.2019       -67.5117        -999.25     0.03554709
      3903.0000         0.6331       2721.027        -999.25        -999.25         0.2354      -114.9664      -68.27472        -999.25     0.02464687
      3903.5000         0.6188        2582.68        -999.25        -999.25         0.2554      -115.3109      -68.61774        -999.25     0.01974662
      3904.0000         0.5965       2466.449        -999.25        -999.25         0.2754      -114.8646      -68.16995        -999.25     0.02614354
      3904.5000         0.5968        2149.75        -999.25        -999.25         0.2954      -114.4183      -67.72217        -999.25     0.03254046
      3905.0000         0.5971       1450.602        -999.25        -999.25         0.3154       -113.972      -67.27438        -999.25     0.03893738
      3905.5000         0.5987       1083.176        -999.25        -999.25         0.3354      -113.5256      -66.82651        -999.25     0.04533561
      3906.0000         0.6008       970.0547        -999.25        -999.25         0.3554      -113.1956      -66.49503        -999.25     0.05007106
      3906.5000         0.6029       952.2012        -999.25        -999.25         0.3604      -112.9163      -66.21423        -999.25     0.05408238
      3907.0000         0.6049       1016.892        -999.25        -999.25         0.3647      -112.6371      -65.93356        -999.25     0.05809206
      3907.5000          0.607       1081.582        -999.25        -999.25         0.3689       -112.373      -65.66797        -999.25     0.06188616
      3908.0000         0.6091       1146.271        -999.25        -999.25         0.3731      -112.3481      -65.64159        -999.25     0.06226305
      3908.5000         0.6189       1210.963        -999.25        -999.25         0.3751      -112.9714       -66.2634        -999.25     0.05337993
      3909.0000         0.6359       1287.557        -999.25        -999.25         0.3648      -113.5942      -66.88472        -999.25       0.044504
      3909.5000         0.6529        1345.25        -999.25        -999.25         0.3546      -114.2174      -67.50644        -999.25      0.0356223
      3910.0000         0.6698       1327.271        -999.25        -999.25         0.3443      -114.8407      -68.12825        -999.25     0.02673928
      3910.5000         0.6864       1302.246        -999.25        -999.25         0.3341      -115.1854      -68.47147        -999.25     0.02183609
      3911.0000         0.6937       1274.408        -999.25        -999.25         0.3238      -115.5096      -68.79419        -999.25     0.01722587
      3911.5000         0.6859       1300.803        -999.25        -999.25         0.3136       -115.834      -69.11711        -999.25      0.0126127
      3912.0000         0.6752       1389.646        -999.25        -999.25         0.3033      -116.1586      -69.44022        -999.25    0.007996804
      3912.5000         0.6644        1505.73        -999.25        -999.25         0.2973      -116.4828      -69.76294        -999.25    0.003386579
      3913.0000         0.6537       1577.395        -999.25        -999.25         0.2973      -116.5444      -69.82306        -999.25    0.002527728
      3913.5000         0.6476       1617.084        -999.25        -999.25         0.2974      -116.4126      -69.68977        -999.25    0.004431807
      3914.0000          0.642       1655.057        -999.25        -999.25         0.2974      -116.2806      -69.55629        -999.25    0.006338719
      3914.5000         0.6365       1688.922        -999.25        -999.25         0.2975      -115.9248      -69.19901        -999.25     0.01144278
      3915.0000         0.6309       1721.814        -999.25        -999.25         0.2976      -115.1796      -68.45233        -999.25     0.02210955
      3915.5000         0.6254       1752.043        -999.25        -999.25         0.2976      -114.4343      -67.70554        -999.25     0.03277795
      3916.0000         0.6198       1730.629        -999.25        -999.25         0.2977       -113.689      -66.95876        -999.25     0.04344635
      3916.5000         0.6143       1643.678        -999.25        -999.25         0.2992      -112.7231      -65.99137        -999.25     0.05726613
      3917.0000         0.6089        1528.49        -999.25        -999.25         0.3027      -111.5311      -64.79788        -999.25     0.07431597
      3917.5000         0.6037        1353.99        -999.25        -999.25         0.3061      -110.4888       -63.7541        -999.25     0.08922708
      3918.0000         0.5985         1027.1        -999.25        -999.25         0.3096      -109.9687      -63.23252        -999.25     0.09667827
