#------------------------------------------------------------------------------
# Created by    : vladimir.rabinovich
# Created on    : 09/19/2023 17:20:26
#------------------------------------------------------------------------------
~Version Information Section
VERS.           2.0     :   CWLS log ASCII Standard - VERSION 2.0
WRAP.           NO      :   One line per depth step
~Well Information Section
#MNEM       .UNIT                                         VALUE :DESCRIPTION
#------------------------------------------------------------------------------
STRT        .FT                                             344 :START DEPTH
STOP        .FT                                           10034 :STOP DEPTH
STEP        .FT                                             0.5 :STEP      
NULL        .                                           -999.25 :NULL      
COMP        .                                        TEXACO USA :COMPANY   
WELL        .                                     ST TR 00136-S :WELL      
FLD         .                                           WILDCAT :FIELD     
LOC         .                                                   :LOCATION  
CNTY        .                           HIGH ISLAND SMALL BLOCK :LOCATION  
STAT        .                                             TEXAS :STATE     
CTRY        .                                     UNITED STATES :COUNTRY   
SRVC        .                                                   :SERVICE COMPANY
DATE        .                             9/13/2023 11:19:17 AM :LOG DATE  
API         .                                    42606000310000 :API NUMBER
UWI         .                                    42606000310000 :UNIQUE WELL ID
XCOORD      .                                  1183554.44061246 :SURFACE X 
YCOORD      .                                  10706170.1937531 :SURFACE Y 
LAT         .                                          29.49262 :LATITUDE  
LON         .                                       -94.4364494 :LONGITUDE 
ELEV        .FT                                              52 :ELEVATION VALUE
ELEV_TYPE   .                                                KB :ELEVATION REFERENCE TYPE
~Curve Information Section
#MNEM       .UNIT                                      API CODE :CURVE DESCRIPTION
#------------------------------------------------------------------------------
DEPT        .FT                                                 :DEPTH     
ASN         .OHMM                                               :          
CILD        .MMHO                                               :          
LAT         .OHMM                                               :          
LN          .OHMM                                               :          
SP          .MV                                                 :          
SP_NORM     .MV                                                 :SP Normalized
VSH_SP      .V/V                                                :Volume of Shale from SP
~A        DEPTH            ASN           CILD            LAT             LN             SP        SP_NORM         VSH_SP
# ...
      3560.0000         0.7711        -999.25          0.498         0.7384        -57.387      -5.393589      0.9019347
      3560.5000         0.7567        -999.25         0.5037         0.7339       -57.9151      -5.954964      0.8917279
      3561.0000         0.7424        -999.25         0.5094         0.7294       -58.4822      -6.555344      0.8808119
      3561.5000         0.7304        -999.25         0.5152         0.7249       -59.0823      -7.188721       0.869296
      3562.0000         0.7231        -999.25         0.5209         0.7204       -59.6823      -7.822002      0.8577818
      3562.5000         0.7159        -999.25         0.5266         0.7159       -60.2823       -8.45528      0.8462676
      3563.0000         0.7086        -999.25          0.538         0.7114       -60.8821      -9.088356      0.8347571
      3563.5000         0.7013        -999.25         0.5496         0.7069       -61.4312      -9.670734      0.8241684
      3564.0000         0.6941        -999.25         0.5613         0.7049       -61.0734      -9.346214      0.8300688
      3564.5000         0.6886        -999.25         0.5729          0.703       -60.7159      -9.021996      0.8359637
      3565.0000         0.6843        -999.25         0.5846         0.7012       -60.2548      -8.594173      0.8437423
      3565.5000           0.68        -999.25         0.5962         0.6993       -59.4257      -7.798351      0.8582118
      3566.0000         0.6794        -999.25         0.6079         0.6974       -58.5961      -7.002029      0.8726904
      3566.5000          0.679        -999.25         0.6195         0.6956        -57.767      -6.206207      0.8871599
      3567.0000         0.6791        -999.25         0.6312         0.6937       -56.9379      -5.410389      0.9016293
      3567.5000         0.6836        -999.25         0.6428         0.6918       -55.8914      -4.397167      0.9200515
      3568.0000         0.6881        -999.25         0.6545           0.69       -53.8139      -2.352943      0.9572192
      3568.5000         0.6926        -999.25         0.6661         0.6881       -52.0428     -0.6151237      0.9888159
      3569.0000         0.6985        -999.25         0.6766         0.6883       -50.7899       0.604496              1
      3569.5000         0.7046        -999.25         0.6872         0.6916       -49.5365       1.824619              1
      3570.0000         0.7095        -999.25         0.6978          0.695       -49.0542        2.27364              1
      3570.5000         0.7113        -999.25         0.7083         0.6983       -48.9426       2.351959              1
      3571.0000         0.7128        -999.25         0.7189         0.7016       -49.4904       1.770885              1
      3571.5000         0.7142        -999.25         0.7295          0.705       -49.9777       1.250305              1
      3572.0000         0.7155        -999.25         0.7401         0.7083       -50.4063      0.7884254              1
      3572.5000         0.7168        -999.25         0.7506         0.7116       -50.8349      0.3265457              1
      3573.0000         0.7182        -999.25         0.7612          0.715       -51.2635      -0.135334      0.9975394
      3573.5000         0.7195        -999.25         0.7709          0.718       -51.6918     -0.5969086      0.9891471
      3574.0000         0.7209        -999.25         0.7795         0.7203       -51.5541     -0.4924889      0.9910457
      3574.5000         0.7222        -999.25          0.788         0.7226        -51.298     -0.2696686      0.9950969
      3575.0000         0.7239        -999.25         0.7966         0.7248       -51.0422    -0.04714584      0.9991428
      3575.5000         0.7257        -999.25         0.8051         0.7271       -50.2689      0.6928711              1
      3576.0000         0.7274        -999.25         0.8137         0.7294       -49.4921       1.436398              1
      3576.5000         0.7292        -999.25         0.8223         0.7316       -48.7153       2.179916              1
      3577.0000         0.7309        -999.25         0.8315         0.7323       -47.9385       2.923439              1
      3577.5000         0.7369        -999.25         0.8413         0.7305       -47.3192        3.50946              1
      3578.0000         0.7433        -999.25          0.851         0.7286       -46.9941       3.801281              1
      3578.5000         0.7498        -999.25         0.8607         0.7268       -46.7947       3.967403              1
      3579.0000         0.7563        -999.25         0.8705          0.725        -47.499       3.229824              1
      3579.5000         0.7687        -999.25         0.8802         0.7231       -48.2027       2.492844              1
      3580.0000         0.7822        -999.25         0.8899         0.7213        -48.907       1.755264              1
      3580.5000         0.7956        -999.25         0.8997          0.718       -49.6113       1.017685              1
      3581.0000         0.8084        -999.25         0.9053         0.7111          -50.7       -0.10429      0.9981038
      3581.5000         0.8176        -999.25          0.903         0.7042       -51.8601      -1.297668       0.976406
      3582.0000          0.817        -999.25         0.9007         0.6973       -53.0197      -2.490547      0.9547173
      3582.5000         0.8163        -999.25         0.8907         0.6904       -54.1798      -3.683926      0.9330195
      3583.0000         0.8157        -999.25         0.8733         0.6835       -55.7733      -5.310707      0.9034417
      3583.5000         0.8151        -999.25          0.856         0.6766       -57.5057      -7.076382      0.8713385
      3584.0000          0.813        -999.25         0.8386         0.6697        -59.238      -8.841961      0.8392371
      3584.5000         0.8109        -999.25         0.8213         0.6629       -61.3019      -10.93914      0.8011065
      3585.0000         0.8191        -999.25          0.804         0.6571       -64.2427      -13.91322      0.7470323
      3585.5000         0.8297        -999.25         0.7866         0.6512       -67.5432        -17.247      0.6864182
      3586.0000         0.8405        -999.25         0.7726         0.6453       -71.3496      -21.08668      0.6166059
      3586.5000         0.8513        -999.25         0.7607         0.6395       -75.1426      -24.91296      0.5470372
      3587.0000         0.8446        -999.25         0.7489         0.6336       -78.9017      -28.70534      0.4780848
      3587.5000         0.8317        -999.25         0.7371         0.6278       -81.4996      -31.33652      0.4302451
      3588.0000         0.8188        -999.25         0.7253         0.6219       -82.7289      -32.59909      0.4072893
      3588.5000         0.8058        -999.25         0.7134         0.6161       -83.3053      -33.20877      0.3962042
      3589.0000         0.8056        -999.25         0.7016         0.6102       -82.7576      -32.69435      0.4055573
      3589.5000         0.8127        -999.25         0.6898         0.6067       -80.6003      -30.57033      0.4441758
      3590.0000         0.8199        -999.25         0.6947         0.6046       -78.7084       -28.7117       0.477969
      3590.5000         0.8433        -999.25         0.7019         0.6025       -76.8805      -26.91709      0.5105984
      3591.0000         0.8705        -999.25         0.7091         0.6004       -76.7271      -26.79696      0.5127825
      3591.5000         0.8977        -999.25         0.7163         0.5983       -77.6792      -27.78234      0.4948665
      3592.0000         0.9329        -999.25         0.7234         0.5962       -78.6313      -28.76772      0.4769505
      3592.5000         0.9684        -999.25         0.7306         0.5942       -79.4857       -29.6554      0.4608108
      3593.0000         1.0009        -999.25         0.7378         0.5921        -79.709      -29.91198      0.4561458
