#------------------------------------------------------------------------------
# Created by    : vladimir.rabinovich
# Created on    : 09/19/2023 17:21:28
#------------------------------------------------------------------------------
~Version Information Section
VERS.           2.0     :   CWLS log ASCII Standard - VERSION 2.0
WRAP.           NO      :   One line per depth step
~Well Information Section
#MNEM       .UNIT                                         VALUE :DESCRIPTION
#------------------------------------------------------------------------------
STRT        .FT                                            2437 :START DEPTH
STOP        .FT                                            8654 :STOP DEPTH
STEP        .FT                                             0.5 :STEP      
NULL        .                                           -999.25 :NULL      
COMP        .                                      PELTO OIL CO :COMPANY   
WELL        .                                     ST TR 00163-S :WELL      
FLD         .                                           WILDCAT :FIELD     
LOC         .                                                   :LOCATION  
CNTY        .                             GALVESTON SMALL BLOCK :LOCATION  
STAT        .                                             TEXAS :STATE     
CTRY        .                                     UNITED STATES :COUNTRY   
SRVC        .                                                   :SERVICE COMPANY
DATE        .                             9/13/2023 11:19:17 AM :LOG DATE  
API         .                                    42605301550000 :API NUMBER
UWI         .                                    42605301550000 :UNIQUE WELL ID
XCOORD      .                                  1154226.19631992 :SURFACE X 
YCOORD      .                                  10687289.1653299 :SURFACE Y 
LAT         .                                        29.4396686 :LATITUDE  
LON         .                                       -94.5278571 :LONGITUDE 
ELEV        .FT                                             111 :ELEVATION VALUE
ELEV_TYPE   .                                                KB :ELEVATION REFERENCE TYPE
~Curve Information Section
#MNEM       .UNIT                                      API CODE :CURVE DESCRIPTION
#------------------------------------------------------------------------------
DEPT        .FT                                                 :DEPTH     
CALI        .IN                                                 :          
GR          .GAPI                                               :          
GR_NORM     .GAPI                                               :GammaRay Normalized
ILD         .OHMM                                               :          
ILM         .OHMM                                               :          
NPSS        .%                                                  :Neutron Porosity Sandstone
RHOB        .G/CM3                                              :          
SFL         .OHMM                                               :          
SP          .MV                                                 :          
SP_NORM     .GAPI                                               :SP Normalized
TENS        .LB                                                 :          
VSH_GR      .V/V                                                :Volume of Shale from GR
VSH_SP      .V/V                                                :Volume of Shale from SP
~A        DEPTH           CALI             GR        GR_NORM            ILD            ILM           NPSS           RHOB            SFL             SP        SP_NORM           TENS         VSH_GR         VSH_SP
# ...
      2494.0000        -999.25           43.4       35.29762        -999.25        -999.25        43.9677        -999.25        -999.25        -999.25        -999.25        -999.25     0.04888543        -999.25
      2494.5000        -999.25           43.8       35.79144        -999.25        -999.25        44.5057        -999.25        -999.25        -999.25        -999.25        -999.25     0.05939232        -999.25
      2495.0000        -999.25           43.2        35.0507        -999.25        -999.25        45.5216        -999.25        -999.25        -999.25        -999.25        -999.25     0.04363194        -999.25
      2495.5000        -999.25           42.2       33.81614        -999.25        -999.25        46.0609        -999.25        -999.25        -999.25        -999.25        -999.25     0.01736458        -999.25
      2496.0000        -999.25           40.9        32.2112        -999.25        -999.25        45.4057        -999.25        -999.25        -999.25        -999.25        -999.25              0        -999.25
      2496.5000        -999.25           40.8       32.08774        -999.25        -999.25         44.152        -999.25        -999.25        -999.25        -999.25        -999.25              0        -999.25
      2497.0000        -999.25           42.3       33.93959        -999.25        -999.25        42.2392        -999.25        -999.25        -999.25        -999.25        -999.25     0.01999129        -999.25
      2497.5000        -999.25           46.2        38.7544        -999.25        -999.25          39.48        -999.25        -999.25        -999.25        -999.25        -999.25      0.1224341        -999.25
      2498.0000        -999.25        50.8035       44.43774        -999.25        -999.25          37.08        -999.25        -999.25        -999.25        -999.25        -999.25      0.2433562        -999.25
      2498.5000        -999.25        56.4222        51.3744        -999.25        -999.25          36.54        -999.25        -999.25        -999.25        -999.25        -999.25      0.3909447        -999.25
      2499.0000        -999.25        57.6188       52.85169        -999.25        -999.25          38.82        -999.25        -999.25        -999.25        -999.25        -999.25      0.4223763        -999.25
      2499.5000        -999.25        56.6098       51.60601        -999.25        -999.25          40.98        -999.25        -999.25        -999.25        -999.25        -999.25      0.3958726        -999.25
      2500.0000         12.647        52.8014       46.90428         0.4382         0.4778        43.6196          1.992         0.7782        50.8959      -38.28204        -999.25      0.2958358      0.1492879
      2500.5000        13.0795        50.0029       43.44934         0.3731         0.4843        45.3043         1.9589         0.8035         51.191      -37.79638        -999.25      0.2223264      0.1600804
      2501.0000        13.1592        51.2069       44.93576         0.3835         0.4887        45.6712         1.9698         0.8143        51.1959      -37.78832        -999.25      0.2539524      0.1602595
      2501.5000        13.2389        52.0102       45.92749         0.3998         0.5047         45.858         2.0076         0.8142        51.2007      -37.78042        -999.25      0.2750531      0.1604351
      2502.0000        13.5265        52.3135       46.30193          0.407         0.5412        46.2842         2.0125         0.8103        51.2056      -37.77236        -999.25      0.2830199      0.1606143
      2502.5000        13.6953        52.7164       46.79934         0.4033         0.5748          46.71         2.0003         0.8064        51.3095      -37.60136        -999.25       0.293603      0.1644141
      2503.0000        13.8939        53.2189       47.41971         0.4013         0.5694        46.1781         1.9962         0.8136        51.2158      -37.75557        -999.25      0.3068024      0.1609873
      2503.5000        14.1523        52.7239        46.8086         0.4031          0.572        45.5272          1.995         0.8171        50.9236      -38.23645        -999.25         0.2938       0.150301
      2504.0000        14.4808        51.4322       45.21391         0.4067         0.5772        45.7734         1.9889         0.8132        50.5324      -38.88027        -999.25      0.2598705       0.135994
      2504.5000        14.8097        50.7398        44.3591         0.4104         0.5851        47.0356         1.9757         0.8094        50.2402      -39.36115        -999.25      0.2416829      0.1253079
      2505.0000        15.1363        50.3462       43.87317         0.4122         0.5904        48.4173         1.9586         0.8055        50.0471      -39.67894        -999.25       0.231344      0.1182457
      2505.5000        15.4682        49.7527       43.14045         0.4236          0.593        49.3831         1.9474         0.8017        49.7518      -40.16492        -999.25      0.2157543      0.1074461
      2506.0000        15.2056        49.8576       43.26996         0.4395         0.5902        49.0292         1.9483         0.8052        49.6564      -40.32193        -999.25      0.2185098      0.1039572
      2506.5000        14.8731        51.1553       44.87206         0.4476         0.5874        47.7766         1.9491          0.805        49.5611      -40.47877        -999.25       0.252597      0.1004718
      2507.0000        15.2646        52.9477        47.0849         0.4559         0.5954        46.5312          1.947         0.8048        49.5662      -40.47037        -999.25      0.2996787      0.1006584
      2507.5000        15.3132        54.8375       49.41799         0.4622         0.5953        45.4062         1.9439         0.8046        49.4711      -40.62688        -999.25      0.3493189     0.09718034
      2508.0000        15.0534         55.237       49.91119          0.473         0.6063        45.1157         1.9407         0.8044        49.2763      -40.94747        -999.25      0.3598126     0.09005619
      2508.5000        14.8768        53.9502       48.32255         0.4863         0.6263         45.123         1.9406         0.8043         48.981      -41.43346        -999.25      0.3260117     0.07925644
      2509.0000        14.9077        52.9617       47.10218            0.5         0.6622        44.7734         1.9554         0.8114        48.7862      -41.75404        -999.25      0.3000464     0.07213236
      2509.5000        14.8287        52.4697       46.49478         0.5069         0.6777        43.9486         1.9852         0.8488        48.5915      -42.07447        -999.25      0.2871229     0.06501185
      2510.0000        14.4496        51.9785       45.88836         0.5115         0.6712        42.4115         1.9991         0.9001        48.1976      -42.72272         9.2611      0.2742203      0.0506062
      2510.5000        14.2698        51.1831       44.90638         0.5092         0.6526        41.6415          2.008         0.9578        47.8994      -43.21348         10.297      0.2533273      0.0397004
      2511.0000        14.5887        50.4804       44.03885         0.5046         0.6405        41.9448         2.0009         0.9396        47.5981      -43.70934        10.7921      0.2348691     0.02868135
      2511.5000        15.4647         49.675       43.04453         0.5046         0.6258        42.7799         1.9879         0.8919        47.3966      -44.04096        11.2871      0.2137133     0.02131204
      2512.0000        15.8277         49.265       42.53835         0.4954         0.6142        43.2581         1.9778          0.868         47.195      -44.37273        11.7822      0.2029437     0.01393933
      2512.5000        15.3002         49.055       42.27909         0.4795         0.5973        43.0828         1.9768         0.8563        46.9931      -44.70501        12.2772      0.1974275     0.00655543
