#------------------------------------------------------------------------------
# Created by    : vladimir.rabinovich
# Created on    : 09/19/2023 17:20:26
#------------------------------------------------------------------------------
~Version Information Section
VERS.           2.0     :   CWLS log ASCII Standard - VERSION 2.0
WRAP.           NO      :   One line per depth step
~Well Information Section
#MNEM       .UNIT                                         VALUE :DESCRIPTION
#------------------------------------------------------------------------------
STRT        .FT                                             500 :START DEPTH
STOP        .FT                                            8974 :STOP DEPTH
STEP        .FT                                             0.5 :STEP      
NULL        .                                           -999.25 :NULL      
COMP        .                                    G M A OFFSHORE :COMPANY   
WELL        .                                     ST TR 00112-S :WELL      
FLD         .                                           WILDCAT :FIELD     
LOC         .                                                   :LOCATION  
CNTY        .                           HIGH ISLAND SMALL BLOCK :LOCATION  
STAT        .                                             TEXAS :STATE     
CTRY        .                                     UNITED STATES :COUNTRY   
SRVC        .                                                   :SERVICE COMPANY
DATE        .                             9/13/2023 11:19:17 AM :LOG DATE  
API         .                                    42606300040000 :API NUMBER
UWI         .                                    42606300040000 :UNIQUE WELL ID
XCOORD      .                                   1218436.6654802 :SURFACE X 
YCOORD      .                                  10720928.6649768 :SURFACE Y 
LAT         .                                        29.5343489 :LATITUDE  
LON         .                                        -94.327329 :LONGITUDE 
ELEV        .FT                                              63 :ELEVATION VALUE
ELEV_TYPE   .                                                KB :ELEVATION REFERENCE TYPE
~Curve Information Section
#MNEM       .UNIT                                      API CODE :CURVE DESCRIPTION
#------------------------------------------------------------------------------
DEPT        .FT                                                 :DEPTH     
ASN         .OHMM                                               :          
CILD        .MMHO                                               :          
GR          .GAPI                                               :          
GR_NORM     .GAPI                                               :GammaRay Normalized
ILD         .OHMM                                               :          
SP          .MV                                                 :          
SP_NORM     .MV                                                 :SP Normalized
VSH_GR      .V/V                                                :Volume of Shale from GR
VSH_SP      .V/V                                                :Volume of Shale from SP
~A        DEPTH            ASN           CILD             GR        GR_NORM            ILD             SP        SP_NORM         VSH_GR         VSH_SP
# ...
      2196.0000         0.0786       3267.004        48.1678       59.23141         0.3891       -45.9075        -999.25      0.5581151        -999.25
      2196.5000          0.079       3181.063         48.658       59.90592          0.412        -45.839        -999.25      0.5724664        -999.25
      2197.0000         0.0807       3085.215        50.3069        62.1748         0.4348       -45.7704        -999.25      0.6207405        -999.25
      2197.5000         0.0825       2608.258        52.4775       65.16154         0.4577       -45.7018        -999.25      0.6842882        -999.25
      2198.0000         0.0842       2326.473          56.25       70.35249         0.4806       -45.6332        -999.25      0.7947338        -999.25
      2198.5000          0.086       2024.027        59.0801       74.24668         0.5035       -45.6327        -999.25       0.877589        -999.25
      2199.0000         0.0877       2011.129         61.777        77.9576         0.5264       -45.7095        -999.25      0.9565448        -999.25
      2199.5000         0.0894       1991.756        63.6564       80.54366         0.5526       -45.7862        -999.25              1        -999.25
      2200.0000         0.0905       1772.744        65.1991        82.6664         0.5854        -45.863        -999.25              1        -999.25
      2200.5000         0.0912       1745.789        66.5271       84.49372         0.6182       -45.9398        -999.25              1        -999.25
      2201.0000          0.092       1797.625        67.1198       85.30928          0.651       -46.0165        -999.25              1        -999.25
      2201.5000         0.0928       1857.207        67.7125       86.12484         0.6838       -46.1173        -999.25              1        -999.25
      2202.0000         0.0936       1900.377        67.7002       86.10792         0.7136       -46.3738        -999.25              1        -999.25
      2202.5000         0.0944       1935.791        67.3578       85.63678         0.7031       -46.6302        -999.25              1        -999.25
      2203.0000         0.0942       1956.805        66.7429       84.79066         0.6927       -46.8868        -999.25              1        -999.25
      2203.5000         0.0932        1983.25        65.3473       82.87033         0.6822       -47.1432        -999.25              1        -999.25
      2204.0000         0.0922       1978.061        63.9517       80.94998         0.6753       -47.1389        -999.25              1        -999.25
      2204.5000         0.0911       1959.033        62.5812       79.06418         0.6786         -47.05        -999.25      0.9800889        -999.25
      2205.0000         0.0901       1939.727        61.5771       77.68255         0.6818       -46.9612        -999.25      0.9506925        -999.25
      2205.5000         0.0891       1918.652        60.5734       76.30147          0.685       -46.8723        -999.25      0.9213078        -999.25
      2206.0000          0.088       1897.582        59.5696       74.92022         0.6883       -46.7834        -999.25      0.8919196        -999.25
      2206.5000          0.087       1876.508        58.5659       73.53916         0.6915       -46.6946        -999.25      0.8625354        -999.25
      2207.0000          0.086       1842.916        57.4779       72.04207         0.6947       -46.9438        -999.25      0.8306823        -999.25
      2207.5000         0.0849       1813.678        56.2964       70.41634          0.698       -47.1958        -999.25      0.7960924        -999.25
      2208.0000         0.0839       1827.918        55.2496       68.97594         0.6963       -47.4477        -999.25      0.7654456        -999.25
      2208.5000         0.0829       1910.375        55.7509       69.66572         0.6917       -47.6997        -999.25      0.7801217        -999.25
      2209.0000          0.082       2003.344        56.2523       70.35565         0.6871       -47.9516        -999.25      0.7948011        -999.25
      2209.5000         0.0814       2041.174        56.9756        71.3509         0.6825       -48.1741        -999.25      0.8159766        -999.25
      2210.0000         0.0809       2075.082        53.2051       66.16272         0.6779       -48.3559        -999.25      0.7055898        -999.25
      2210.5000         0.0803       2108.504        52.6393       65.38417         0.6733       -47.6057        -999.25      0.6890249        -999.25
      2211.0000         0.0797       2138.387          52.75       65.53649         0.6687       -47.1659        -999.25      0.6922657        -999.25
      2211.5000         0.0792       2162.227        53.5745       66.67101         0.6641       -46.7262        -999.25      0.7164044        -999.25
      2212.0000         0.0786       2180.711        54.3986       67.80496         0.6595       -46.2864        -999.25      0.7405311        -999.25
      2212.5000         0.0784       2206.461        53.6785        66.8141         0.6543       -45.8467        -999.25       0.719449        -999.25
      2213.0000          0.079       2236.895        50.5509       62.51054         0.6465       -45.4069        -999.25      0.6278839        -999.25
      2213.5000         0.0797       2232.859         50.114       61.90937         0.6387       -45.1851        -999.25       0.615093        -999.25
      2214.0000         0.0803       2220.211        49.9551       61.69073         0.6308       -44.9941        -999.25       0.610441        -999.25
      2214.5000          0.081       2207.574        49.7961       61.47194          0.623        -44.803        -999.25       0.605786        -999.25
      2215.0000         0.0816        2194.93        49.6373       61.25343         0.6152       -44.6121        -999.25      0.6011369        -999.25
      2215.5000         0.0823       2183.641        49.4783       61.03465         0.6074       -44.4827        -999.25      0.5964819        -999.25
      2216.0000          0.083       2174.438        48.9291       60.27895         0.5996       -44.4926        -999.25      0.5804032        -999.25
      2216.5000         0.0836       2159.785        48.2515       59.34657         0.6067       -44.5025        -999.25      0.5605653        -999.25
      2217.0000         0.0843       2141.223        47.5739        58.4142          0.625       -44.5125        -999.25      0.5407277        -999.25
      2217.5000         0.0847       2119.555         47.088        57.7456         0.6433       -44.5224        -999.25      0.5265022        -999.25
      2218.0000         0.0841       2097.129        50.2605       62.11095         0.6615       -44.5323        -999.25       0.619382        -999.25
      2218.5000         0.0835       2106.574        54.7979        68.3544         0.6798       -44.5422        -999.25      0.7522213        -999.25
      2219.0000         0.0829       2141.254        59.3084       74.56081         0.6664       -44.5522        -999.25      0.8842726        -999.25
      2219.5000         0.0824        2197.77        60.5943       76.33022          0.651       -44.5621        -999.25      0.9219195        -999.25
      2220.0000         0.0818       2254.809        61.1763       77.13104         0.6356        -44.563        -999.25      0.9389583        -999.25
      2220.5000         0.0812       2314.453        61.7582       77.93176         0.6202        -44.517        -999.25       0.955995        -999.25
      2221.0000         0.0806       2397.836        62.3402       78.73256          0.609       -44.4709        -999.25      0.9730332        -999.25
      2221.5000           0.08       2490.184         62.913       79.52074         0.6015       -44.4249        -999.25      0.9898029        -999.25
      2222.0000         0.0795       2454.141        63.3569       80.13154          0.594       -44.7292        -999.25              1        -999.25
