#------------------------------------------------------------------------------
# Created by    : vladimir.rabinovich
# Created on    : 09/19/2023 17:20:26
#------------------------------------------------------------------------------
~Version Information Section
VERS.           2.0     :   CWLS log ASCII Standard - VERSION 2.0
WRAP.           NO      :   One line per depth step
~Well Information Section
#MNEM       .UNIT                                         VALUE :DESCRIPTION
#------------------------------------------------------------------------------
STRT        .FT                                             500 :START DEPTH
STOP        .FT                                            8974 :STOP DEPTH
STEP        .FT                                             0.5 :STEP      
NULL        .                                           -999.25 :NULL      
COMP        .                                    G M A OFFSHORE :COMPANY   
WELL        .                                     ST TR 00112-S :WELL      
FLD         .                                           WILDCAT :FIELD     
LOC         .                                                   :LOCATION  
CNTY        .                           HIGH ISLAND SMALL BLOCK :LOCATION  
STAT        .                                             TEXAS :STATE     
CTRY        .                                     UNITED STATES :COUNTRY   
SRVC        .                                                   :SERVICE COMPANY
DATE        .                             9/13/2023 11:19:17 AM :LOG DATE  
API         .                                    42606300040000 :API NUMBER
UWI         .                                    42606300040000 :UNIQUE WELL ID
XCOORD      .                                   1218436.6654802 :SURFACE X 
YCOORD      .                                  10720928.6649768 :SURFACE Y 
LAT         .                                        29.5343489 :LATITUDE  
LON         .                                        -94.327329 :LONGITUDE 
ELEV        .FT                                              63 :ELEVATION VALUE
ELEV_TYPE   .                                                KB :ELEVATION REFERENCE TYPE
~Curve Information Section
#MNEM       .UNIT                                      API CODE :CURVE DESCRIPTION
#------------------------------------------------------------------------------
DEPT        .FT                                                 :DEPTH     
ASN         .OHMM                                               :          
CILD        .MMHO                                               :          
GR          .GAPI                                               :          
GR_NORM     .GAPI                                               :GammaRay Normalized
ILD         .OHMM                                               :          
SP          .MV                                                 :          
SP_NORM     .MV                                                 :SP Normalized
VSH_GR      .V/V                                                :Volume of Shale from GR
VSH_SP      .V/V                                                :Volume of Shale from SP
~A        DEPTH            ASN           CILD             GR        GR_NORM            ILD             SP        SP_NORM         VSH_GR         VSH_SP
# ...
      4448.5000         0.7415       1388.807        -999.25        -999.25         0.7863       -49.6324     -0.9500961        -999.25      0.9864272
      4449.0000         0.7377       1390.717        -999.25        -999.25          0.782       -50.1755       -1.49057        -999.25      0.9787061
      4449.5000         0.7337       1395.268        -999.25        -999.25         0.7778       -50.7184      -2.030846        -999.25      0.9709879
      4450.0000         0.7297       1408.844        -999.25        -999.25         0.7736       -50.8899      -2.199722        -999.25      0.9685754
      4450.5000         0.7258        1428.59        -999.25        -999.25         0.7693       -50.9246      -2.231796        -999.25      0.9681172
      4451.0000         0.7218       1448.486        -999.25        -999.25         0.7651       -50.9594      -2.263973        -999.25      0.9676575
      4451.5000         0.7178       1468.916        -999.25        -999.25         0.7608       -50.8454       -2.14735        -999.25      0.9693236
      4452.0000         0.7138       1489.359        -999.25        -999.25         0.7566       -50.4294      -1.728725        -999.25      0.9753039
      4452.5000         0.7098       1499.742        -999.25        -999.25         0.7523       -50.0135        -1.3102        -999.25      0.9812829
      4453.0000         0.7058        1508.77        -999.25        -999.25         0.7481       -49.5975     -0.8915749        -999.25      0.9872632
      4453.5000         0.7018       1517.801        -999.25        -999.25         0.7439       -49.1815       -0.47295        -999.25      0.9932436
      4454.0000         0.6978       1526.516        -999.25        -999.25         0.7396       -49.2493     -0.5381241        -999.25      0.9923125
      4454.5000         0.6938       1534.641        -999.25        -999.25         0.7354       -49.5224     -0.8086014        -999.25      0.9884486
      4455.0000         0.6902       1541.799        -999.25        -999.25         0.7311       -49.7953      -1.078876        -999.25      0.9845875
      4455.5000         0.6876       1547.311        -999.25        -999.25         0.7269       -50.0685      -1.349453        -999.25      0.9807221
      4456.0000         0.6849       1552.826        -999.25        -999.25         0.7216       -50.3416      -1.619926        -999.25      0.9768582
      4456.5000         0.6823       1566.861        -999.25        -999.25         0.7146       -50.6145      -1.890202        -999.25      0.9729971
      4457.0000         0.6797       1586.371        -999.25        -999.25         0.7075        -50.916      -2.189079        -999.25      0.9687274
      4457.5000          0.677       1610.611        -999.25        -999.25         0.7005       -51.4332      -2.703655        -999.25      0.9613764
      4458.0000         0.6744       1635.188        -999.25        -999.25         0.6934         -51.95      -3.217831        -999.25       0.954031
      4458.5000         0.6718       1656.781        -999.25        -999.25         0.6903       -52.4667      -3.731907        -999.25       0.946687
      4459.0000          0.686       1666.941        -999.25        -999.25         0.7031       -52.9838      -4.246376        -999.25      0.9393375
      4459.5000          0.702       1638.549        -999.25        -999.25         0.7159       -54.5668      -5.826752        -999.25      0.9167607
      4460.0000          0.718       1567.334        -999.25        -999.25         0.7287        -58.402      -9.659328        -999.25      0.8620096
      4460.5000         0.7341       1481.379        -999.25        -999.25         0.7415       -58.5598      -9.814503        -999.25      0.8597928
      4461.0000         0.7502       1393.082        -999.25        -999.25         0.7543       -57.5066      -8.758678        -999.25       0.874876
      4461.5000         0.7595       1355.086        -999.25        -999.25         0.7671       -56.4544      -7.703854        -999.25       0.889945
      4462.0000         0.7687       1329.313        -999.25        -999.25         0.7799       -55.4022      -6.649029        -999.25      0.9050139
      4462.5000         0.7779       1303.541        -999.25        -999.25         0.7927       -54.4645      -5.708706        -999.25      0.9184471
      4463.0000         0.7794       1279.949        -999.25        -999.25         0.8055       -53.6183      -4.859882        -999.25      0.9305731
      4463.5000         0.7804       1257.104        -999.25        -999.25         0.8183       -52.7726      -4.011555        -999.25      0.9426921
      4464.0000         0.7814       1243.943        -999.25        -999.25         0.8296       -54.7939      -6.030231        -999.25      0.9138538
      4464.5000         0.7823       1254.898        -999.25        -999.25         0.8408       -57.0448      -8.278507        -999.25      0.8817356
      4465.0000         0.7894       1273.824        -999.25        -999.25         0.8521       -59.1285      -10.35958        -999.25       0.852006
      4465.5000         0.7969       1295.896        -999.25        -999.25         0.8633       -60.9476      -12.17606        -999.25      0.8260563
      4466.0000         0.8043       1320.125        -999.25        -999.25         0.8745       -62.7667      -13.99253        -999.25      0.8001066
      4466.5000         0.8115       1344.354        -999.25        -999.25         0.8858       -64.4768      -15.70001        -999.25      0.7757142
      4467.0000         0.8135       1368.557        -999.25        -999.25          0.897        -65.866      -17.08658        -999.25       0.755906
      4467.5000         0.7961       1392.447        -999.25        -999.25         0.9082       -65.9955      -17.21346        -999.25      0.7540935
      4468.0000         0.7786       1413.662        -999.25        -999.25         0.9083       -64.7875      -16.00283        -999.25      0.7713881
      4468.5000         0.7598       1434.877        -999.25        -999.25         0.8491       -63.5927      -14.80541        -999.25      0.7884941
      4469.0000           0.74       1456.092        -999.25        -999.25           0.79       -62.6362      -13.84629        -999.25      0.8021959
      4469.5000         0.7203       1699.205        -999.25        -999.25         0.7309       -61.6797      -12.88716        -999.25      0.8158977
      4470.0000         0.7005       1983.217        -999.25        -999.25         0.6828       -60.7233      -11.92814        -999.25       0.829598
      4470.5000          0.686       2022.328        -999.25        -999.25          0.641       -63.6284      -14.83061        -999.25      0.7881341
      4471.0000         0.6829        2054.25        -999.25        -999.25         0.5992       -72.3011      -23.50069        -999.25      0.6642759
      4471.5000         0.6844       2130.195        -999.25        -999.25         0.5574       -80.9741      -32.17106        -999.25      0.5404134
      4472.0000         0.6899       2242.645        -999.25        -999.25         0.5156        -89.647      -40.84134        -999.25      0.4165523
      4472.5000         0.6954       2340.055        -999.25        -999.25         0.4738       -97.7455      -48.93721        -999.25       0.300897
      4473.0000          0.701       2451.707        -999.25        -999.25          0.432      -101.5074      -52.69649        -999.25       0.247193
      4473.5000         0.7003       2552.703        -999.25        -999.25         0.3957      -110.3456      -61.53206        -999.25      0.1209706
      4474.0000         0.6934       2653.598        -999.25        -999.25         0.3696      -112.2642      -63.44804        -999.25     0.09359948
      4474.5000         0.6866       2739.504        -999.25        -999.25         0.3434       -114.041      -65.22221        -999.25     0.06825409
