#------------------------------------------------------------------------------
# Created by    : vladimir.rabinovich
# Created on    : 09/19/2023 17:21:28
#------------------------------------------------------------------------------
~Version Information Section
VERS.           2.0     :   CWLS log ASCII Standard - VERSION 2.0
WRAP.           NO      :   One line per depth step
~Well Information Section
#MNEM       .UNIT                                         VALUE :DESCRIPTION
#------------------------------------------------------------------------------
STRT        .FT                                            2437 :START DEPTH
STOP        .FT                                            8654 :STOP DEPTH
STEP        .FT                                             0.5 :STEP      
NULL        .                                           -999.25 :NULL      
COMP        .                                      PELTO OIL CO :COMPANY   
WELL        .                                     ST TR 00163-S :WELL      
FLD         .                                           WILDCAT :FIELD     
LOC         .                                                   :LOCATION  
CNTY        .                             GALVESTON SMALL BLOCK :LOCATION  
STAT        .                                             TEXAS :STATE     
CTRY        .                                     UNITED STATES :COUNTRY   
SRVC        .                                                   :SERVICE COMPANY
DATE        .                             9/13/2023 11:19:17 AM :LOG DATE  
API         .                                    42605301550000 :API NUMBER
UWI         .                                    42605301550000 :UNIQUE WELL ID
XCOORD      .                                  1154226.19631992 :SURFACE X 
YCOORD      .                                  10687289.1653299 :SURFACE Y 
LAT         .                                        29.4396686 :LATITUDE  
LON         .                                       -94.5278571 :LONGITUDE 
ELEV        .FT                                             111 :ELEVATION VALUE
ELEV_TYPE   .                                                KB :ELEVATION REFERENCE TYPE
~Curve Information Section
#MNEM       .UNIT                                      API CODE :CURVE DESCRIPTION
#------------------------------------------------------------------------------
DEPT        .FT                                                 :DEPTH     
CALI        .IN                                                 :          
GR          .GAPI                                               :          
GR_NORM     .GAPI                                               :GammaRay Normalized
ILD         .OHMM                                               :          
ILM         .OHMM                                               :          
NPSS        .%                                                  :Neutron Porosity Sandstone
RHOB        .G/CM3                                              :          
SFL         .OHMM                                               :          
SP          .MV                                                 :          
SP_NORM     .GAPI                                               :SP Normalized
TENS        .LB                                                 :          
VSH_GR      .V/V                                                :Volume of Shale from GR
VSH_SP      .V/V                                                :Volume of Shale from SP
~A        DEPTH           CALI             GR        GR_NORM            ILD            ILM           NPSS           RHOB            SFL             SP        SP_NORM           TENS         VSH_GR         VSH_SP
# ...
      6161.0000        10.6465        82.2061       76.99905         0.4977         0.5578          38.04          2.202            0.8           75.6      -13.71056             30      0.9361499      0.8041348
      6161.5000        10.6768        83.1088       78.11349         0.4931         0.5629          39.84          2.177         0.7466           78.2      -10.07056             30      0.9598616      0.8561348
      6162.0000        10.6869        85.9073       81.56844         0.4908         0.5681          41.28          2.164         0.7605        80.7921      -6.441621             30              1      0.9079769
      6162.5000        10.6869        88.3038       84.52708         0.4931         0.5785          41.82          2.167            0.8        82.5743      -3.946536             20              1      0.9436209
      6163.0000        10.6667        89.2022       85.63621         0.5115         0.5892           41.7          2.179         0.8036        83.3663      -2.837737             20              1      0.9594609
      6163.5000        10.6263         86.611       82.43719         0.5354         0.6085          40.86          2.192         0.7782        83.2673      -2.976335             20              1      0.9574809
      6164.0000        10.6364        83.3253       78.38078         0.5681         0.6316          39.24          2.206         0.7818        82.1782      -4.501081             20      0.9655486      0.9356989
      6164.5000        10.6465        80.8393       75.31165         0.6028         0.6557          37.38           2.22         0.8258        80.6931       -6.58022             20      0.9002478      0.9059969
      6165.0000        10.6768        79.5456       73.71448         0.6346         0.6775          36.78          2.224         0.8919           79.3      -8.530556             10      0.8662655      0.8781349
      6165.5000         10.697        78.4444       72.35497         0.6712         0.7032          37.44          2.218          0.967           79.3      -8.530556             10      0.8373398      0.8781349
      6166.0000        10.7071        77.3422       70.99424         0.7097         0.7097          38.28          2.212         0.9624         80.495      -6.857556             10      0.8083881      0.9020349
      6166.5000        10.7273        77.3462       70.99917         0.7364         0.7097           39.3          2.208         0.9307        82.4752      -4.085284             10       0.808493      0.9416388
      6167.0000        10.7475        79.9682       74.23621          0.757          0.713          39.72          2.209         0.9262        84.1584      -1.728798             10      0.8773662      0.9753029
      6167.5000        10.7576        83.1499       78.16423         0.7818         0.7163          40.26          2.208         0.9307        85.0495     -0.4812607             10      0.9609411      0.9931248
      6168.0000        10.7576        84.1456       79.39349          0.757         0.7163          40.86          2.206         0.9218        85.3465    -0.06546478             10      0.9870955      0.9990648
      6168.5000        10.7778        83.0575       78.05016         0.7432         0.7163          41.58          2.202         0.9087        85.3465    -0.06546478             10      0.9585141      0.9990648
      6169.0000        10.7879        81.2765       75.85139         0.7097         0.7163          41.58            2.2         0.8919        84.9505     -0.6198593             10      0.9117317      0.9911449
      6169.5000         10.798        80.9835       75.48966         0.6807         0.6967          41.82          2.192          0.864        84.2574      -1.590199             10      0.9040354      0.9772829
      6170.0000        10.7778        80.6908       75.12831         0.6466         0.6712        42.1188          2.177         0.8258        83.1683      -3.114944             10       0.896347      0.9555008
      6170.5000        10.7172        78.2804        72.1525         0.6199         0.6526        43.1287           2.16         0.8409        81.4851       -5.47142             10       0.833032      0.9218369
      6171.0000         10.697        77.8726       71.64904         0.5919         0.6316        42.6535          2.144         0.8759           79.5       -8.25056             10        0.82232      0.8821349
      6171.5000         10.697        76.5573       70.02522         0.5655         0.6113           41.7          2.136         0.8838           77.3      -11.33056             10      0.7877707      0.8381349
      6172.0000        10.7071        73.2265       65.91312         0.5428         0.5919          41.04          2.127         0.8601           75.4      -13.99056             10      0.7002791      0.8001349
      6172.5000        10.7475        70.6047       62.67633         0.5209         0.5733          39.66          2.128          0.822           75.1      -14.41056             10      0.6314113      0.7941348
      6173.0000        10.8081        70.4029        62.4272            0.5         0.5578          37.92          2.141         0.8073           76.6      -12.31056             10      0.6261107      0.8241348
      6173.5000        10.8687        71.2081       63.42126         0.4729         0.5403          37.02          2.163         0.8333             78      -10.35056             10       0.647261      0.8521349
      6174.0000         10.899        72.9182        65.5325         0.4535         0.5046          35.94          2.192         0.8719           77.3      -11.33056             10      0.6921809      0.8381349
      6174.5000        10.9394        76.1352        69.5041         0.4431         0.4931          35.82          2.201         0.8719           75.7      -13.57056             10      0.7766831      0.8061348
      6175.0000        10.9293        77.7405       71.48596         0.4472         0.4931          38.94          2.197          0.822             75      -14.55056             10      0.8188503      0.7921349
      6175.5000        10.9394        78.7414       72.72164         0.4577         0.5069          41.58          2.194          0.757           76.5      -12.45056             10      0.8451413      0.8221349
      6176.0000        10.9495        80.3409       74.69633          0.484         0.5428        43.8416          2.194          0.713           78.7      -9.370564             10      0.8871559      0.8661348
      6176.5000        10.9697        82.7272       77.64238         0.4908         0.5759        44.2574          2.187         0.7163         80.297      -7.134764             10      0.9498379      0.8980748
      6177.0000        10.9596        82.2249       77.02225         0.5069            0.6        44.1386          2.181         0.7746         80.495      -6.857556             10      0.9366437      0.9020349
      6177.5000          11.02        78.3226       72.20461         0.5069         0.6028          41.28          2.192         0.8601           79.8      -7.830556             10      0.8341405      0.8881349
      6178.0000          11.12        77.3163       70.96225         0.5046            0.6          39.12          2.218         0.9174             79       -8.95056             10      0.8077074      0.8721349
      6178.5000          11.19        77.8136       71.57621         0.4885         0.5733           37.8          2.237          0.913           77.7      -10.77056             10      0.8207704      0.8461348
      6179.0000          11.24        79.0111        73.0546         0.4773         0.5527          37.62          2.243         0.8759           75.5      -13.85056             10      0.8522256      0.8021349
      6179.5000           11.3        79.1068       73.17274         0.4472         0.5209          38.46          2.215         0.8563             72      -18.75056             10      0.8547392      0.7321348
