#------------------------------------------------------------------------------
# Created by    : vladimir.rabinovich
# Created on    : 09/19/2023 17:20:26
#------------------------------------------------------------------------------
~Version Information Section
VERS.           2.0     :   CWLS log ASCII Standard - VERSION 2.0
WRAP.           NO      :   One line per depth step
~Well Information Section
#MNEM       .UNIT                                         VALUE :DESCRIPTION
#------------------------------------------------------------------------------
STRT        .FT                                             344 :START DEPTH
STOP        .FT                                           10034 :STOP DEPTH
STEP        .FT                                             0.5 :STEP      
NULL        .                                           -999.25 :NULL      
COMP        .                                        TEXACO USA :COMPANY   
WELL        .                                     ST TR 00136-S :WELL      
FLD         .                                           WILDCAT :FIELD     
LOC         .                                                   :LOCATION  
CNTY        .                           HIGH ISLAND SMALL BLOCK :LOCATION  
STAT        .                                             TEXAS :STATE     
CTRY        .                                     UNITED STATES :COUNTRY   
SRVC        .                                                   :SERVICE COMPANY
DATE        .                             9/13/2023 11:19:17 AM :LOG DATE  
API         .                                    42606000310000 :API NUMBER
UWI         .                                    42606000310000 :UNIQUE WELL ID
XCOORD      .                                  1183554.44061246 :SURFACE X 
YCOORD      .                                  10706170.1937531 :SURFACE Y 
LAT         .                                          29.49262 :LATITUDE  
LON         .                                       -94.4364494 :LONGITUDE 
ELEV        .FT                                              52 :ELEVATION VALUE
ELEV_TYPE   .                                                KB :ELEVATION REFERENCE TYPE
~Curve Information Section
#MNEM       .UNIT                                      API CODE :CURVE DESCRIPTION
#------------------------------------------------------------------------------
DEPT        .FT                                                 :DEPTH     
ASN         .OHMM                                               :          
CILD        .MMHO                                               :          
LAT         .OHMM                                               :          
LN          .OHMM                                               :          
SP          .MV                                                 :          
SP_NORM     .MV                                                 :SP Normalized
VSH_SP      .V/V                                                :Volume of Shale from SP
~A        DEPTH            ASN           CILD            LAT             LN             SP        SP_NORM         VSH_SP
# ...
      6139.5000         0.3404        -999.25         0.3545         0.2533       -88.5178      -47.21345      0.3255221
      6140.0000         0.3288        -999.25         0.3406         0.2555       -94.7299      -53.42555      0.2367779
      6140.5000         0.3115        -999.25         0.3273         0.2576      -103.4713      -62.16695      0.1119007
      6141.0000         0.2959        -999.25         0.3139         0.2598      -107.1765      -65.87215     0.05896933
      6141.5000         0.2644        -999.25         0.3005         0.2605      -107.3025      -65.99815     0.05716923
      6142.0000         0.2404        -999.25         0.2871         0.2593      -105.5264      -64.22205      0.0825422
      6142.5000         0.2254        -999.25         0.2738         0.2582      -103.7501      -62.44575      0.1079178
      6143.0000         0.2131        -999.25         0.2604         0.2571      -100.6115      -59.30716      0.1527549
      6143.5000          0.216        -999.25         0.2478          0.257       -95.7596      -54.45525      0.2220679
      6144.0000         0.2175        -999.25         0.2362         0.2577       -96.1779      -54.87355      0.2160921
      6144.5000         0.2145        -999.25         0.2246         0.2584       -99.8066      -58.50225      0.1642535
      6145.0000         0.2096        -999.25          0.213         0.2591      -103.5747      -62.27035      0.1104236
      6145.5000         0.2027        -999.25         0.2014         0.2599      -107.3429      -66.03856     0.05659201
      6146.0000          0.198        -999.25         0.1898         0.2606      -108.7661      -67.46175     0.03626077
      6146.5000         0.1937        -999.25         0.1782         0.2613      -110.0184      -68.71405     0.01837071
      6147.0000         0.1916        -999.25         0.1666          0.262      -111.2708      -69.96645    0.000479344
      6147.5000         0.1909        -999.25         0.1551         0.2627       -111.744      -70.43965              0
      6148.0000         0.1913        -999.25         0.1435         0.2635      -112.0509      -70.74655              0
      6148.5000         0.1919        -999.25         0.1418         0.2642      -111.2595      -69.95515   0.0006406512
      6149.0000         0.1925        -999.25         0.1448         0.2649      -110.4692      -69.16486     0.01193063
      6149.5000         0.1921        -999.25         0.1479         0.2656      -108.9325      -67.62816     0.03388345
      6150.0000         0.1914        -999.25          0.151         0.2663      -106.7291      -65.42476     0.06536058
      6150.5000         0.1906        -999.25          0.154         0.2671       -103.957      -62.65265      0.1049621
      6151.0000         0.1924        -999.25         0.1571         0.2678      -100.1168      -58.81245      0.1598221
      6151.5000         0.1967        -999.25         0.1671         0.2685      -101.0566      -59.75225      0.1463964
      6152.0000         0.2014        -999.25         0.2014         0.2692      -101.9954      -60.69105       0.132985
      6152.5000         0.2093        -999.25         0.2357         0.2699      -102.9352      -61.63086      0.1195592
      6153.0000         0.2172        -999.25           0.27         0.2707      -103.8738      -62.56945      0.1061507
      6153.5000         0.2251        -999.25         0.3044         0.2714      -104.8125      -63.50815     0.09274068
      6154.0000         0.2329        -999.25         0.3387         0.2721      -105.6477      -64.34335     0.08080924
      6154.5000         0.2408        -999.25          0.372         0.2728      -105.5251      -64.22075     0.08256073
      6155.0000         0.2519        -999.25          0.404         0.2735      -104.3156      -63.01125     0.09983929
      6155.5000         0.2701        -999.25         0.4361         0.2743      -102.6282      -61.32385       0.123945
      6156.0000          0.294        -999.25         0.4682          0.275       -99.7751      -58.47075      0.1647035
      6156.5000         0.3245        -999.25         0.5003         0.2757       -96.9242      -55.61985      0.2054307
      6157.0000         0.3623        -999.25         0.5252         0.2752        -91.996      -50.69165      0.2758335
      6157.5000         0.3983        -999.25         0.5492         0.2739       -86.3617      -45.05735      0.3563235
      6158.0000         0.4295        -999.25         0.5732         0.2727       -81.7841      -40.47976      0.4217178
      6158.5000         0.4518        -999.25         0.5759         0.2714        -79.149      -37.84465      0.4593621
      6159.0000         0.4356        -999.25         0.5557         0.2702       -82.6564      -41.35205      0.4092564
      6159.5000          0.367        -999.25         0.5355         0.2689       -86.1593      -44.85495      0.3592149
      6160.0000         0.3231        -999.25         0.5154         0.2677       -89.6666      -48.36226      0.3091106
      6160.5000         0.2956        -999.25         0.4953         0.2664       -94.1453      -52.84095      0.2451292
      6161.0000          0.268        -999.25         0.4751         0.2652       -97.5964      -56.29205      0.1958279
      6161.5000         0.2479        -999.25         0.4539         0.2639       -99.4424      -58.13805      0.1694564
      6162.0000         0.2277        -999.25         0.4307         0.2626       -100.879      -59.57465      0.1489336
      6162.5000         0.2109        -999.25         0.4075         0.2623      -101.9818      -60.67745      0.1331793
      6163.0000         0.1982        -999.25         0.3844         0.2624      -103.0846      -61.78025      0.1174249
      6163.5000         0.1873        -999.25         0.3612         0.2626      -104.1886      -62.88425      0.1016536
      6164.0000         0.1774        -999.25          0.338         0.2627      -105.1205      -63.81615     0.08834071
      6164.5000         0.1826        -999.25         0.3149         0.2628       -105.913      -64.60866     0.07701918
      6165.0000         0.1878        -999.25          0.309         0.2629      -106.6547      -65.35036     0.06642347
      6165.5000          0.193        -999.25         0.3069          0.263      -106.4641      -65.15976     0.06914629
      6166.0000         0.1982        -999.25         0.3048         0.2632      -106.3362      -65.03185     0.07097364
      6166.5000         0.2034        -999.25         0.3027         0.2633      -106.2911      -64.98676     0.07161778
      6167.0000         0.2091        -999.25         0.3007         0.2634       -106.246      -64.94165     0.07226214
      6167.5000         0.2151        -999.25         0.2986         0.2635      -106.2009      -64.89655     0.07290649
      6168.0000         0.2211        -999.25         0.2965         0.2636      -106.1558      -64.85146     0.07355063
      6168.5000         0.2271        -999.25         0.2963         0.2637      -106.4602      -65.15585      0.0692021
      6169.0000         0.2304        -999.25         0.2976         0.2638      -106.7806      -65.47626      0.0646249
      6169.5000         0.2312        -999.25          0.299         0.2639       -107.101      -65.79665     0.06004791
      6170.0000          0.231        -999.25         0.3003         0.2639      -107.4214      -66.11705     0.05547071
      6170.5000         0.2284        -999.25         0.3017          0.264      -107.6082      -66.30385     0.05280217
      6171.0000         0.2258        -999.25          0.303         0.2641      -107.7195      -66.41515      0.0512122
      6171.5000         0.2232        -999.25         0.3044         0.2642      -107.8308      -66.52646     0.04962202
      6172.0000         0.2197        -999.25         0.3057         0.2642      -107.9421      -66.63776     0.04803205
      6172.5000         0.2156        -999.25         0.3071         0.2643      -108.0536      -66.74925     0.04643925
