#------------------------------------------------------------------------------
# Created by    : vladimir.rabinovich
# Created on    : 09/19/2023 17:20:26
#------------------------------------------------------------------------------
~Version Information Section
VERS.           2.0     :   CWLS log ASCII Standard - VERSION 2.0
WRAP.           NO      :   One line per depth step
~Well Information Section
#MNEM       .UNIT                                         VALUE :DESCRIPTION
#------------------------------------------------------------------------------
STRT        .FT                                             344 :START DEPTH
STOP        .FT                                           10034 :STOP DEPTH
STEP        .FT                                             0.5 :STEP      
NULL        .                                           -999.25 :NULL      
COMP        .                                        TEXACO USA :COMPANY   
WELL        .                                     ST TR 00136-S :WELL      
FLD         .                                           WILDCAT :FIELD     
LOC         .                                                   :LOCATION  
CNTY        .                           HIGH ISLAND SMALL BLOCK :LOCATION  
STAT        .                                             TEXAS :STATE     
CTRY        .                                     UNITED STATES :COUNTRY   
SRVC        .                                                   :SERVICE COMPANY
DATE        .                             9/13/2023 11:19:17 AM :LOG DATE  
API         .                                    42606000310000 :API NUMBER
UWI         .                                    42606000310000 :UNIQUE WELL ID
XCOORD      .                                  1183554.44061246 :SURFACE X 
YCOORD      .                                  10706170.1937531 :SURFACE Y 
LAT         .                                          29.49262 :LATITUDE  
LON         .                                       -94.4364494 :LONGITUDE 
ELEV        .FT                                              52 :ELEVATION VALUE
ELEV_TYPE   .                                                KB :ELEVATION REFERENCE TYPE
~Curve Information Section
#MNEM       .UNIT                                      API CODE :CURVE DESCRIPTION
#------------------------------------------------------------------------------
DEPT        .FT                                                 :DEPTH     
ASN         .OHMM                                               :          
CILD        .MMHO                                               :          
LAT         .OHMM                                               :          
LN          .OHMM                                               :          
SP          .MV                                                 :          
SP_NORM     .MV                                                 :SP Normalized
VSH_SP      .V/V                                                :Volume of Shale from SP
~A        DEPTH            ASN           CILD            LAT             LN             SP        SP_NORM         VSH_SP
# ...
      6776.0000         0.7223        -999.25         0.6721         0.6121       -49.2777      -7.973351       0.886095
      6776.5000         0.7529        -999.25          0.684         0.6174       -50.8157      -9.511353      0.8641235
      6777.0000         0.7874        -999.25         0.6805         0.6229       -51.8765      -10.57215      0.8489693
      6777.5000          0.836        -999.25         0.6769         0.6284       -52.0347      -10.73035      0.8467093
      6778.0000         0.8872        -999.25         0.6717         0.6339         -52.86      -11.55565      0.8349193
      6778.5000         0.9256        -999.25         0.6561         0.6393       -54.7427      -13.43835      0.8080236
      6779.0000         0.9628        -999.25         0.6405         0.6448       -60.9104      -19.60605      0.7199135
      6779.5000         0.9928        -999.25         0.6249         0.6503       -71.1534      -29.84905       0.573585
      6780.0000         0.9821        -999.25         0.6093         0.6557       -78.0193      -36.71495      0.4755006
      6780.5000         0.9239        -999.25         0.5937         0.6528        -82.726      -41.42165      0.4082621
      6781.0000         0.7386        -999.25           0.58         0.6478       -86.5448      -45.24045      0.3537078
      6781.5000         0.6981        -999.25         0.5778         0.6428        -91.073      -49.76865      0.2890193
      6782.0000         0.6653        -999.25         0.5756         0.6378        -95.677      -54.37265      0.2232478
      6782.5000           0.65        -999.25         0.5734         0.6321       -98.9337      -57.62935      0.1767235
      6783.0000         0.6665        -999.25         0.5712         0.6209      -101.2401      -59.93575       0.143775
      6783.5000         0.6977        -999.25         0.5864         0.6097       -99.7725      -58.46815      0.1647407
      6784.0000         0.7143        -999.25         0.6043         0.5984       -97.1849      -55.88055      0.2017064
      6784.5000         0.6747        -999.25         0.6223         0.5872       -93.7452      -52.44085       0.250845
      6785.0000         0.6311        -999.25         0.6402          0.576       -90.0112      -48.70685      0.3041878
      6785.5000         0.5743        -999.25         0.6582         0.5647       -84.8942      -43.58986      0.3772878
      6786.0000         0.5698        -999.25         0.6762         0.5494       -79.3444      -38.04005      0.4565707
      6786.5000          0.599        -999.25         0.6981         0.5325       -73.8569      -32.55256      0.5349635
      6787.0000         0.6281        -999.25         0.7246         0.5157       -69.3243      -28.01995      0.5997149
      6787.5000         0.6573        -999.25         0.7511         0.4988       -65.6884      -24.38405      0.6516564
      6788.0000         0.6831        -999.25         0.7775         0.4819       -62.9224      -21.61805      0.6911707
      6788.5000         0.6997        -999.25         0.7965         0.4682       -60.7565      -19.45215      0.7221121
      6789.0000         0.7164        -999.25         0.8078         0.4572       -59.0746      -17.77025      0.7461392
      6789.5000         0.7266        -999.25         0.8192         0.4461       -57.5946      -16.29025      0.7672821
      6790.0000         0.7154        -999.25         0.8305          0.435       -56.5038      -15.19945       0.782865
      6790.5000         0.6747        -999.25         0.8418         0.4299       -55.7917      -14.48735      0.7930378
      6791.0000         0.6238        -999.25         0.8532         0.4324       -55.2513      -13.94695      0.8007578
      6791.5000         0.5838        -999.25         0.8645         0.4349       -54.7104      -13.40605       0.808485
      6792.0000         0.5966        -999.25         0.8653         0.4375        -54.385      -13.08065      0.8131335
      6792.5000         0.6055        -999.25         0.8534           0.44       -55.4744      -14.17005      0.7975707
      6793.0000         0.6144        -999.25          0.799         0.4462       -57.5801      -16.27575      0.7674893
      6793.5000         0.6233        -999.25         0.7342         0.4553        -62.106      -20.80165      0.7028335
      6794.0000          0.609        -999.25         0.6695         0.4644       -72.1707      -30.86635      0.5590521
      6794.5000         0.5647        -999.25         0.6048         0.4735       -87.2765      -45.97215       0.343255
      6795.0000         0.5075        -999.25         0.5466         0.4832       -94.6331      -53.32875      0.2381607
      6795.5000          0.521        -999.25           0.51         0.4985       -98.6705      -57.36615      0.1804835
      6796.0000          0.618        -999.25         0.4735         0.5114      -102.2306      -60.92625       0.129625
      6796.5000         0.6851        -999.25         0.4369         0.5029      -105.3267      -64.02235     0.08539494
      6797.0000         0.7179        -999.25          0.417         0.4944       -107.351      -66.04665     0.05647648
      6797.5000         0.7104        -999.25         0.4198         0.4859      -106.9495      -65.64516     0.06221205
      6798.0000         0.6738        -999.25         0.4225         0.4774       -106.548      -65.24365     0.06794783
      6798.5000          0.637        -999.25         0.4253         0.4689      -105.6479      -64.34355      0.0808064
      6799.0000         0.6001        -999.25          0.428         0.4604      -104.2114      -62.90705      0.1013278
      6799.5000         0.5352        -999.25         0.4554         0.4519      -102.7749      -61.47055      0.1218492
      6800.0000         0.4522        -999.25          0.484         0.4434      -101.1241      -59.81975      0.1454321
      6800.5000         0.4021        -999.25         0.5125         0.4349       -98.8579      -57.55355      0.1778064
      6801.0000         0.3843        -999.25         0.5411         0.4264       -95.7261      -54.42175      0.2225464
      6801.5000         0.3853        -999.25         0.5709         0.4179       -91.9161      -50.61175       0.276975
      6802.0000         0.3932        -999.25         0.6042         0.4153       -87.7538      -46.44945      0.3364364
      6802.5000         0.4011        -999.25         0.6374         0.4134       -81.6731      -40.36876      0.4233035
      6803.0000         0.4168        -999.25         0.6706         0.4115       -75.4139      -34.10955      0.5127206
      6803.5000         0.4362        -999.25         0.6932         0.4097       -70.2076      -28.90326      0.5870963
      6804.0000         0.4556        -999.25         0.7058         0.4078       -58.2872      -16.98285      0.7573878
      6804.5000         0.4753        -999.25         0.7103         0.4059       -75.2311      -33.92675      0.5153321
      6805.0000         0.3755        -999.25         0.6377          0.404       -82.0344      -40.73005      0.4181421
      6805.5000         0.3328        -999.25         0.5695         0.4021       -86.1433      -44.83895      0.3594435
      6806.0000         0.3135        -999.25         0.5097         0.4003       -92.0499      -50.74555      0.2750636
      6806.5000         0.2942        -999.25         0.4498         0.3984      -100.5175      -59.21315      0.1540978
      6807.0000         0.2846        -999.25           0.39         0.3965      -104.6731      -63.36876     0.09473207
      6807.5000          0.278        -999.25         0.3459         0.3946       -106.674      -65.36966     0.06614772
      6808.0000         0.2743        -999.25         0.3226         0.3949      -107.6354      -66.33105      0.0524135
      6808.5000         0.2811        -999.25         0.2994         0.3994       -108.444      -67.13965     0.04086217
      6809.0000         0.2879        -999.25         0.2762         0.4039      -109.2515      -67.94716      0.0293263
