#------------------------------------------------------------------------------
# Created by    : vladimir.rabinovich
# Created on    : 09/19/2023 17:21:28
#------------------------------------------------------------------------------
~Version Information Section
VERS.           2.0     :   CWLS log ASCII Standard - VERSION 2.0
WRAP.           NO      :   One line per depth step
~Well Information Section
#MNEM       .UNIT                                         VALUE :DESCRIPTION
#------------------------------------------------------------------------------
STRT        .FT                                            2437 :START DEPTH
STOP        .FT                                            8654 :STOP DEPTH
STEP        .FT                                             0.5 :STEP      
NULL        .                                           -999.25 :NULL      
COMP        .                                      PELTO OIL CO :COMPANY   
WELL        .                                     ST TR 00163-S :WELL      
FLD         .                                           WILDCAT :FIELD     
LOC         .                                                   :LOCATION  
CNTY        .                             GALVESTON SMALL BLOCK :LOCATION  
STAT        .                                             TEXAS :STATE     
CTRY        .                                     UNITED STATES :COUNTRY   
SRVC        .                                                   :SERVICE COMPANY
DATE        .                             9/13/2023 11:19:17 AM :LOG DATE  
API         .                                    42605301550000 :API NUMBER
UWI         .                                    42605301550000 :UNIQUE WELL ID
XCOORD      .                                  1154226.19631992 :SURFACE X 
YCOORD      .                                  10687289.1653299 :SURFACE Y 
LAT         .                                        29.4396686 :LATITUDE  
LON         .                                       -94.5278571 :LONGITUDE 
ELEV        .FT                                             111 :ELEVATION VALUE
ELEV_TYPE   .                                                KB :ELEVATION REFERENCE TYPE
~Curve Information Section
#MNEM       .UNIT                                      API CODE :CURVE DESCRIPTION
#------------------------------------------------------------------------------
DEPT        .FT                                                 :DEPTH     
CALI        .IN                                                 :          
GR          .GAPI                                               :          
GR_NORM     .GAPI                                               :GammaRay Normalized
ILD         .OHMM                                               :          
ILM         .OHMM                                               :          
NPSS        .%                                                  :Neutron Porosity Sandstone
RHOB        .G/CM3                                              :          
SFL         .OHMM                                               :          
SP          .MV                                                 :          
SP_NORM     .GAPI                                               :SP Normalized
TENS        .LB                                                 :          
VSH_GR      .V/V                                                :Volume of Shale from GR
VSH_SP      .V/V                                                :Volume of Shale from SP
~A        DEPTH           CALI             GR        GR_NORM            ILD            ILM           NPSS           RHOB            SFL             SP        SP_NORM           TENS         VSH_GR         VSH_SP
# ...
      5344.0000         11.798        82.7105       77.62177         0.6094         0.6151         42.966         2.2214          0.684        69.3026      -19.63445            100      0.9493992      0.7195079
      5344.5000        11.9596        80.4385       74.81683         0.7065            0.7        42.7242         2.2164         0.6904        68.5064      -20.84276             40      0.8897197      0.7022462
      5345.0000        11.9192        78.2569       72.12349         0.8225         0.7963          38.82         2.2285         0.7196        67.8105      -21.89987            -10      0.8324147      0.6871448
      5345.5000        11.8384        76.8675       70.40818         0.8654         0.8301        32.7155         2.2765         0.8694        67.3141      -22.65619            -60      0.7959187      0.6763402
      5346.0000        11.7374        74.8795       67.95387         0.8457         0.7963        31.5189         2.3326         1.0791          66.52      -23.86135            -20      0.7436993      0.6591235
      5346.5000        11.3939        70.1993       62.17584         0.8037         0.7097        33.3698         2.3814         1.3331         64.435      -27.01279            -20      0.6207625       0.614103
      5347.0000        11.1919        67.6768       59.06165         0.7263         0.6358        35.2823         2.3695         1.3896        61.9546      -30.76037            -20      0.5545031      0.5605661
      5347.5000         11.202        68.2828       59.80979         0.6187         0.5725          36.12         2.3077         0.9497        58.2898      -36.29367            -20       0.570421       0.481519
      5348.0000        11.1919        71.8958       64.27028         0.5228         0.4835          36.36         2.2338          0.764        53.7402      -43.16096            -20      0.6653251      0.3834148
      5348.5000         11.101        67.2727       58.56275         0.4034         0.4072          37.02         2.1788         0.7229        43.8933      -58.01495            -20      0.5438883       0.171215
      5349.0000        11.3939           57.6       46.62114         0.3361         0.3502          36.78         2.1629         0.7196        34.8485      -71.65963            -20      0.2898116              0
      5349.5000        11.8889           52.1       39.83102         0.2799         0.3111          36.96         2.1509          0.713        31.9192      -76.08401            -20      0.1453409              0
      5350.0000        11.9394        47.6768       34.37028         0.2588         0.2865           36.9          2.119         0.6968           28.6      -81.09625            -20     0.02915492              0
      5350.5000        12.0397        47.2709       33.86917         0.2361         0.2736          37.32          2.094         0.6968        25.7988       -85.3275            -20       0.018493              0
      5351.0000        12.0392        47.9738       34.73695         0.2286         0.2711           38.1          2.084         0.6781         26.197      -84.73505            -20     0.03695638              0
      5351.5000        11.9483         47.768       34.48288         0.2372         0.2749          37.74           2.09         0.6393        28.3979      -81.42466            -20     0.03155055              0
      5352.0000        11.7865        47.3607       33.98003         0.2461         0.2878           36.3          2.107         0.5973        31.9157       -76.1288            -20     0.02085179              0
      5352.5000        11.7861        46.7523       33.22892         0.2553         0.3126          33.18          2.126         0.5733        35.5427       -70.6683            -20    0.004870719              0
      5353.0000        11.7857        48.4613        35.3388         0.2637         0.3332          30.78          2.145         0.5973        39.1661      -65.21323            -20     0.04976167     0.06838248
      5353.5000        11.4128        49.1618       36.20362         0.2711         0.3363          28.98          2.202         0.7263        42.4753      -60.23187            -20     0.06816207      0.1395447
      5354.0000        11.2516        47.1447       33.71337         0.2774         0.3287          27.18          2.232         0.8749        45.3825      -55.85661            -20     0.01517803      0.2020484
      5354.5000        11.7644        43.0173       28.61781           0.28         0.3183             27          2.232            0.9        45.3802      -55.86798            -20              0       0.201886
      5355.0000        12.1057        40.9047       26.00967         0.2736         0.3112          29.22          2.206            0.8        44.2726      -57.54581            -20              0       0.177917
      5355.5000        12.3566        41.6076       26.87745         0.2637         0.3055          31.86          2.176         0.7229        43.2644      -59.07376            -20              0      0.1560891
      5356.0000        12.5172        45.6239       31.83584         0.2565         0.3014          34.26          2.148         0.6937        44.1663      -57.72187            -20              0      0.1754019
      5356.5000        12.5572        45.4203       31.58448         0.2637         0.2972          37.14          2.127         0.6905        44.8677      -56.67228            -20              0       0.190396
      5357.0000        12.0435        43.6117       29.35164         0.2787         0.3069           37.5          2.131         0.6874        45.7713      -55.31782            -20              0      0.2097455
      5357.5000        11.6919        42.2061       27.61633         0.2986         0.3347           36.9          2.143         0.6843        47.9853       -51.9877            -20              0      0.2573186
      5358.0000        11.5212        43.4077       29.09979         0.3363         0.3668          36.36          2.155         0.6843        51.2871      -47.01749            -20              0      0.3283215
      5358.5000        11.3506        53.5467       41.61707         0.3735         0.4171          36.12          2.179         0.6874        55.6436      -40.45714            -20       0.183342      0.4220408
      5359.0000        11.3104        64.5056       55.14658         0.4171         0.4729          36.72            2.2            0.7         60.198       -33.5984            -20      0.4712037      0.5200228
      5359.5000        11.4203        71.6224       63.93275         0.4642         0.5186          38.16          2.199         0.7163        62.6733      -29.87432            -20      0.6581436      0.5732241
      5360.0000        11.5001        75.6575       68.91435         0.4663         0.4908          39.12          2.162         0.7296        61.6832      -31.37499            -20      0.7641352      0.5517859
      5360.5000           11.6        75.6566       68.91325          0.441          0.462          39.12          2.143         0.7466        58.9109      -35.56267            -20      0.7641116      0.4919619
      5361.0000          11.49        75.6566       68.91325         0.4113         0.4369          38.22          2.143         0.7432        56.1386      -39.75034            -20      0.7641116       0.432138
      5361.5000           11.4        77.1717       70.78374         0.3857         0.4113           36.9          2.159         0.7163        53.5644      -43.63934            -20      0.8039095      0.3765809
      5362.0000          11.41        79.2929        73.4025         0.3618         0.3892          35.34          2.165         0.6937         49.798      -49.32581            -20      0.8596277      0.2953455
      5362.5000          11.65        75.4545       68.66373         0.3394         0.3552          34.38          2.158         0.6569         49.798      -49.33371            -20      0.7588028      0.2952327
