#------------------------------------------------------------------------------
# Created by    : vladimir.rabinovich
# Created on    : 09/19/2023 17:20:26
#------------------------------------------------------------------------------
~Version Information Section
VERS.           2.0     :   CWLS log ASCII Standard - VERSION 2.0
WRAP.           NO      :   One line per depth step
~Well Information Section
#MNEM       .UNIT                                         VALUE :DESCRIPTION
#------------------------------------------------------------------------------
STRT        .FT                                             344 :START DEPTH
STOP        .FT                                           10034 :STOP DEPTH
STEP        .FT                                             0.5 :STEP      
NULL        .                                           -999.25 :NULL      
COMP        .                                        TEXACO USA :COMPANY   
WELL        .                                     ST TR 00136-S :WELL      
FLD         .                                           WILDCAT :FIELD     
LOC         .                                                   :LOCATION  
CNTY        .                           HIGH ISLAND SMALL BLOCK :LOCATION  
STAT        .                                             TEXAS :STATE     
CTRY        .                                     UNITED STATES :COUNTRY   
SRVC        .                                                   :SERVICE COMPANY
DATE        .                             9/13/2023 11:19:17 AM :LOG DATE  
API         .                                    42606000310000 :API NUMBER
UWI         .                                    42606000310000 :UNIQUE WELL ID
XCOORD      .                                  1183554.44061246 :SURFACE X 
YCOORD      .                                  10706170.1937531 :SURFACE Y 
LAT         .                                          29.49262 :LATITUDE  
LON         .                                       -94.4364494 :LONGITUDE 
ELEV        .FT                                              52 :ELEVATION VALUE
ELEV_TYPE   .                                                KB :ELEVATION REFERENCE TYPE
~Curve Information Section
#MNEM       .UNIT                                      API CODE :CURVE DESCRIPTION
#------------------------------------------------------------------------------
DEPT        .FT                                                 :DEPTH     
ASN         .OHMM                                               :          
CILD        .MMHO                                               :          
LAT         .OHMM                                               :          
LN          .OHMM                                               :          
SP          .MV                                                 :          
SP_NORM     .MV                                                 :SP Normalized
VSH_SP      .V/V                                                :Volume of Shale from SP
~A        DEPTH            ASN           CILD            LAT             LN             SP        SP_NORM         VSH_SP
# ...
      5503.0000         0.9937        -999.25         0.9917         0.9881       -39.7111       1.593246              1
      5503.5000         1.0042        -999.25         0.9932          0.995       -39.8094       1.494949              1
      5504.0000          1.014        -999.25         0.9911         0.9969       -39.9078       1.396549              1
      5504.5000         1.0141        -999.25         0.9889         0.9983       -40.0062       1.298149              1
      5505.0000         1.0141        -999.25         0.9863         0.9997       -40.1045       1.199848              1
      5505.5000         1.0125        -999.25         0.9837         1.0011       -40.2029       1.101448              1
      5506.0000         1.0042        -999.25         0.9811         1.0025       -40.3058      0.9985466              1
      5506.5000         0.9962        -999.25         0.9785         1.0039       -40.4087       0.895649              1
      5507.0000         0.9882        -999.25         0.9759         1.0038       -40.5115      0.7928467              1
      5507.5000         0.9759        -999.25         0.9733         0.9971       -40.6144       0.689949              1
      5508.0000         0.9595        -999.25         0.9707         0.9904       -40.7172      0.5871468              1
      5508.5000          0.943        -999.25         0.9676         0.9825       -40.8201      0.4842491              1
      5509.0000         0.9265        -999.25         0.9642         0.9661        -40.923      0.3813477              1
      5509.5000         0.8903        -999.25         0.9607         0.9495       -40.9513      0.3530464              1
      5510.0000         0.8481        -999.25         0.9572         0.9331       -40.7006      0.6037483              1
      5510.5000         0.8165        -999.25         0.9538         0.9166       -40.4502      0.8541489              1
      5511.0000         0.7884        -999.25         0.9503         0.9056       -40.1995       1.104847              1
      5511.5000         0.7843        -999.25         0.9468         0.9027       -39.9491       1.355247              1
      5512.0000         0.7803        -999.25         0.9434         0.9008       -39.6984       1.605949              1
      5512.5000          0.785        -999.25         0.9445         0.9044       -39.0981       2.206249              1
      5513.0000         0.7939        -999.25         0.9457         0.9079       -38.4478       2.856548              1
      5513.5000         0.8028        -999.25         0.9468         0.9085        -37.798       3.506348              1
      5514.0000         0.8117        -999.25         0.9479         0.9088       -37.1483       4.156048              1
      5514.5000         0.8207        -999.25          0.949         0.9092       -36.4979        4.80645              1
      5515.0000         0.8296        -999.25         0.9501         0.9095       -36.1492       5.155148              1
      5515.5000         0.8386        -999.25         0.9513         0.9098       -35.8178       5.486549              1
      5516.0000         0.8484        -999.25         0.9524         0.9099       -35.6101       5.694248              1
      5516.5000         0.8583        -999.25          0.955         0.9093       -35.7261       5.578247              1
      5517.0000         0.8681        -999.25         0.9785         0.9086        -35.842       5.462349              1
      5517.5000          0.878        -999.25         1.0019         0.9079       -35.9578       5.346546              1
      5518.0000         0.8878        -999.25         1.0254         0.9073       -36.2532       5.051147              1
      5518.5000         0.8966        -999.25         1.0488         0.9066        -36.596       4.708347              1
      5519.0000         0.9046        -999.25         1.0723          0.906       -36.9391        4.36525              1
      5519.5000         0.9126        -999.25         1.0923         0.9053        -37.282       4.022346              1
      5520.0000         0.9206        -999.25         1.0984         0.9008       -37.6252        3.67915              1
      5520.5000         0.9102        -999.25         1.1046         0.8957       -37.9779       3.326447              1
      5521.0000         0.8987        -999.25         1.1025         0.8906       -38.3416       2.962749              1
      5521.5000         0.8872        -999.25         1.0978         0.8855       -38.7052       2.599148              1
      5522.0000         0.8684        -999.25         1.0931         0.8804       -39.0689       2.235447              1
      5522.5000         0.8483        -999.25         1.0884         0.8753       -39.7546       1.549747              1
      5523.0000         0.8282        -999.25         1.0838         0.8702       -40.6882      0.6161461              1
      5523.5000         0.8033        -999.25         1.0789         0.8651       -41.8225     -0.5181503      0.9925979
      5524.0000         0.7821        -999.25         1.0709         0.8531        -42.687      -1.382652      0.9802478
      5524.5000          0.781        -999.25         1.0629         0.8405        -44.507      -3.202652      0.9542478
      5525.0000         0.7835        -999.25         1.0549         0.8278        -47.223      -5.918652      0.9154478
      5525.5000         0.7859        -999.25          1.047         0.8152       -60.2452      -18.94085      0.7294164
      5526.0000         0.7759        -999.25          1.039         0.8025       -65.3174      -24.01305      0.6569564
      5526.5000         0.7621        -999.25          1.031         0.7899        -71.743      -30.43865      0.5651622
      5527.0000         0.7483        -999.25          1.023         0.7772       -76.3453      -35.04095       0.499415
      5527.5000         0.7344        -999.25         1.0101         0.7643       -78.8545      -37.55015      0.4635693
      5528.0000         0.7206        -999.25         0.9862         0.7496       -80.9387      -39.63435       0.433795
      5528.5000         0.7068        -999.25         0.9624         0.7348        -80.787      -39.48265      0.4359621
      5529.0000         0.6996        -999.25         0.8832         0.7201        -77.139      -35.83465      0.4880764
      5529.5000         0.6926        -999.25          0.896         0.7053       -72.4266      -31.12225      0.5553964
      5530.0000         0.7054        -999.25         0.9089         0.7045       -67.5883      -26.28395      0.6245149
      5530.5000         0.7203        -999.25         0.9217         0.7064       -58.7928      -17.48845       0.750165
      5531.0000         0.7352        -999.25         0.9345         0.7083       -42.9916      -1.687252      0.9758964
      5531.5000         0.7549        -999.25         0.9473         0.7101       -41.3627    -0.05835342      0.9991664
      5532.0000         0.7767        -999.25         0.9601         0.7131       -42.5959      -1.291553      0.9815493
      5532.5000         0.7978        -999.25         0.9524         0.7219        -43.828      -2.523651      0.9639478
      5533.0000         0.8133        -999.25         0.9373         0.7307       -45.0612      -3.756851      0.9463307
      5533.5000         0.8122        -999.25         0.9222         0.7395       -46.0853      -4.780952      0.9317007
      5534.0000         0.8046        -999.25         0.9072         0.7483       -46.9869      -5.682552      0.9188207
      5534.5000         0.8059        -999.25         0.8921         0.7573       -47.8885      -6.584152      0.9059407
      5535.0000         0.8119        -999.25         0.8751         0.7679       -48.4798      -7.175453      0.8974935
      5535.5000         0.8234        -999.25          0.857         0.7786       -47.2825      -5.978153      0.9145978
      5536.0000         0.8537        -999.25         0.8389         0.7892       -46.0864      -4.782051       0.931685
