#------------------------------------------------------------------------------
# Created by    : vladimir.rabinovich
# Created on    : 09/19/2023 17:21:28
#------------------------------------------------------------------------------
~Version Information Section
VERS.           2.0     :   CWLS log ASCII Standard - VERSION 2.0
WRAP.           NO      :   One line per depth step
~Well Information Section
#MNEM       .UNIT                                         VALUE :DESCRIPTION
#------------------------------------------------------------------------------
STRT        .FT                                            2437 :START DEPTH
STOP        .FT                                            8654 :STOP DEPTH
STEP        .FT                                             0.5 :STEP      
NULL        .                                           -999.25 :NULL      
COMP        .                                      PELTO OIL CO :COMPANY   
WELL        .                                     ST TR 00163-S :WELL      
FLD         .                                           WILDCAT :FIELD     
LOC         .                                                   :LOCATION  
CNTY        .                             GALVESTON SMALL BLOCK :LOCATION  
STAT        .                                             TEXAS :STATE     
CTRY        .                                     UNITED STATES :COUNTRY   
SRVC        .                                                   :SERVICE COMPANY
DATE        .                             9/13/2023 11:19:17 AM :LOG DATE  
API         .                                    42605301550000 :API NUMBER
UWI         .                                    42605301550000 :UNIQUE WELL ID
XCOORD      .                                  1154226.19631992 :SURFACE X 
YCOORD      .                                  10687289.1653299 :SURFACE Y 
LAT         .                                        29.4396686 :LATITUDE  
LON         .                                       -94.5278571 :LONGITUDE 
ELEV        .FT                                             111 :ELEVATION VALUE
ELEV_TYPE   .                                                KB :ELEVATION REFERENCE TYPE
~Curve Information Section
#MNEM       .UNIT                                      API CODE :CURVE DESCRIPTION
#------------------------------------------------------------------------------
DEPT        .FT                                                 :DEPTH     
CALI        .IN                                                 :          
GR          .GAPI                                               :          
GR_NORM     .GAPI                                               :GammaRay Normalized
ILD         .OHMM                                               :          
ILM         .OHMM                                               :          
NPSS        .%                                                  :Neutron Porosity Sandstone
RHOB        .G/CM3                                              :          
SFL         .OHMM                                               :          
SP          .MV                                                 :          
SP_NORM     .GAPI                                               :SP Normalized
TENS        .LB                                                 :          
VSH_GR      .V/V                                                :Volume of Shale from GR
VSH_SP      .V/V                                                :Volume of Shale from SP
~A        DEPTH           CALI             GR        GR_NORM            ILD            ILM           NPSS           RHOB            SFL             SP        SP_NORM           TENS         VSH_GR         VSH_SP
# ...
      7795.0000        11.5495        91.1416       83.79334         0.8149         0.8225          36.18          2.228          0.898        80.4452     -0.8518006             20              1      0.9878314
      7795.5000        11.5505        87.2674       79.48392         0.8455         0.8495          35.76         2.2639         0.9677        80.6494     -0.5633133             20      0.9890195      0.9919527
      7796.0000        11.5515        85.3846       77.38715         0.8612         0.8772          35.88         2.2848         1.0186        80.9535     -0.1349564             20      0.9444073       0.998072
      7796.5000        11.5525        86.1869       78.27383         0.8811         0.9058          35.76         2.3007         0.9953        81.5568      0.7122726             20       0.963273              1
      7797.0000        11.5635        87.9816       80.26318         0.8972         0.9229          35.58         2.3106         0.9859        82.1606       1.560196             20              1              1
      7797.5000        11.5945        89.6754       82.14043         0.8807          0.914           35.1         2.3205         1.0046        82.4659       1.990219             20              1              1
      7798.0000        11.5955         90.676       83.24744         0.8686         0.8806           34.5         2.3304          1.047        82.5719        2.14124             20              1              1
      7798.5000        11.5665        90.5815       83.13767         0.8297         0.8566           33.9         2.3363         1.0862        82.7778       2.432109             20              1              1
      7799.0000        11.5875        89.6907       82.14314         0.8036         0.8297          34.08         2.3343         1.0862        83.1837       3.002974             20              1              1
      7799.5000        11.6185         87.615       79.83205         0.7854         0.8036           34.8         2.3273         1.0422        83.5901       3.574554             20      0.9964265              1
      7800.0000        11.6395         87.126       79.28396          0.757         0.7746          35.64         2.3223              1        83.5968       3.586539             10      0.9847651              1
      7800.5000        11.6691        89.4991       81.91597         0.7296         0.7466        36.1817         2.3193         0.9809        83.7937       3.864804        10.2862              1              1
      7801.0000        11.6976         91.283       83.89331          0.713         0.7296        36.6046         2.3144         0.9395         83.682       3.711038        10.7632              1              1
      7801.5000        11.7161        92.9713       85.76445         0.6967         0.7296        36.7875         2.3074         0.9086        83.6703        3.69727        11.2392              1              1
      7802.0000        11.7247        93.0586       85.85669         0.6838         0.7263        37.0307         2.3005         0.8798        83.5577       3.542233        11.7144              1              1
      7802.5000        11.5832        91.3513       83.95493         0.6903         0.7296        37.2736         2.3005         0.8798        83.5461       3.528604         12.236              1              1
      7803.0000        11.5217        90.6427       83.16283         0.6967         0.7398        37.3965         2.3045         0.8919        83.5345       3.514975        12.7092              1              1
      7803.5000        11.4702        91.4299       84.03274         0.7032         0.7432        37.6397         2.3064            0.9        83.6225       3.640778        13.1815              1              1
      7804.0000        11.4487         92.017       84.68031         0.7097         0.7501        37.8826         2.3104         0.9042        83.7105       3.766602        13.6529              1              1
      7804.5000        11.4171        90.4131       82.89344         0.7097         0.7535        38.6055         2.3134         0.9042        83.9976        4.17114        14.1704              1              1
      7805.0000        11.3956        87.4299       79.57401         0.7097          0.757        39.0887         2.3203         0.9257        84.1848       4.435829        14.6398      0.9909363              1
      7805.5000        11.3942        87.0241       79.11836         0.7097         0.7432        38.6116         2.3282         0.9654        84.1729       4.421783        15.1084      0.9812418              1
      7806.0000        11.3827        90.2825       82.73405         0.7065         0.7364        38.1946         2.3342         0.9834        84.2605        4.54703         15.576              1              1
      7806.5000        11.3812        93.6511       86.47218         0.7065         0.7364        38.7377         2.3322         0.9787        84.4461       4.809477        16.0894              1              1
      7807.0000        11.3797        94.0368       86.89597         0.7065         0.7296        39.4606         2.3223         0.9472        84.7321       5.212499        16.5552              1              1
      7807.5000        11.3682        93.3301       86.10598         0.7032         0.7196        40.2438         2.3094         0.9126          84.72       5.198164        17.0201              1              1
      7808.0000        11.3666         93.021       85.75778         0.7032         0.7196        40.6667         2.3015            0.9        84.2117        4.48915        17.4841              1              1
      7808.5000        11.3751        92.2163       84.85891         0.7032         0.7229        41.2696         2.2985         0.9042         83.704       3.780989        17.9934              1              1
      7809.0000        11.3736        90.2228       82.63915         0.7032         0.7263        41.9927         2.2975         0.9083        83.1967       3.073373        18.4555              1              1
      7809.5000        11.3822        87.8357       79.98206         0.7032         0.7263        42.4713         2.2965         0.9083        83.1853       3.060022        18.9168      0.9996182              1
      7810.0000        11.3907        87.0339        79.0864         0.7032         0.7364        42.2957         2.2995            0.9         83.174        3.04682        19.3771      0.9805616              1
      7810.5000           11.4        87.6238       79.73709         0.7065         0.7398          41.88         2.3084         0.9041        83.1683       3.041437         9.8039      0.9944062              1
      7811.0000           11.4        87.7228       79.84232         0.7065         0.7398          40.86         2.3173         0.9209        83.1683       3.044043         9.8039      0.9966452              1
      7811.5000          11.41        87.7228       79.83757         0.7097         0.7364          39.84         2.3282         0.9379        83.0693       2.908061         9.8039      0.9965441              1
      7812.0000          11.42        87.8218        79.9428         0.7097         0.7296          38.88         2.3322         0.9552        83.1683       3.049266         9.8039      0.9987831              1
      7812.5000          11.44        88.6139       80.81815          0.713         0.7263          38.22         2.3282         0.9509        83.3663        3.32908         9.8039              1              1
      7813.0000          11.44        89.4059        81.6934         0.7097         0.7196          38.16         2.3183         0.9293        83.1683       3.054489         9.8039              1              1
      7813.5000          11.44         89.604       81.90874            0.7         0.7163          38.16         2.3084         0.9251        82.7723       2.502701         9.8039              1              1
