#------------------------------------------------------------------------------
# Created by    : vladimir.rabinovich
# Created on    : 09/19/2023 17:20:26
#------------------------------------------------------------------------------
~Version Information Section
VERS.           2.0     :   CWLS log ASCII Standard - VERSION 2.0
WRAP.           NO      :   One line per depth step
~Well Information Section
#MNEM       .UNIT                                         VALUE :DESCRIPTION
#------------------------------------------------------------------------------
STRT        .FT                                             344 :START DEPTH
STOP        .FT                                           10034 :STOP DEPTH
STEP        .FT                                             0.5 :STEP      
NULL        .                                           -999.25 :NULL      
COMP        .                                        TEXACO USA :COMPANY   
WELL        .                                     ST TR 00136-S :WELL      
FLD         .                                           WILDCAT :FIELD     
LOC         .                                                   :LOCATION  
CNTY        .                           HIGH ISLAND SMALL BLOCK :LOCATION  
STAT        .                                             TEXAS :STATE     
CTRY        .                                     UNITED STATES :COUNTRY   
SRVC        .                                                   :SERVICE COMPANY
DATE        .                             9/13/2023 11:19:17 AM :LOG DATE  
API         .                                    42606000310000 :API NUMBER
UWI         .                                    42606000310000 :UNIQUE WELL ID
XCOORD      .                                  1183554.44061246 :SURFACE X 
YCOORD      .                                  10706170.1937531 :SURFACE Y 
LAT         .                                          29.49262 :LATITUDE  
LON         .                                       -94.4364494 :LONGITUDE 
ELEV        .FT                                              52 :ELEVATION VALUE
ELEV_TYPE   .                                                KB :ELEVATION REFERENCE TYPE
~Curve Information Section
#MNEM       .UNIT                                      API CODE :CURVE DESCRIPTION
#------------------------------------------------------------------------------
DEPT        .FT                                                 :DEPTH     
ASN         .OHMM                                               :          
CILD        .MMHO                                               :          
LAT         .OHMM                                               :          
LN          .OHMM                                               :          
SP          .MV                                                 :          
SP_NORM     .MV                                                 :SP Normalized
VSH_SP      .V/V                                                :Volume of Shale from SP
~A        DEPTH            ASN           CILD            LAT             LN             SP        SP_NORM         VSH_SP
# ...
      4833.0000         0.5175        -999.25          0.565         0.5471       -87.0452      -45.74085      0.3465593
      4833.5000         0.4924        -999.25         0.5119         0.5469       -95.1616      -53.85725      0.2306107
      4834.0000         0.4717        -999.25         0.4592         0.5467       -99.4379      -58.13355      0.1695207
      4834.5000         0.4529        -999.25         0.4529         0.5465       -101.848      -60.54365      0.1350907
      4835.0000          0.434        -999.25         0.4466         0.5466       -99.5054      -58.20105      0.1685564
      4835.5000         0.4143        -999.25         0.4403         0.5482       -96.9108      -55.60645      0.2056222
      4836.0000         0.4433        -999.25          0.434         0.5498       -92.1173      -50.81295      0.2741007
      4836.5000         0.4785        -999.25         0.4354         0.5514       -86.5551      -45.25075      0.3535607
      4837.0000         0.5137        -999.25         0.4516          0.553        -81.213      -39.90865      0.4298764
      4837.5000         0.5489        -999.25         0.4678         0.5546       -75.1696      -33.86525      0.5162107
      4838.0000         0.5841        -999.25         0.4841         0.5562       -58.7703      -17.46595      0.7504864
      4838.5000         0.6192        -999.25         0.5003         0.5579       -60.1036      -18.79925      0.7314393
      4839.0000         0.6576        -999.25         0.5166         0.5587       -63.9684      -22.66405      0.6762279
      4839.5000         0.6972        -999.25         0.5216         0.5574       -68.6359      -27.33155      0.6095492
      4840.0000          0.737        -999.25         0.5214         0.5561       -73.0966      -31.79226      0.5458249
      4840.5000         0.7766        -999.25         0.5212         0.5549       -77.3459      -36.04155      0.4851207
      4841.0000          0.818        -999.25         0.5216         0.5536       -81.5503      -40.24595      0.4250578
      4841.5000         0.8594        -999.25         0.5355         0.5524       -80.8038      -39.49945      0.4357221
      4842.0000         0.9008        -999.25         0.5495         0.5511       -74.2792      -32.97485      0.5289307
      4842.5000         0.9359        -999.25         0.5634         0.5485       -68.0829      -26.77855      0.6174492
      4843.0000         0.9672        -999.25         0.5774         0.5439       -62.8083      -21.50395      0.6928007
      4843.5000         0.9986        -999.25         0.5913         0.5392       -58.7703      -17.46595      0.7504864
      4844.0000         1.0327        -999.25         0.6244         0.5347       -54.9055      -13.60115      0.8056979
      4844.5000         1.0697        -999.25         0.6578         0.5309        -52.601      -11.29665      0.8386192
      4845.0000         1.1068        -999.25         0.6911         0.5272       -54.0309      -12.72655      0.8181921
      4845.5000         1.1208        -999.25         0.7266         0.5234       -57.4506      -16.14625      0.7693393
      4846.0000         1.0978        -999.25         0.7659         0.5196       -60.9602      -19.65585      0.7192021
      4846.5000         1.0471        -999.25         0.7994         0.5159       -64.4675      -23.16315      0.6690978
      4847.0000         0.9964        -999.25         0.8282         0.5119       -67.9772      -26.67286      0.6189592
      4847.5000         0.9464        -999.25         0.8368         0.5057       -71.4868      -30.18245      0.5688221
      4848.0000         0.9015        -999.25         0.8058         0.4994       -74.9965      -33.69215      0.5186836
      4848.5000         0.8567        -999.25         0.7748         0.4931       -78.2767      -36.97235      0.4718235
      4849.0000         0.8095        -999.25         0.7438         0.4868       -81.4851      -40.18075      0.4259893
      4849.5000         0.7587        -999.25         0.7128         0.4805       -85.3634      -44.05906      0.3705849
      4850.0000         0.7071        -999.25         0.6831         0.4742       -91.7463      -50.44195      0.2794007
      4850.5000          0.643        -999.25         0.6576         0.4679       -94.3949      -53.09055      0.2415636
      4851.0000         0.5774        -999.25         0.6321         0.4643       -95.2939      -53.98955      0.2287207
      4851.5000         0.5347        -999.25         0.6066         0.4609        -95.507      -54.20266      0.2256763
      4852.0000         0.5442        -999.25         0.5811         0.4574       -95.6815      -54.37716      0.2231835
      4852.5000         0.5534        -999.25         0.5556          0.454       -95.6324      -54.32805       0.223885
      4853.0000         0.5626        -999.25         0.5301         0.4505       -95.5835      -54.27916      0.2245835
      4853.5000         0.5717        -999.25         0.5046         0.4471       -95.4443      -54.13995      0.2265721
      4854.0000         0.5809        -999.25         0.4855         0.4436       -95.0919      -53.78756      0.2316063
      4854.5000         0.5903        -999.25          0.467         0.4402       -94.7395      -53.43515      0.2366407
      4855.0000          0.579        -999.25         0.4485         0.4367        -93.626      -52.32165      0.2525478
      4855.5000         0.5419        -999.25           0.43         0.4312       -92.3849      -51.08055      0.2702778
      4856.0000         0.5023        -999.25         0.4147         0.4257       -92.1937      -50.88935      0.2730092
      4856.5000          0.468        -999.25         0.4104         0.4202       -93.4259      -52.12156      0.2554063
      4857.0000         0.4605        -999.25         0.4061         0.4147       -95.4629      -54.15855      0.2263064
      4857.5000         0.4876        -999.25         0.4018         0.4092       -97.7224      -56.41805      0.1940279
      4858.0000         0.5153        -999.25         0.3974         0.4037       -95.1863      -53.88195      0.2302578
      4858.5000         0.5433        -999.25         0.3931         0.3982       -93.0864      -51.78205      0.2602564
      4859.0000         0.5713        -999.25         0.3888         0.3927       -92.0319      -50.72755      0.2753207
      4859.5000         0.5838        -999.25         0.3843         0.3872       -93.9216      -52.61725       0.248325
      4860.0000         0.5897        -999.25         0.3793         0.3836       -95.8102      -54.50586      0.2213449
      4860.5000         0.5545        -999.25         0.3744         0.3819         -97.52      -56.21565      0.1969193
      4861.0000         0.5196        -999.25         0.3695         0.3802       -99.0028      -57.69845      0.1757364
      4861.5000         0.4975        -999.25         0.3645         0.3785      -100.1062      -58.80185      0.1599735
      4862.0000         0.4927        -999.25         0.3596         0.3768      -100.9526      -59.64825      0.1478821
      4862.5000         0.4927        -999.25         0.3546         0.3747      -101.7992      -60.49485      0.1357878
      4863.0000         0.4926        -999.25         0.3497         0.3724      -102.6327      -61.32835      0.1238807
      4863.5000          0.483        -999.25         0.3442           0.37      -103.2645      -61.96016      0.1148549
      4864.0000         0.4702        -999.25         0.3386         0.3677       -103.462      -62.15765      0.1120336
      4864.5000         0.4516        -999.25         0.3344         0.3653      -103.6595      -62.35515      0.1092121
      4865.0000          0.429        -999.25         0.3358          0.363      -103.8571      -62.55275      0.1063892
      4865.5000         0.4186        -999.25         0.3372         0.3606      -103.9746      -62.67025      0.1047107
      4866.0000         0.4177        -999.25         0.3386         0.3583      -104.0466      -62.74225      0.1036821
