#------------------------------------------------------------------------------
# Created by    : vladimir.rabinovich
# Created on    : 09/19/2023 17:20:26
#------------------------------------------------------------------------------
~Version Information Section
VERS.           2.0     :   CWLS log ASCII Standard - VERSION 2.0
WRAP.           NO      :   One line per depth step
~Well Information Section
#MNEM       .UNIT                                         VALUE :DESCRIPTION
#------------------------------------------------------------------------------
STRT        .FT                                             344 :START DEPTH
STOP        .FT                                           10034 :STOP DEPTH
STEP        .FT                                             0.5 :STEP      
NULL        .                                           -999.25 :NULL      
COMP        .                                        TEXACO USA :COMPANY   
WELL        .                                     ST TR 00136-S :WELL      
FLD         .                                           WILDCAT :FIELD     
LOC         .                                                   :LOCATION  
CNTY        .                           HIGH ISLAND SMALL BLOCK :LOCATION  
STAT        .                                             TEXAS :STATE     
CTRY        .                                     UNITED STATES :COUNTRY   
SRVC        .                                                   :SERVICE COMPANY
DATE        .                             9/13/2023 11:19:17 AM :LOG DATE  
API         .                                    42606000310000 :API NUMBER
UWI         .                                    42606000310000 :UNIQUE WELL ID
XCOORD      .                                  1183554.44061246 :SURFACE X 
YCOORD      .                                  10706170.1937531 :SURFACE Y 
LAT         .                                          29.49262 :LATITUDE  
LON         .                                       -94.4364494 :LONGITUDE 
ELEV        .FT                                              52 :ELEVATION VALUE
ELEV_TYPE   .                                                KB :ELEVATION REFERENCE TYPE
~Curve Information Section
#MNEM       .UNIT                                      API CODE :CURVE DESCRIPTION
#------------------------------------------------------------------------------
DEPT        .FT                                                 :DEPTH     
ASN         .OHMM                                               :          
CILD        .MMHO                                               :          
LAT         .OHMM                                               :          
LN          .OHMM                                               :          
SP          .MV                                                 :          
SP_NORM     .MV                                                 :SP Normalized
VSH_SP      .V/V                                                :Volume of Shale from SP
~A        DEPTH            ASN           CILD            LAT             LN             SP        SP_NORM         VSH_SP
# ...
      9355.5000         0.7709       2362.309        -999.25         0.5829       -61.3209      -24.36438      0.6954452
      9356.0000         0.8598       2139.406        -999.25         0.6018       -56.9934      -20.03688       0.749539
      9356.5000          0.899       1501.594        -999.25         0.6221        -53.556      -16.59948      0.7925065
      9357.0000         0.9337       1350.066        -999.25         0.6427       -53.2393      -16.28278      0.7964653
      9357.5000         0.9796       1319.217        -999.25         0.6632       -54.8699      -17.91338      0.7760828
      9358.0000          1.011       1297.484        -999.25         0.6838       -57.2076      -20.25108      0.7468615
      9358.5000         1.0114       1285.582        -999.25         0.7044       -59.5497      -22.59318      0.7175852
      9359.0000         1.0016       1281.236        -999.25          0.725       -61.8919      -24.93538      0.6883078
      9359.5000         0.9836       1286.184        -999.25         0.7387       -58.8761      -21.91958      0.7260053
      9360.0000         0.9656       1293.105        -999.25         0.7426       -54.5665      -17.60998      0.7798752
      9360.5000         0.9475       1310.777        -999.25         0.7464       -50.0294      -13.07288       0.836589
      9361.0000          0.931       1320.469        -999.25         0.7503       -52.9114      -15.95488       0.800564
      9361.5000         0.9176       1310.102        -999.25         0.7542       -55.7978      -18.84128       0.764484
      9362.0000         0.9042       1280.588        -999.25          0.758       -58.6798      -21.72328       0.728459
      9362.5000         0.9856       1255.633        -999.25         0.7619       -62.0614      -25.10488       0.686189
      9363.0000         1.0602       1231.781        -999.25         0.7657       -66.2372      -29.28068      0.6339915
      9363.5000         1.0551       1207.488        -999.25         0.7696       -63.2749      -26.31838      0.6710203
      9364.0000         1.0524       1184.434        -999.25         0.7695       -59.4203      -22.46378      0.7192028
      9364.5000         1.0511       1165.451        -999.25          0.769       -55.2982      -18.34168       0.770729
      9365.0000         1.0499       1149.854        -999.25         0.7686        -51.283      -14.32648       0.820919
      9365.5000         1.0549       1138.637        -999.25         0.7681       -49.1907      -12.23418      0.8470727
      9366.0000         1.0707       1130.793        -999.25         0.7677       -47.0939      -10.13738      0.8732828
      9366.5000         1.0865       1125.371        -999.25         0.7672       -45.9897       -9.03318      0.8870853
      9367.0000         1.1026       1121.887        -999.25         0.7668       -46.0031      -9.046581      0.8869177
      9367.5000         1.1194       1115.404        -999.25         0.7667       -47.2768      -10.32028      0.8709965
      9368.0000         1.1284         1106.4        -999.25         0.7672       -48.8672      -11.91068      0.8511165
      9368.5000         1.1316       1095.559        -999.25         0.7677       -50.4599      -13.50338      0.8312078
      9369.0000          1.129       1081.244        -999.25         0.7682       -52.0526      -15.09608       0.811299
      9369.5000         1.1265       1078.477        -999.25         0.7687       -52.0303      -15.07378      0.8115777
      9370.0000         1.1409       1079.199        -999.25         0.7692       -50.2725      -13.31598      0.8335503
      9370.5000         1.1631       1086.953        -999.25         0.7697         -48.41      -11.45348      0.8568315
      9371.0000         1.1853        1095.57        -999.25         0.7702       -46.5184      -9.561878      0.8804765
      9371.5000         1.2197       1102.816        -999.25         0.7707       -45.2335      -8.276981      0.8965377
      9372.0000         1.2521       1106.576        -999.25         0.7734        -49.213      -12.25648       0.846794
      9372.5000          1.291       1094.695        -999.25         0.7781       -53.8795      -16.92298      0.7884628
      9373.0000         1.2685       1082.814        -999.25         0.7829       -59.3311      -22.37458      0.7203177
      9373.5000         1.2402        1072.15        -999.25         0.7876       -66.6208      -29.66428      0.6291965
      9374.0000         1.2148       1065.713        -999.25         0.7923       -66.5494      -29.59288       0.630089
      9374.5000         1.1905       1071.111        -999.25          0.797       -63.1633      -26.20678      0.6724153
      9375.0000         1.1612       1078.125        -999.25         0.8017        -60.384      -23.42748      0.7071565
      9375.5000          1.082       1091.709        -999.25         0.8064       -57.6002      -20.64368       0.741954
      9376.0000         1.0526       1106.113        -999.25         0.8112       -54.8208      -17.86428      0.7766965
      9376.5000         1.0319       1115.598        -999.25         0.8184       -52.8712      -15.91468      0.8010665
      9377.0000         1.0436       1112.113        -999.25         0.8257       -51.3344      -14.37788      0.8202765
      9377.5000         1.0792       1107.451        -999.25         0.8329       -49.7974      -12.84088       0.839489
      9378.0000         1.1148        1102.23        -999.25         0.8402       -48.2739      -11.31738      0.8585328
      9378.5000         1.1582       1097.566        -999.25         0.8474       -47.4664      -10.50988      0.8686265
      9379.0000         1.1647       1092.904        -999.25         0.8547       -46.7482      -9.791679       0.877604
      9379.5000         1.1465       1082.041        -999.25         0.8619       -47.6265      -10.66998      0.8666252
      9380.0000         1.1213       1067.172        -999.25         0.8692       -48.0029      -11.04638      0.8619202
      9380.5000         1.0954       1056.057        -999.25         0.8755       -48.0341      -11.07758      0.8615302
      9381.0000         1.1107       1056.621        -999.25         0.8812       -47.4497      -10.49318      0.8688353
      9381.5000         1.1443       1057.184        -999.25         0.8868       -46.8641      -9.907581      0.8761553
      9382.0000           1.18       1061.232        -999.25         0.8925       -46.2764      -9.319881      0.8835015
      9382.5000         1.2209       1067.283        -999.25         0.8982       -45.6852       -8.72868      0.8908915
      9383.0000         1.2683       1064.297        -999.25         0.9039        -45.093      -8.136478       0.898294
      9383.5000         1.1907       1060.059        -999.25         0.9095       -44.5008      -7.544281      0.9056965
      9384.0000         1.1399       1050.303        -999.25         0.9152       -44.4461      -7.489578      0.9063803
      9384.5000         1.1117        1041.43        -999.25         0.9155       -46.3355      -9.378979      0.8827628
      9385.0000         1.0892       1040.357        -999.25         0.9036       -48.1602      -11.20368       0.859954
      9385.5000         1.0688       1050.955        -999.25         0.8918       -49.8041      -12.84758      0.8394052
      9386.0000          1.049       1063.898        -999.25         0.8799       -49.4316      -12.47508      0.8440615
      9386.5000         1.0412       1099.387        -999.25         0.8746       -47.2947      -10.33818      0.8707727
      9387.0000         1.0764       1119.963        -999.25         0.8705        -45.876      -8.919479      0.8885065
      9387.5000         1.1112        1129.32        -999.25         0.8664       -44.8343      -7.877781      0.9015278
      9388.0000         1.1533       1126.379        -999.25         0.8623       -43.7925      -6.835979      0.9145502
      9388.5000         1.1961       1111.578        -999.25         0.8612       -43.3487      -6.392181      0.9200977
