#------------------------------------------------------------------------------
# Created by    : vladimir.rabinovich
# Created on    : 09/19/2023 17:19:42
#------------------------------------------------------------------------------
~Version Information Section
VERS.           2.0     :   CWLS log ASCII Standard - VERSION 2.0
WRAP.           NO      :   One line per depth step
~Well Information Section
#MNEM       .UNIT                                         VALUE :DESCRIPTION
#------------------------------------------------------------------------------
STRT        .FT                                             583 :START DEPTH
STOP        .FT                                            6498 :STOP DEPTH
STEP        .FT                                             0.5 :STEP      
NULL        .                                           -999.25 :NULL      
COMP        .                                        EXXON CORP :COMPANY   
WELL        .                                     ST TR 00692-S :WELL      
FLD         .                                           WILDCAT :FIELD     
LOC         .                                                   :LOCATION  
CNTY        .                      MATAGORDA ISLAND SMALL BLOCK :LOCATION  
STAT        .                                             TEXAS :STATE     
CTRY        .                                     UNITED STATES :COUNTRY   
SRVC        .                                                   :SERVICE COMPANY
DATE        .                             9/13/2023 11:19:17 AM :LOG DATE  
API         .                                    42603301950000 :API NUMBER
UWI         .                                    42603301950000 :UNIQUE WELL ID
XCOORD      .                                  518375.599551337 :SURFACE X 
YCOORD      .                                  10266878.6313095 :SURFACE Y 
LAT         .                                        28.2472954 :LATITUDE  
LON         .                                       -96.4850657 :LONGITUDE 
ELEV        .FT                                              89 :ELEVATION VALUE
ELEV_TYPE   .                                                KB :ELEVATION REFERENCE TYPE
~Curve Information Section
#MNEM       .UNIT                                      API CODE :CURVE DESCRIPTION
#------------------------------------------------------------------------------
DEPT        .FT                                                 :DEPTH     
ASFL        .OHMM                                               :          
CILD        .MMHO                                               :          
GR          .GAPI                                               :          
GR_NORM     .GAPI                                               :GammaRay Normalized
ILD         .OHMM                                               :          
SP          .MV                                                 :          
SP_NORM     .MV                                                 :SP Normalized
VSH_GR      .V/V                                                :Volume of Shale from GR
VSH_SP      .V/V                                                :Volume of Shale from SP
~A        DEPTH           ASFL           CILD             GR        GR_NORM            ILD             SP        SP_NORM         VSH_GR         VSH_SP
# ...
      2570.5000         1.1595       1904.877        36.1785        55.8619         0.5573          -43.2      -35.91074      0.4864233      0.3765939
      2571.0000         1.1317       1827.023        37.6756       58.30099         0.5573         -37.04      -29.75985      0.5383191      0.4864313
      2571.5000         1.0607       1749.169        39.1727       60.74009         0.5572          -30.8      -23.52895      0.5902146      0.5976973
      2572.0000         0.9897       1671.316        40.6698       63.17919         0.5768         -24.64      -17.37806      0.6421105      0.7075347
      2572.5000         0.9187       1593.462        42.1668       65.61813         0.5963          -18.4      -11.14716      0.6940027      0.8188007
      2573.0000         0.8161       1515.608        43.6639       68.05721         0.6159         -10.48      -3.236266      0.7458981      0.9600667
      2573.5000         0.8081       1435.524         45.161       70.49632         0.6355            -10      -2.765371      0.7977939      0.9684755
      2574.0000         0.7666       1435.615        46.7969       73.16312          0.655          -9.52      -2.286796      0.8545344      0.9770215
      2574.5000         0.7287       1435.617        47.7844       74.76621         0.6746          -9.04      -1.795284      0.8886428      0.9857985
      2575.0000         0.7307       1423.801        48.2588       75.52756         0.6942          -8.56      -1.303772      0.9048417      0.9945755
      2575.5000         0.7287       1435.804        48.7331       76.28876         0.7137          -8.16     -0.8922601      0.9210374              1
      2576.0000         0.7307       1459.715        49.2075       77.05012         0.7333          -7.92      -0.640748      0.9372365              1
      2576.5000         0.7346       1495.628        49.6819       77.81147         0.7528          -8.32      -1.029236      0.9534355      0.9994779
      2577.0000         0.7471       1458.038        50.1563       78.57283         0.7724          -9.04      -1.737724      0.9696347      0.9868264
      2577.5000         0.7596       1420.448        50.6307       79.33418          0.792          -9.52      -2.206213      0.9858335      0.9784605
      2578.0000         0.7721       1382.858        51.1051       80.09551         0.8115          -9.52      -2.194701              1      0.9786661
      2578.5000         0.7846       1345.268        51.5795       80.85687         0.8311          -8.72      -1.383189              1      0.9931573
      2579.0000         0.7971       1307.678        52.0539       81.61824         0.8506          -8.08     -0.7316766              1              1
      2579.5000         0.8096       1270.089        52.4244       82.20912         0.8702          -7.44    -0.08016491              1              1
      2580.0000         0.8221       1232.499        51.5355       80.73398         0.8898           -6.8      0.5713468              1              1
      2580.5000         0.8346       1194.909        49.6272       77.58652         0.9139          -6.08       1.302859      0.9486495              1
      2581.0000         0.9344       1157.319        47.7189       74.43904         0.9139           -5.6       1.794371      0.8816817              1
      2581.5000          0.966       1119.729        45.8106       71.29159         0.9139           -5.6       1.805882      0.8147146              1
      2582.0000         0.9976       1082.139        43.9024       68.14428         0.9139         -12.48      -5.062605      0.7477506      0.9274535
      2582.5000          1.054       1044.246        41.9941       64.99678         0.8741         -19.44      -12.01109      0.6807826      0.8033733
      2583.0000         1.1377       1032.338        40.0858       61.84933         0.8348          -26.4      -18.95958      0.6138156      0.6792932
      2583.5000         1.2167       1166.953        38.1775       58.70184         0.7955         -33.36      -25.90807      0.5468476       0.555213
      2584.0000         1.2147       1301.569        37.0196       56.78541         0.7561         -40.56      -33.09656      0.5060725      0.4268472
      2584.5000         1.1914       1436.184        37.0196       56.76851         0.7168         -41.52      -34.04505       0.505713      0.4099099
      2585.0000         1.1681       1570.799        37.0813       56.85281         0.6774            -44      -36.51353      0.5075067      0.3658297
      2585.5000         1.1353       1705.415        37.1183       56.89663         0.6381          -46.4      -38.90202       0.508439      0.3231781
      2586.0000         1.1512        1840.03        37.2417       57.08217         0.5988         -48.88      -41.37051      0.5123866       0.279098
      2586.5000         1.1657       1974.645        37.1182       56.86266         0.5594         -51.28        -43.759      0.5077161      0.2364465
      2587.0000         1.1803        2109.26        34.9586       53.30293         0.5201         -53.76      -46.22749      0.4319772      0.1923663
      2587.5000         1.2007       2243.876         32.799       49.74319         0.4807         -56.24      -48.69598      0.3562381      0.1482861
      2588.0000         1.1928       2378.491        30.6394       46.18346         0.4414         -58.64      -51.08446      0.2804991      0.1056346
      2588.5000         1.1785       2513.106        28.4798       42.62373         0.4021         -61.28      -53.71295      0.2047601     0.05869729
      2589.0000         1.1729       2647.721        26.3202         39.064         0.3577         -61.44      -53.86144      0.1290212     0.05604574
      2589.5000         1.1083       2760.135        24.0854       39.25201         0.3577         -61.44      -53.84993      0.1330216     0.05625132
      2590.0000         1.0437       2795.938        25.6652       39.25201         0.3577         -58.96      -51.35841      0.1330216      0.1007426
      2590.5000         0.9791        2800.25         28.682       43.69725         0.3378         -56.48      -48.86691      0.2276011      0.1452338
      2591.0000         0.9144       2804.563        31.6989       48.14249         0.3378         -53.92      -46.29539      0.3221806      0.1911537
      2591.5000         0.8315       2831.906        34.7158       52.58772         0.3378         -51.44      -43.80388        0.41676       0.235645
      2592.0000         0.8137       2855.802        37.7327       57.03296         0.3378         -48.88      -41.23237      0.5113395      0.2815649
      2592.5000         0.7845       2795.037        40.7498        61.4782         0.3377         -45.52      -37.86086      0.6059191      0.3417704
      2593.0000         0.7482       2734.271        43.7665       64.65337         0.3972         -46.96      -39.28934      0.6734759      0.3162617
      2593.5000         0.7482       2673.507        46.7834       67.82852         0.3972         -48.48      -40.79783      0.7410324      0.2893244
      2594.0000         0.7561       2612.742        49.9521       69.01923         0.3972         -49.92      -42.22632      0.7663665      0.2638157
      2594.5000         0.8068       2551.992        49.9521       70.20988         0.3972         -51.44      -43.73481      0.7916996      0.2368785
      2595.0000         0.8574       2491.212         49.952       71.40057          0.405         -52.88       -45.1633      0.8170335      0.2113696
      2595.5000         0.9081       2430.447        73.4478       72.59126         0.4128          -54.4      -46.67179      0.8423673      0.1844324
      2596.0000         0.9588       2380.247        73.8426        69.0986         0.4206         -55.84      -48.10027      0.7680554      0.1589237
      2596.5000         1.0239       2356.522          90.52        65.6059         0.4285         -56.96      -49.20876      0.6937425      0.1391293
