#------------------------------------------------------------------------------
# Created by    : vladimir.rabinovich
# Created on    : 09/19/2023 17:19:42
#------------------------------------------------------------------------------
~Version Information Section
VERS.           2.0     :   CWLS log ASCII Standard - VERSION 2.0
WRAP.           NO      :   One line per depth step
~Well Information Section
#MNEM       .UNIT                                         VALUE :DESCRIPTION
#------------------------------------------------------------------------------
STRT        .FT                                             583 :START DEPTH
STOP        .FT                                            6498 :STOP DEPTH
STEP        .FT                                             0.5 :STEP      
NULL        .                                           -999.25 :NULL      
COMP        .                                        EXXON CORP :COMPANY   
WELL        .                                     ST TR 00692-S :WELL      
FLD         .                                           WILDCAT :FIELD     
LOC         .                                                   :LOCATION  
CNTY        .                      MATAGORDA ISLAND SMALL BLOCK :LOCATION  
STAT        .                                             TEXAS :STATE     
CTRY        .                                     UNITED STATES :COUNTRY   
SRVC        .                                                   :SERVICE COMPANY
DATE        .                             9/13/2023 11:19:17 AM :LOG DATE  
API         .                                    42603301950000 :API NUMBER
UWI         .                                    42603301950000 :UNIQUE WELL ID
XCOORD      .                                  518375.599551337 :SURFACE X 
YCOORD      .                                  10266878.6313095 :SURFACE Y 
LAT         .                                        28.2472954 :LATITUDE  
LON         .                                       -96.4850657 :LONGITUDE 
ELEV        .FT                                              89 :ELEVATION VALUE
ELEV_TYPE   .                                                KB :ELEVATION REFERENCE TYPE
~Curve Information Section
#MNEM       .UNIT                                      API CODE :CURVE DESCRIPTION
#------------------------------------------------------------------------------
DEPT        .FT                                                 :DEPTH     
ASFL        .OHMM                                               :          
CILD        .MMHO                                               :          
GR          .GAPI                                               :          
GR_NORM     .GAPI                                               :GammaRay Normalized
ILD         .OHMM                                               :          
SP          .MV                                                 :          
SP_NORM     .MV                                                 :SP Normalized
VSH_GR      .V/V                                                :Volume of Shale from GR
VSH_SP      .V/V                                                :Volume of Shale from SP
~A        DEPTH           ASFL           CILD             GR        GR_NORM            ILD             SP        SP_NORM         VSH_GR         VSH_SP
# ...
      2968.0000          1.005       3104.856        29.8383       34.90329         0.3599         -64.72      -62.31036     0.04049545              0
      2968.5000         1.0297       3131.279         28.951       33.51912         0.3642         -63.84      -61.43036     0.01104501              0
      2969.0000         1.0214       3070.401        28.9508       33.50292         0.3685         -62.88      -60.47036     0.01070047              0
      2969.5000         1.0158       3009.522        28.9503       33.48626         0.3728         -61.92      -59.51036     0.01034603              0
      2970.0000         0.9691       2934.544        29.5775       34.43756         0.3768         -60.64      -58.23036      0.0305864              0
      2970.5000         0.9225       2934.556        30.2047       35.38887         0.3766          -60.8      -58.39036     0.05082694              0
      2971.0000         0.8759       2940.542        30.8319       36.34017         0.3467         -61.68      -59.27036     0.07106741              0
      2971.5000         0.8292       2988.281        31.6159       37.53326         0.3328         -62.56      -60.15036     0.09645243              0
      2972.0000          0.799       3012.163        31.5169       37.36472         0.3265         -63.36      -60.95036     0.09286637              0
      2972.5000         0.8009       3280.597        27.8522       31.69758         0.3198         -64.24      -61.83036              0              0
      2973.0000         0.7973       3405.882        23.3157       24.68609         0.3131         -65.36      -62.95036              0              0
      2973.5000         0.7949       3519.239        23.2167       24.51754         0.3063         -65.36      -62.95036              0              0
      2974.0000         0.7929       3578.914        23.3152       24.65354         0.2996         -65.36      -62.95036              0              0
      2974.5000         0.7869       3608.765        24.5669       26.56787         0.2928          -61.6      -59.19036              0              0
      2975.0000         0.7809       3668.441        25.8186        28.4822         0.2861          -60.8      -58.39036              0              0
      2975.5000         0.7713       3614.767        27.0704       30.39668         0.2793         -59.28      -56.87036              0    0.002314976
      2976.0000         0.7616        3477.94        28.3221         32.311         0.2726          -59.2      -56.79036              0    0.003743512
      2976.5000          0.752       3341.115        29.5739       34.22549         0.2658         -57.68      -55.27036     0.02607435     0.03088638
      2977.0000          0.745       3204.288        30.8256       36.13981         0.2591         -56.48      -54.07036     0.06680452     0.05231496
      2977.5000          0.745       3067.462        31.9068       37.79121         0.2553         -53.28      -50.87036      0.1019407      0.1094578
      2978.0000          0.745       2523.294        32.0054       37.92738         0.2652         -50.96      -48.55036      0.1048379      0.1508864
      2978.5000          0.786       2487.512        34.4865       41.73752         0.2849         -48.56      -46.15036      0.1859047      0.1937435
      2979.0000         0.8384       2398.052        37.6343       46.57578         0.3253         -43.84      -41.43036      0.2888464      0.2780292
      2979.5000         0.8722       2374.208        37.3377       46.10252         0.3657         -44.64      -42.23036      0.2787769      0.2637435
      2980.0000          0.962       2153.507        36.8433       45.32422         0.4062         -46.88      -44.47036      0.2622175      0.2237435
      2980.5000         1.0518       2159.489        36.2661       44.41826         0.4466          -49.2      -46.79036      0.2429418      0.1823149
      2981.0000         1.1417       2177.402        35.6889       43.51228         0.4928         -51.44      -49.03036      0.2236655       0.142315
      2981.5000         1.2479       2269.122        35.1116       42.60616         0.4629         -53.76      -51.35036      0.2043863      0.1008864
      2982.0000         1.2499       2360.843        34.5344       41.70019         0.4483            -56      -53.59036      0.1851104     0.06088638
      2982.5000         1.2479       2452.563        33.9572        40.7942         0.4336         -58.32      -55.91036      0.1658341     0.01945782
      2983.0000         1.2299       2544.284          33.38       39.88825          0.419         -60.56      -58.15036      0.1465586              0
      2983.5000         1.1843       2636.005        32.7899       38.96238         0.4043         -63.04      -60.63036      0.1268591              0
      2984.0000         1.1387       2727.725        32.7897       38.94618         0.3896         -63.04      -60.63036      0.1265145              0
      2984.5000         1.0931       2875.524        33.4805       39.99556          0.375         -63.04      -60.63036      0.1488417              0
      2985.0000         1.0475       2875.535        36.6261       44.83041         0.3603         -61.36      -58.95036      0.2517109              0
      2985.5000         1.0018       2839.758        39.7717       49.66529         0.3424         -59.68      -57.27036      0.3545806              0
      2986.0000         0.9562       2653.196        42.9173       54.50014         0.3423         -51.36      -48.95036      0.4574498      0.1437435
      2986.5000         0.9106       2466.635        45.9217       59.11726         0.3421         -47.44      -45.03036      0.5556863      0.2137436
      2987.0000          0.865       2280.073        46.3163       59.70987         0.3421         -30.24      -27.83036      0.5682951      0.5208864
      2987.5000         0.8194       2093.512        51.6894       67.97972         0.3519          -18.4      -15.99036      0.7442494       0.732315
      2988.0000         0.7737        1906.95        57.0625       76.24953         0.3977         -15.44      -13.03036      0.9202027      0.7851721
      2988.5000         0.7286       1720.388        63.3975       86.00268         0.4436         -10.64      -8.230362              1      0.8708864
      2989.0000         0.7201       1545.245        63.3975       85.98679         0.4894           -5.2      -2.790361              1      0.9680293
      2989.5000         0.6649       1527.358        62.8037       85.05521         0.5353          -4.16      -1.750361              1      0.9866007
      2990.0000         0.6648       1521.397        60.7287       81.83954         0.5812          -4.16      -1.750361              1      0.9866007
      2990.5000         0.6648       1509.482        58.6538         78.624          0.627             -4      -1.590361      0.9707234      0.9894578
      2991.0000         0.6728       1503.527        56.0858       74.64806         0.6888             -4      -1.590361       0.886129      0.9894578
      2991.5000         0.6829       1503.538        56.2829       74.93612         0.6887           -4.4      -1.990361      0.8922579      0.9823149
      2992.0000          0.693       1497.583        56.7942       75.70869         0.6718             -4      -1.590361      0.9086956      0.9894578
      2992.5000         0.7031       1479.695        57.3056       76.48143         0.6486             -4      -1.590361      0.9251368      0.9894578
      2993.0000         0.7132       1443.907        57.7613       77.16825         0.6485           -3.6      -1.190361        0.93975      0.9966007
      2993.5000         0.7383       1384.252        53.2188       70.14751         0.6583           -3.2     -0.7903614      0.7903727              1
      2994.0000         0.7739       1300.729         53.218       70.13039         0.6938           -2.8     -0.3903613      0.7900082              1
