#------------------------------------------------------------------------------
# Created by    : vladimir.rabinovich
# Created on    : 09/19/2023 17:20:27
#------------------------------------------------------------------------------
~Version Information Section
VERS.           2.0     :   CWLS log ASCII Standard - VERSION 2.0
WRAP.           NO      :   One line per depth step
~Well Information Section
#MNEM       .UNIT                                         VALUE :DESCRIPTION
#------------------------------------------------------------------------------
STRT        .FT                                             304 :START DEPTH
STOP        .FT                                            9519 :STOP DEPTH
STEP        .FT                                             0.5 :STEP      
NULL        .                                           -999.25 :NULL      
COMP        .                                        TEXACO INC :COMPANY   
WELL        .                                     ST TR 00216-S :WELL      
FLD         .                                           WILDCAT :FIELD     
LOC         .                                                   :LOCATION  
CNTY        .                             GALVESTON SMALL BLOCK :LOCATION  
STAT        .                                             TEXAS :STATE     
CTRY        .                                     UNITED STATES :COUNTRY   
SRVC        .                                                   :SERVICE COMPANY
DATE        .                             9/13/2023 11:19:17 AM :LOG DATE  
API         .                                    42605000160000 :API NUMBER
UWI         .                                    42605000160000 :UNIQUE WELL ID
XCOORD      .                                  1087579.10798688 :SURFACE X 
YCOORD      .                                  10638823.7542325 :SURFACE Y 
LAT         .                                         29.303831 :LATITUDE  
LON         .                                       -94.7349593 :LONGITUDE 
ELEV        .FT                                              15 :ELEVATION VALUE
ELEV_TYPE   .                                                KB :ELEVATION REFERENCE TYPE
~Curve Information Section
#MNEM       .UNIT                                      API CODE :CURVE DESCRIPTION
#------------------------------------------------------------------------------
DEPT        .FT                                                 :DEPTH     
ASN         .OHMM                                               :          
LAT         .OHMM                                               :          
LN          .OHMM                                               :          
SP          .MV                                                 :          
SP_NORM     .MV                                                 :SP Normalized
VSH_SP      .V/V                                                :Volume of Shale from SP
~A        DEPTH            ASN            LAT             LN             SP        SP_NORM         VSH_SP
# ...
      7676.0000         0.4258         0.5189         0.3972       -51.8445      -13.06335      0.7538092
      7676.5000         0.4245         0.5309         0.4033       -53.6727      -14.88965      0.7165378
      7677.0000         0.4227         0.5429         0.4094        -58.832      -20.04705      0.6112847
      7677.5000         0.4208          0.555         0.4155       -60.4998      -21.71295      0.5772868
      7678.0000          0.419          0.567         0.4215       -62.8004      -24.01165      0.5303746
      7678.5000         0.4186          0.579         0.4276       -66.7753      -27.98465      0.4492929
      7679.0000           0.42           0.59         0.4337        -67.256      -28.46344      0.4395216
      7679.5000         0.4214         0.5918         0.4398       -67.4485      -28.65405      0.4356317
      7680.0000         0.4228         0.5937         0.4459       -67.6411      -28.84474        0.43174
      7680.5000         0.4243         0.5955          0.452       -67.9839      -29.18565      0.4247827
      7681.0000         0.4261         0.5973         0.4519       -68.7518      -29.95164      0.4091501
      7681.5000          0.429         0.5991         0.4456       -70.7986      -31.99654      0.3674175
      7682.0000         0.4319         0.6009         0.4392       -73.3475      -34.54354      0.3154379
      7682.5000         0.4307         0.6027         0.4329       -75.5164      -36.71054      0.2712134
      7683.0000         0.4198         0.6005         0.4266       -77.6235      -38.81574      0.2282502
      7683.5000          0.409         0.5906         0.4202       -78.2366      -39.42694      0.2157767
      7684.0000         0.3982         0.5807         0.4139       -78.5166      -39.70504      0.2101012
      7684.5000         0.3869         0.5709         0.4076       -78.4847      -39.67124       0.210791
      7685.0000         0.3701          0.561         0.4002       -78.4529      -39.63754      0.2114787
      7685.5000         0.3533         0.5512         0.3864        -79.443      -40.62574      0.1913114
      7686.0000         0.3364         0.5413         0.3726       -80.3516      -41.53244      0.1728074
      7686.5000         0.3197         0.5314         0.3588       -81.1184      -42.29734      0.1571972
      7687.0000         0.3097         0.5216          0.345       -81.3414      -42.51844       0.152685
      7687.5000         0.2997         0.5189         0.3312       -81.5645      -42.73964      0.1481707
      7688.0000         0.2898          0.518         0.3174        -81.871      -43.04424      0.1419544
      7688.5000         0.2887         0.5171         0.3036       -82.4873      -43.65863      0.1294157
      7689.0000         0.3018         0.5162         0.2898       -84.0046      -45.17403      0.0984891
      7689.5000         0.3148         0.5153         0.2759       -84.8289      -45.99644     0.08170537
      7690.0000         0.3278         0.5144         0.2785       -85.0156      -46.18124     0.07793395
      7690.5000         0.3409         0.5135         0.2866       -85.1198      -46.28353     0.07584638
      7691.0000         0.3539         0.5134         0.2947       -84.7847      -45.94653     0.08272389
      7691.5000         0.3669         0.5295         0.3028       -84.4501      -45.61003     0.08959112
      7692.0000         0.3718         0.5456         0.3109        -84.115      -45.27303     0.09646879
      7692.5000         0.3759         0.5618          0.319        -81.671      -42.82713      0.1463852
      7693.0000           0.38         0.5779         0.3271       -79.2079      -40.36213      0.1966912
      7693.5000         0.3841          0.594         0.3352       -76.8721      -38.02443      0.2443994
      7694.0000         0.3882         0.6101         0.3433       -74.6901      -35.84053      0.2889688
      7694.5000         0.3923         0.6262         0.3514        -72.774      -33.92253      0.3281116
      7695.0000         0.3964         0.6423         0.3638       -70.8579      -32.00453      0.3672545
      7695.5000         0.4005         0.6584         0.3773       -69.5352      -30.67993      0.3942872
      7696.0000         0.4046         0.6674         0.3908       -68.3069      -29.44973      0.4193933
      7696.5000         0.4119         0.6756         0.4042       -67.0786      -28.21952      0.4444995
      7697.0000         0.4311         0.6838         0.4177       -66.5742      -27.71323      0.4548321
      7697.5000         0.4504          0.692         0.4311       -66.1194      -27.25652      0.4641526
      7698.0000         0.4696         0.7002         0.4446       -67.1379      -28.27312      0.4434056
      7698.5000         0.4888         0.7085         0.4581       -68.6167      -29.75002      0.4132648
      7699.0000         0.5081         0.7167         0.4688       -70.6206      -31.75202      0.3724077
      7699.5000         0.5273         0.7249         0.4724        -72.673      -33.80252      0.3305609
      7700.0000         0.5466         0.7251          0.476        -74.533      -35.66062      0.2926404
      7700.5000         0.5496         0.7096         0.4797       -75.6636      -36.78932      0.2696058
      7701.0000         0.5455         0.6942         0.4833       -76.7941      -37.91792      0.2465731
      7701.5000         0.5413         0.6787          0.487       -74.3011      -35.42302      0.2974894
      7702.0000         0.5372         0.6633         0.4906       -70.8469      -31.96692      0.3680221
      7702.5000         0.5331         0.6478         0.4942       -67.6587      -28.77682      0.4331262
      7703.0000         0.5289         0.6317         0.4979       -65.5294      -26.64562        0.47662
      7703.5000         0.5248         0.6095         0.4969       -63.3981      -24.51242      0.5201547
      7704.0000         0.5206         0.5874         0.4926       -61.2974      -22.40982       0.563065
      7704.5000         0.5165         0.5653         0.4882       -59.2319      -20.34241      0.6052569
      7705.0000         0.5124         0.5432         0.4838       -57.7333      -18.84192      0.6358793
      7705.5000         0.5063         0.5213         0.4795       -57.1944      -18.30112       0.646916
      7706.0000         0.4977         0.4995         0.4751        -56.655      -17.75981       0.657963
      7706.5000         0.4892         0.4777         0.4725       -56.1155      -17.21841       0.669012
      7707.0000         0.4806         0.4559         0.4705       -55.5767      -16.67771      0.6800467
      7707.5000         0.4721         0.4341         0.4684       -55.0372      -16.13631      0.6910957
      7708.0000         0.4635         0.4122         0.4707       -54.9435      -16.04071      0.6930466
      7708.5000          0.455         0.3904         0.4731       -55.1721      -16.26741      0.6884202
      7709.0000         0.4469          0.383         0.4755       -55.4006      -16.49401      0.6837957
      7709.5000         0.4413         0.3795         0.4778       -55.6291      -16.72061      0.6791712
      7710.0000         0.4357          0.376         0.4802       -55.8579      -16.94751      0.6745406
      7710.5000         0.4308         0.3724         0.4826       -55.9852      -17.07291      0.6719815
      7711.0000         0.4259         0.3689          0.485       -56.0811      -17.16691      0.6700631
      7711.5000         0.4211         0.3654         0.4873       -56.1769      -17.26081      0.6681468
      7712.0000         0.4162         0.3618         0.4897       -56.2728      -17.35481      0.6662284
      7712.5000         0.4133         0.3662         0.4921       -56.3687       -17.4488      0.6643102
      7713.0000         0.4112         0.3756         0.4945       -56.2303      -17.30851      0.6671733
      7713.5000          0.409          0.385         0.4968       -55.0064      -16.08271      0.6921897
