#------------------------------------------------------------------------------
# Created by    : vladimir.rabinovich
# Created on    : 09/19/2023 17:20:26
#------------------------------------------------------------------------------
~Version Information Section
VERS.           2.0     :   CWLS log ASCII Standard - VERSION 2.0
WRAP.           NO      :   One line per depth step
~Well Information Section
#MNEM       .UNIT                                         VALUE :DESCRIPTION
#------------------------------------------------------------------------------
STRT        .FT                                             500 :START DEPTH
STOP        .FT                                            8974 :STOP DEPTH
STEP        .FT                                             0.5 :STEP      
NULL        .                                           -999.25 :NULL      
COMP        .                                    G M A OFFSHORE :COMPANY   
WELL        .                                     ST TR 00112-S :WELL      
FLD         .                                           WILDCAT :FIELD     
LOC         .                                                   :LOCATION  
CNTY        .                           HIGH ISLAND SMALL BLOCK :LOCATION  
STAT        .                                             TEXAS :STATE     
CTRY        .                                     UNITED STATES :COUNTRY   
SRVC        .                                                   :SERVICE COMPANY
DATE        .                             9/13/2023 11:19:17 AM :LOG DATE  
API         .                                    42606300040000 :API NUMBER
UWI         .                                    42606300040000 :UNIQUE WELL ID
XCOORD      .                                   1218436.6654802 :SURFACE X 
YCOORD      .                                  10720928.6649768 :SURFACE Y 
LAT         .                                        29.5343489 :LATITUDE  
LON         .                                        -94.327329 :LONGITUDE 
ELEV        .FT                                              63 :ELEVATION VALUE
ELEV_TYPE   .                                                KB :ELEVATION REFERENCE TYPE
~Curve Information Section
#MNEM       .UNIT                                      API CODE :CURVE DESCRIPTION
#------------------------------------------------------------------------------
DEPT        .FT                                                 :DEPTH     
ASN         .OHMM                                               :          
CILD        .MMHO                                               :          
GR          .GAPI                                               :          
GR_NORM     .GAPI                                               :GammaRay Normalized
ILD         .OHMM                                               :          
SP          .MV                                                 :          
SP_NORM     .MV                                                 :SP Normalized
VSH_GR      .V/V                                                :Volume of Shale from GR
VSH_SP      .V/V                                                :Volume of Shale from SP
~A        DEPTH            ASN           CILD             GR        GR_NORM            ILD             SP        SP_NORM         VSH_GR         VSH_SP
# ...
      7814.0000         0.6581       2376.121        -999.25        -999.25         0.4574       -70.1377      -19.54055        -999.25      0.7394593
      7814.5000         0.6495       2376.555        -999.25        -999.25         0.4542       -66.3175      -15.72966        -999.25      0.7902712
      7815.0000         0.6404       2371.402        -999.25        -999.25         0.4509       -63.8281      -13.24957        -999.25       0.823339
      7815.5000         0.6313       2378.402        -999.25        -999.25         0.4476       -61.6956      -11.12638        -999.25      0.8516483
      7816.0000         0.6222       2602.605        -999.25        -999.25         0.4444       -61.0115       -10.4516        -999.25      0.8606454
      7816.5000         0.6131       2669.867        -999.25        -999.25         0.4389       -60.3265      -9.775906        -999.25      0.8696546
      7817.0000         0.5963       2720.363        -999.25        -999.25         0.4287       -61.9815      -11.44022        -999.25      0.8474638
      7817.5000         0.5759       2761.234        -999.25        -999.25         0.4185       -67.1324      -16.60043        -999.25       0.778661
      7818.0000         0.6295       2798.188        -999.25        -999.25         0.4083       -72.0292      -21.50654        -999.25      0.7132462
      7818.5000         0.7059       2832.609        -999.25        -999.25         0.3981       -77.6809      -27.16755        -999.25       0.637766
      7819.0000         0.7597       2864.754        -999.25        -999.25         0.3879            -84      -33.49596        -999.25      0.5533872
      7819.5000         0.7922        2903.59        -999.25        -999.25         0.3778       -83.1328      -32.63807        -999.25      0.5648258
      7820.0000         0.7654       2950.168        -999.25        -999.25         0.3676       -83.3215      -32.83609        -999.25      0.5621855
      7820.5000          0.735       3011.328        -999.25        -999.25         0.3547       -88.1771        -37.701        -999.25      0.4973201
      7821.0000         0.7653       3128.586        -999.25        -999.25         0.3406       -92.6814       -42.2146        -999.25      0.4371386
      7821.5000         0.8185       3246.047        -999.25        -999.25         0.3272       -96.2661      -45.80862        -999.25      0.3892184
      7822.0000         0.8489       3374.613        -999.25        -999.25         0.3193       -98.6248      -48.17663        -999.25      0.3576449
      7822.5000         0.8761       3480.961        -999.25        -999.25         0.3114      -100.3219      -49.88304        -999.25      0.3348928
      7823.0000         0.7748       3532.648        -999.25        -999.25          0.318      -101.8955      -51.46595        -999.25      0.3137873
      7823.5000          0.703        3519.75        -999.25        -999.25         0.3399      -100.7256      -50.30536        -999.25      0.3292618
      7824.0000         0.6516       3451.992        -999.25        -999.25         0.3617       -87.2501      -36.83917        -999.25      0.5088111
      7824.5000         0.6167        3380.27        -999.25        -999.25         0.3835       -80.3872      -29.98558        -999.25      0.6001922
      7825.0000         0.5843       3134.145        -999.25        -999.25         0.4054       -76.0063      -25.61399        -999.25        0.65848
      7825.5000         0.5821       3021.547        -999.25        -999.25         0.4272       -70.6199      -20.23691        -999.25      0.7301745
      7826.0000         0.6083       2804.387        -999.25        -999.25         0.4491       -67.1511      -16.77742        -999.25      0.7763011
      7826.5000         0.6345       2545.664        -999.25        -999.25         0.4797        -63.686      -13.32163        -999.25      0.8223783
      7827.0000         0.6586       2286.539        -999.25        -999.25          0.513       -61.5199      -11.16484        -999.25      0.8511354
      7827.5000         0.6734       2027.816        -999.25        -999.25         0.5463       -59.5817       -9.23595        -999.25       0.876854
      7828.0000         0.6737       2025.117        -999.25        -999.25         0.5796       -57.8997      -7.563263        -999.25      0.8991565
      7828.5000         0.6609       2022.865        -999.25        -999.25         0.5879       -56.8287      -6.501572        -999.25      0.9133124
      7829.0000          0.648       2020.615        -999.25        -999.25         0.5666       -55.7896      -5.471783        -999.25      0.9270429
      7829.5000         0.6441        2039.82        -999.25        -999.25         0.5453       -56.8492      -6.540695        -999.25      0.9127907
      7830.0000         0.6466       2170.672        -999.25        -999.25         0.5241       -60.1835      -9.884304        -999.25      0.8682093
      7830.5000          0.649        2469.77        -999.25        -999.25         0.4995       -63.8206      -13.53072        -999.25      0.8195904
      7831.0000         0.6515       2538.816        -999.25        -999.25         0.4711       -68.0687      -17.78813        -999.25      0.7628249
      7831.5000         0.6556       2600.227        -999.25        -999.25         0.4427        -66.196      -15.92474        -999.25      0.7876702
      7832.0000         0.6603       2666.691        -999.25        -999.25         0.4143       -65.1737      -14.91175        -999.25      0.8011767
      7832.5000         0.6651       2815.895        -999.25        -999.25         0.4065       -66.2839      -16.03126        -999.25      0.7862499
      7833.0000         0.6698        2909.84        -999.25        -999.25         0.4204       -67.8539      -17.61057        -999.25      0.7651924
      7833.5000         0.6569       2976.109        -999.25        -999.25         0.4343       -69.4238      -19.18978        -999.25      0.7441363
      7834.0000         0.6412       2996.051        -999.25        -999.25         0.4482       -72.2347         -22.01        -999.25      0.7065334
      7834.5000         0.6255       2924.922        -999.25        -999.25         0.4621       -72.8665      -22.65111        -999.25      0.6979852
      7835.0000         0.6101       2848.137        -999.25        -999.25          0.476       -68.0444      -17.83832        -999.25      0.7621558
      7835.5000         0.5947       2740.898        -999.25        -999.25         0.4899       -63.2225      -13.02573        -999.25      0.8263236
      7836.0000         0.5992         2640.5        -999.25        -999.25         0.5072       -58.1688      -7.981339        -999.25      0.8935822
      7836.5000         0.6085       2179.398        -999.25        -999.25         0.5301       -53.6309      -3.452751        -999.25      0.9539633
      7837.0000         0.6178       2034.959        -999.25        -999.25         0.5529       -50.6629     -0.4940605        -999.25      0.9934126
      7837.5000          0.627       2271.066        -999.25        -999.25         0.5757       -48.9556       1.203926        -999.25              1
      7838.0000         0.6363       2507.566        -999.25        -999.25         0.5986        -48.472       1.678219        -999.25              1
      7838.5000         0.6456       2743.676        -999.25        -999.25         0.6214       -48.0744       2.066505        -999.25              1
      7839.0000         0.6543       2980.176        -999.25        -999.25         0.6437        -49.179      0.9525948        -999.25              1
      7839.5000         0.6627       3379.277        -999.25        -999.25         0.6652       -50.2386     -0.1163177        -999.25      0.9984491
      7840.0000          0.671       3472.031        -999.25        -999.25         0.6867       -50.8965     -0.7835274        -999.25       0.989553
