#------------------------------------------------------------------------------
# Created by    : vladimir.rabinovich
# Created on    : 09/19/2023 17:20:26
#------------------------------------------------------------------------------
~Version Information Section
VERS.           2.0     :   CWLS log ASCII Standard - VERSION 2.0
WRAP.           NO      :   One line per depth step
~Well Information Section
#MNEM       .UNIT                                         VALUE :DESCRIPTION
#------------------------------------------------------------------------------
STRT        .FT                                             500 :START DEPTH
STOP        .FT                                            8974 :STOP DEPTH
STEP        .FT                                             0.5 :STEP      
NULL        .                                           -999.25 :NULL      
COMP        .                                    G M A OFFSHORE :COMPANY   
WELL        .                                     ST TR 00112-S :WELL      
FLD         .                                           WILDCAT :FIELD     
LOC         .                                                   :LOCATION  
CNTY        .                           HIGH ISLAND SMALL BLOCK :LOCATION  
STAT        .                                             TEXAS :STATE     
CTRY        .                                     UNITED STATES :COUNTRY   
SRVC        .                                                   :SERVICE COMPANY
DATE        .                             9/13/2023 11:19:17 AM :LOG DATE  
API         .                                    42606300040000 :API NUMBER
UWI         .                                    42606300040000 :UNIQUE WELL ID
XCOORD      .                                   1218436.6654802 :SURFACE X 
YCOORD      .                                  10720928.6649768 :SURFACE Y 
LAT         .                                        29.5343489 :LATITUDE  
LON         .                                        -94.327329 :LONGITUDE 
ELEV        .FT                                              63 :ELEVATION VALUE
ELEV_TYPE   .                                                KB :ELEVATION REFERENCE TYPE
~Curve Information Section
#MNEM       .UNIT                                      API CODE :CURVE DESCRIPTION
#------------------------------------------------------------------------------
DEPT        .FT                                                 :DEPTH     
ASN         .OHMM                                               :          
CILD        .MMHO                                               :          
GR          .GAPI                                               :          
GR_NORM     .GAPI                                               :GammaRay Normalized
ILD         .OHMM                                               :          
SP          .MV                                                 :          
SP_NORM     .MV                                                 :SP Normalized
VSH_GR      .V/V                                                :Volume of Shale from GR
VSH_SP      .V/V                                                :Volume of Shale from SP
~A        DEPTH            ASN           CILD             GR        GR_NORM            ILD             SP        SP_NORM         VSH_GR         VSH_SP
# ...
      3309.0000         0.7353       1869.598        -999.25        -999.25         0.5736       -78.9847      -23.30918        -999.25      0.5761968
      3309.5000         0.7281       1845.387        -999.25        -999.25         0.5837          -76.8      -21.13215        -999.25       0.615779
      3310.0000         0.7208       1820.631        -999.25        -999.25         0.5938       -76.3875      -20.72732        -999.25      0.6231396
      3310.5000         0.7145        1793.18        -999.25        -999.25         0.6031       -77.8788       -22.2263        -999.25      0.5958855
      3311.0000         0.7092        1765.74        -999.25        -999.25         0.6115       -76.9104      -21.26558        -999.25      0.6133532
      3311.5000         0.7039       1743.641        -999.25        -999.25         0.6198       -75.6876      -20.05045        -999.25      0.6354464
      3312.0000         0.6986       1724.037        -999.25        -999.25         0.6281       -74.4647      -18.83522        -999.25      0.6575414
      3312.5000         0.6933        1704.42        -999.25        -999.25         0.6364       -73.2681       -17.6463        -999.25      0.6791582
      3313.0000         0.6885       1673.344        -999.25        -999.25         0.6448       -72.1547      -16.54058        -999.25      0.6992623
      3313.5000         0.6913       1634.781        -999.25        -999.25         0.6531       -71.0408      -15.43435        -999.25      0.7193755
      3314.0000         0.6975       1603.221        -999.25        -999.25         0.6614       -69.9274      -14.32862        -999.25      0.7394796
      3314.5000         0.7028       1574.541        -999.25        -999.25         0.6697       -68.8239       -13.2328        -999.25      0.7594037
      3315.0000         0.7052       1550.193        -999.25        -999.25         0.6781       -67.7394      -12.15598        -999.25      0.7789823
      3315.5000         0.7076        1528.33        -999.25        -999.25         0.6864       -66.6555      -11.07975        -999.25        0.79855
      3316.0000           0.71       1514.939        -999.25        -999.25         0.6947       -65.6011      -10.03302        -999.25      0.8175815
      3316.5000         0.7124       1503.977        -999.25        -999.25          0.694       -64.7749        -9.2145        -999.25      0.8324636
      3317.0000         0.7147       1513.221        -999.25        -999.25         0.6849       -63.9487      -8.395973        -999.25      0.8473459
      3317.5000         0.7129       1529.148        -999.25        -999.25         0.6758       -63.2236      -7.678547        -999.25      0.8603901
      3318.0000          0.708       1545.061        -999.25        -999.25         0.6667       -63.7446      -8.207218        -999.25      0.8507779
      3318.5000          0.703       1557.363        -999.25        -999.25         0.6576       -64.2651      -8.735394        -999.25      0.8411747
      3319.0000         0.6981       1569.674        -999.25        -999.25         0.6484       -64.7861      -9.264072        -999.25      0.8315623
      3319.5000         0.6932       1581.984        -999.25        -999.25         0.6393       -65.3068      -9.792446        -999.25      0.8219555
      3320.0000         0.6883       1594.293        -999.25        -999.25         0.6302       -65.8276      -10.32092        -999.25      0.8123469
      3320.5000          0.685       1601.467        -999.25        -999.25         0.6217       -66.4253       -10.9263        -999.25        0.80134
      3321.0000         0.6817       1607.887        -999.25        -999.25         0.6138       -67.1925      -11.70117        -999.25      0.7872515
      3321.5000         0.6784       1602.299        -999.25        -999.25         0.6059       -67.9594      -12.47574        -999.25      0.7731683
      3322.0000         0.6751       1595.219        -999.25        -999.25          0.598       -68.7261      -13.25012        -999.25      0.7590888
      3322.5000         0.6718       1622.266        -999.25        -999.25         0.5902       -69.4928      -14.02449        -999.25      0.7450092
      3323.0000         0.6685       1650.152        -999.25        -999.25         0.5823       -70.2595      -14.79887        -999.25      0.7309297
      3323.5000         0.6652       1678.037        -999.25        -999.25         0.5744       -71.0267      -15.57375        -999.25       0.716841
      3324.0000         0.6616       1696.537        -999.25        -999.25         0.5712       -71.5011      -16.05582        -999.25      0.7080761
      3324.5000         0.6577        1714.85        -999.25        -999.25         0.5791       -71.9691      -16.53149        -999.25      0.6994274
      3325.0000         0.6538       1733.162        -999.25        -999.25         0.5869       -72.4373      -17.00737        -999.25      0.6907751
      3325.5000         0.6498       1747.105        -999.25        -999.25         0.5948       -72.9039      -17.48164        -999.25      0.6821519
      3326.0000         0.6459       1760.309        -999.25        -999.25         0.6022       -72.6077      -17.19312        -999.25      0.6873979
      3326.5000          0.642       1773.514        -999.25        -999.25         0.6086        -72.358       -16.9511        -999.25      0.6917983
      3327.0000          0.638       1783.186        -999.25        -999.25          0.615       -72.1207      -16.72147        -999.25      0.6959733
      3327.5000         0.6348       1762.725        -999.25        -999.25         0.6214       -71.7205      -16.32894        -999.25      0.7031102
      3328.0000         0.6324        1742.25        -999.25        -999.25         0.6277       -71.2761      -15.89222        -999.25      0.7110506
      3328.5000           0.63       1721.777        -999.25        -999.25         0.6341       -70.8314      -15.45519        -999.25      0.7189966
      3329.0000         0.6283       1685.189        -999.25        -999.25         0.6405       -70.3868      -15.01827        -999.25      0.7269406
      3329.5000         0.6352       1651.119        -999.25        -999.25         0.6469       -69.5367      -14.17584        -999.25      0.7422575
      3330.0000         0.6421       1627.232        -999.25        -999.25         0.6532       -68.5553      -13.20211        -999.25      0.7599615
      3330.5000          0.649       1655.889        -999.25        -999.25         0.6424       -67.7081      -12.36259        -999.25      0.7752256
      3331.0000         0.6522       1707.041        -999.25        -999.25         0.6198       -67.1488      -11.81097        -999.25      0.7852551
      3331.5000         0.6529       1758.193        -999.25        -999.25         0.5972       -68.0875      -12.75734        -999.25      0.7680483
      3332.0000         0.6535        1805.67        -999.25        -999.25         0.5747       -70.8419      -15.51942        -999.25      0.7178288
      3332.5000         0.6541       1852.725        -999.25        -999.25         0.5521       -74.2252      -18.91039        -999.25      0.6561748
      3333.0000         0.6687       1973.803        -999.25        -999.25         0.5295       -79.2028      -23.89566        -999.25      0.5655335
      3333.5000         0.6838       2080.875        -999.25        -999.25          0.507       -83.0238      -27.72434        -999.25       0.495921
      3334.0000         0.7072       2299.375        -999.25        -999.25         0.4856       -86.3191      -31.02731        -999.25       0.435867
      3334.5000         0.7345        2517.75        -999.25        -999.25         0.4648        -89.431      -34.14689        -999.25      0.3791475
      3335.0000         0.7619       2736.125        -999.25        -999.25         0.4441       -93.5553      -38.27886        -999.25      0.3040207
