#------------------------------------------------------------------------------
# Created by    : vladimir.rabinovich
# Created on    : 09/19/2023 17:20:26
#------------------------------------------------------------------------------
~Version Information Section
VERS.           2.0     :   CWLS log ASCII Standard - VERSION 2.0
WRAP.           NO      :   One line per depth step
~Well Information Section
#MNEM       .UNIT                                         VALUE :DESCRIPTION
#------------------------------------------------------------------------------
STRT        .FT                                             500 :START DEPTH
STOP        .FT                                            8974 :STOP DEPTH
STEP        .FT                                             0.5 :STEP      
NULL        .                                           -999.25 :NULL      
COMP        .                                    G M A OFFSHORE :COMPANY   
WELL        .                                     ST TR 00112-S :WELL      
FLD         .                                           WILDCAT :FIELD     
LOC         .                                                   :LOCATION  
CNTY        .                           HIGH ISLAND SMALL BLOCK :LOCATION  
STAT        .                                             TEXAS :STATE     
CTRY        .                                     UNITED STATES :COUNTRY   
SRVC        .                                                   :SERVICE COMPANY
DATE        .                             9/13/2023 11:19:17 AM :LOG DATE  
API         .                                    42606300040000 :API NUMBER
UWI         .                                    42606300040000 :UNIQUE WELL ID
XCOORD      .                                   1218436.6654802 :SURFACE X 
YCOORD      .                                  10720928.6649768 :SURFACE Y 
LAT         .                                        29.5343489 :LATITUDE  
LON         .                                        -94.327329 :LONGITUDE 
ELEV        .FT                                              63 :ELEVATION VALUE
ELEV_TYPE   .                                                KB :ELEVATION REFERENCE TYPE
~Curve Information Section
#MNEM       .UNIT                                      API CODE :CURVE DESCRIPTION
#------------------------------------------------------------------------------
DEPT        .FT                                                 :DEPTH     
ASN         .OHMM                                               :          
CILD        .MMHO                                               :          
GR          .GAPI                                               :          
GR_NORM     .GAPI                                               :GammaRay Normalized
ILD         .OHMM                                               :          
SP          .MV                                                 :          
SP_NORM     .MV                                                 :SP Normalized
VSH_GR      .V/V                                                :Volume of Shale from GR
VSH_SP      .V/V                                                :Volume of Shale from SP
~A        DEPTH            ASN           CILD             GR        GR_NORM            ILD             SP        SP_NORM         VSH_GR         VSH_SP
# ...
      5561.5000          0.815       1680.779        -999.25        -999.25         0.6934        -50.709      -6.225975        -999.25       0.916987
      5562.0000          0.803        1705.58        -999.25        -999.25         0.6465       -56.7801      -12.30601        -999.25      0.8359199
      5562.5000         0.7909       1724.453        -999.25        -999.25         0.5996       -63.0952      -18.63004        -999.25      0.7515995
      5563.0000         0.8011       1743.328        -999.25        -999.25         0.5897       -67.4729      -23.01667        -999.25       0.693111
      5563.5000         0.8141       1762.227        -999.25        -999.25         0.5844         -79.11      -34.66271        -999.25      0.5378305
      5564.0000         0.8276       1780.703        -999.25        -999.25         0.5935       -80.5836      -36.14524        -999.25      0.5180634
      5564.5000         0.8495       1798.469        -999.25        -999.25         0.6089       -80.5836      -36.15417        -999.25      0.5179443
      5565.0000         0.8713       1816.236        -999.25        -999.25         0.6244       -79.7089      -35.28841        -999.25      0.5294879
      5565.5000         0.8932       1849.104        -999.25        -999.25         0.6398        -78.835      -34.42344        -999.25      0.5410208
      5566.0000          0.915       1881.648        -999.25        -999.25         0.6553       -77.9602      -33.55757        -999.25      0.5525658
      5566.5000         0.9327       1911.604        -999.25        -999.25          0.649       -77.0863      -32.69261        -999.25      0.5640985
      5567.0000         0.9491       1941.633        -999.25        -999.25         0.6189       -76.2115      -31.82674        -999.25      0.5756435
      5567.5000         0.9529       1972.311        -999.25        -999.25         0.5889       -75.4362      -31.06037        -999.25      0.5858617
      5568.0000         0.9274       2129.625        -999.25        -999.25         0.5589       -74.6787      -30.31181        -999.25      0.5958426
      5568.5000          0.894       2305.625        -999.25        -999.25         0.5233       -73.9213      -29.56334        -999.25      0.6058221
      5569.0000         0.8606       2481.625        -999.25        -999.25         0.4821       -75.2598      -30.91077        -999.25      0.5878564
      5569.5000         0.8273       2657.625        -999.25        -999.25         0.4409       -78.9767       -34.6366        -999.25      0.5381787
      5570.0000         0.8049       2711.664        -999.25        -999.25         0.3997       -81.0042      -36.67304        -999.25      0.5110261
      5570.5000         0.7844       2828.496        -999.25        -999.25         0.3656       -82.8757      -38.55347        -999.25      0.4859537
      5571.0000         0.7638       2865.746        -999.25        -999.25         0.3573       -84.3137       -40.0004        -999.25      0.4666614
      5571.5000         0.7445       2603.996        -999.25        -999.25         0.3947       -83.6661      -39.36173        -999.25      0.4751769
      5572.0000         0.7277       2454.992        -999.25        -999.25         0.4321       -80.6512      -36.35577        -999.25      0.5152565
      5572.5000         0.7108       2316.051        -999.25        -999.25         0.4695       -73.9907       -29.7042        -999.25      0.6039441
      5573.0000          0.694       2177.207        -999.25        -999.25         0.5069       -66.3992      -22.12163        -999.25      0.7050449
      5573.5000         0.6743       2038.365        -999.25        -999.25         0.5443       -60.8725      -16.60387        -999.25      0.7786151
      5574.0000         0.6799        1665.84        -999.25        -999.25         0.5818       -53.1382      -8.878494        -999.25        0.88162
      5574.5000         0.6856       1622.064        -999.25        -999.25         0.6123       -45.4678       -1.21703        -999.25      0.9837729
      5575.0000         0.6914       1578.291        -999.25        -999.25         0.6399       -43.8102      0.4316368        -999.25              1
      5575.5000         0.6972       1555.855        -999.25        -999.25         0.6674       -42.1525       2.080406        -999.25              1
      5576.0000         0.7029        1533.67        -999.25        -999.25          0.695       -40.8666       3.357372        -999.25              1
      5576.5000         0.7124       1520.957        -999.25        -999.25         0.7225       -40.0576        4.15744        -999.25              1
      5577.0000         0.7247       1510.275        -999.25        -999.25           0.75        -40.662       3.544109        -999.25              1
      5577.5000          0.737       1531.527        -999.25        -999.25         0.7468        -43.155       1.042175        -999.25              1
      5578.0000         0.7494       1576.846        -999.25        -999.25         0.7385       -47.0109      -2.822659        -999.25      0.9623646
      5578.5000         0.7617       1631.229        -999.25        -999.25          0.721       -52.4849      -8.305595        -999.25      0.8892587
      5579.0000         0.7722       1685.609        -999.25        -999.25         0.6926       -56.5192      -12.34882        -999.25       0.835349
      5579.5000          0.767       1766.336        -999.25        -999.25         0.6643        -58.571      -14.40956        -999.25      0.8078726
      5580.0000         0.7619       1867.729        -999.25        -999.25         0.6359       -60.5646      -16.41209        -999.25      0.7811721
      5580.5000         0.7568       1954.781        -999.25        -999.25         0.6076       -62.3687      -18.22512        -999.25      0.7569984
      5581.0000         0.7516       2134.676        -999.25        -999.25         0.5793       -63.4518      -19.31716        -999.25      0.7424379
      5581.5000         0.7465       2269.535        -999.25        -999.25          0.551       -62.2391      -18.11339        -999.25      0.7584881
      5582.0000         0.7414       2435.074        -999.25        -999.25         0.5226       -61.0255      -16.90872        -999.25      0.7745504
      5582.5000         0.7366       2597.324        -999.25        -999.25         0.4943       -60.4896      -16.38176        -999.25      0.7815766
      5583.0000         0.7345       2685.121        -999.25        -999.25          0.466       -64.7997      -20.70079        -999.25      0.7239895
      5583.5000         0.7323       2742.539        -999.25        -999.25         0.4453       -69.1099      -25.01992        -999.25      0.6664011
      5584.0000         0.7184       2802.551        -999.25        -999.25         0.4254       -73.4163      -29.33525        -999.25      0.6088633
      5584.5000         0.7037        2859.82        -999.25        -999.25         0.4054       -77.7264      -33.65429        -999.25      0.5512761
      5585.0000         0.6891           2865        -999.25        -999.25         0.3855       -82.0366      -37.97342        -999.25      0.4936878
      5585.5000           0.67       2804.742        -999.25        -999.25         0.3656       -83.8914      -39.83715        -999.25      0.4688379
      5586.0000         0.6578       2741.594        -999.25        -999.25         0.3742       -83.1714      -39.12609        -999.25      0.4783188
      5586.5000         0.6762        2660.27        -999.25        -999.25         0.3849       -88.4268      -44.39042        -999.25      0.4081277
      5587.0000         0.6946        2560.57        -999.25        -999.25         0.3956       -92.3202      -48.29275        -999.25      0.3560967
      5587.5000         0.7129       2453.996        -999.25        -999.25         0.4063       -94.2345      -50.21598        -999.25      0.3304536
