#------------------------------------------------------------------------------
# Created by    : vladimir.rabinovich
# Created on    : 09/19/2023 17:19:42
#------------------------------------------------------------------------------
~Version Information Section
VERS.           2.0     :   CWLS log ASCII Standard - VERSION 2.0
WRAP.           NO      :   One line per depth step
~Well Information Section
#MNEM       .UNIT                                         VALUE :DESCRIPTION
#------------------------------------------------------------------------------
STRT        .FT                                             583 :START DEPTH
STOP        .FT                                            6498 :STOP DEPTH
STEP        .FT                                             0.5 :STEP      
NULL        .                                           -999.25 :NULL      
COMP        .                                        EXXON CORP :COMPANY   
WELL        .                                     ST TR 00692-S :WELL      
FLD         .                                           WILDCAT :FIELD     
LOC         .                                                   :LOCATION  
CNTY        .                      MATAGORDA ISLAND SMALL BLOCK :LOCATION  
STAT        .                                             TEXAS :STATE     
CTRY        .                                     UNITED STATES :COUNTRY   
SRVC        .                                                   :SERVICE COMPANY
DATE        .                             9/13/2023 11:19:17 AM :LOG DATE  
API         .                                    42603301950000 :API NUMBER
UWI         .                                    42603301950000 :UNIQUE WELL ID
XCOORD      .                                  518375.599551337 :SURFACE X 
YCOORD      .                                  10266878.6313095 :SURFACE Y 
LAT         .                                        28.2472954 :LATITUDE  
LON         .                                       -96.4850657 :LONGITUDE 
ELEV        .FT                                              89 :ELEVATION VALUE
ELEV_TYPE   .                                                KB :ELEVATION REFERENCE TYPE
~Curve Information Section
#MNEM       .UNIT                                      API CODE :CURVE DESCRIPTION
#------------------------------------------------------------------------------
DEPT        .FT                                                 :DEPTH     
ASFL        .OHMM                                               :          
CILD        .MMHO                                               :          
GR          .GAPI                                               :          
GR_NORM     .GAPI                                               :GammaRay Normalized
ILD         .OHMM                                               :          
SP          .MV                                                 :          
SP_NORM     .MV                                                 :SP Normalized
VSH_GR      .V/V                                                :Volume of Shale from GR
VSH_SP      .V/V                                                :Volume of Shale from SP
~A        DEPTH           ASFL           CILD             GR        GR_NORM            ILD             SP        SP_NORM         VSH_GR         VSH_SP
# ...
      6068.5000         1.2305       1036.957        68.7266       84.25158         0.9616          -1.68          -1.68              1      0.9901449
      6069.0000         1.2504        1019.11        70.1608       87.07185         0.9913          -2.64          -2.64              1      0.9762319
      6069.5000         1.2958        1007.22        71.2451       89.20105          1.021          -3.52          -3.52              1      0.9634783
      6070.0000         1.3412       971.5074        70.5534       87.82246         1.0507          -4.48          -4.48              1      0.9495652
      6070.5000         1.4052       923.8848         61.166       69.26878         1.0804          -5.44          -5.44      0.7716762      0.9356522
      6071.0000         1.4111       900.0831        60.9836        68.8961         1.1102          -6.48          -6.48      0.7637467      0.9205797
      6071.5000         1.4131       888.1923        60.8011       68.52321         1.1399          -5.68          -5.68      0.7558129      0.9321739
      6072.0000         1.4111       888.2121        60.6187       68.15054         1.1698          -4.96          -4.96      0.7478839      0.9426087
      6072.5000         1.4071       882.2766        68.0287       82.77376         1.1797          -4.24          -4.24              1      0.9530435
      6073.0000         1.3476       888.2517        69.5221       85.71097         1.1896          -3.44          -3.44              1      0.9646377
      6073.5000         1.3158       888.2712        71.0154       88.64799         1.1895          -2.72          -2.72              1      0.9750724
      6074.0000         1.2821       894.2463        72.5088       91.58521         1.1994             -2             -2              1      0.9855072
      6074.5000         1.2523       906.1767         73.913       94.34624         1.2093          -1.28          -1.28              1      0.9959421
      6075.0000         1.2265       930.0177        73.3202       93.16296         1.1883          -0.72          -0.72              1              1
      6075.5000         1.2086        953.859         72.332       91.19873         1.1673          -0.48          -0.48              1              1
      6076.0000         1.1967          977.7         72.332       91.18629         1.1463          -0.64          -0.64              1              1
      6076.5000         1.1887       995.5857        72.6285       91.75952         1.1253          -0.72          -0.72              1              1
      6077.0000         1.1828       1001.561        72.9062       92.29555         1.1043          -0.64          -0.64              1              1
      6077.5000         1.1808       1007.536        73.0237       92.51522         1.0833          -0.64          -0.64              1              1
      6078.0000         1.1808       1013.511        73.2742       92.99756         1.0623          -0.64          -0.64              1              1
      6078.5000         1.1808       1013.531        73.5247        93.4799         1.0413          -0.56          -0.56              1              1
      6079.0000         1.1808       1007.595        73.7752       93.96224         1.0105          -0.56          -0.56              1              1
      6079.5000         1.1847       1007.615        74.0256       94.44439         1.0104          -0.48          -0.48              1              1
      6080.0000         1.1887       1001.679        74.2761       94.92673         1.0104          -0.48          -0.48              1              1
      6080.5000         1.1907       977.8776        72.8261       92.05041         1.0104          -0.72          -0.72              1              1
      6081.0000         1.1966       971.9421        70.3766       87.19991         1.0203          -1.52          -1.52              1      0.9924638
      6081.5000         1.2165       960.0513         67.927       82.34923         1.0253          -2.48          -2.48              1      0.9785507
      6082.0000         1.2363       948.1605        65.4775       77.49875         1.0301          -4.88          -4.88      0.9467819      0.9437681
      6082.5000         1.2363       924.3588         63.028       72.64823         1.0698          -7.28          -7.28      0.8435794      0.9089855
      6083.0000          1.276       900.5574        60.5784       67.79756         1.1096          -9.68          -9.68      0.7403737      0.8742029
      6083.5000         1.3236       876.7557        58.5968       63.87124         1.1494            -12            -12       0.656835      0.8405797
      6084.0000         1.3931       852.9543        58.3992       63.46855         1.1892          -14.4          -14.4       0.648267      0.8057971
      6084.5000         1.3911       841.0635        57.6073       61.89202         1.2291          -16.8          -16.8      0.6147238      0.7710145
      6085.0000          1.534       829.1724        56.8153       60.31533         1.2689         -19.12         -19.12      0.5811772      0.7373913
      6085.5000          1.542       817.2816        56.0234       58.73876         1.3087         -18.24         -18.24      0.5476332       0.750145
      6086.0000         1.5618       799.4355        55.1383        56.9782         1.3485         -17.36         -17.36      0.5101745      0.7628986
      6086.5000         1.6412       769.6785        54.9407       56.57546         1.3883         -16.16         -16.16      0.5016055      0.7802898
      6087.0000         1.7235       745.8771        54.7431       56.17276         1.4467         -16.16         -16.16      0.4930374      0.7802898
      6087.5000         1.8058       722.0754        53.2754       53.26145         1.4665         -17.92         -17.92      0.4310947      0.7547826
      6088.0000          1.927       710.1846        51.8078       50.35035           1.48         -19.76         -19.76      0.3691563      0.7281159
      6088.5000         2.0064       698.2938        50.3401       47.43903         1.4863          -21.6          -21.6      0.3072135      0.7014493
      6089.0000         2.0064        692.358        48.8724       44.52771          1.516         -23.04         -23.04      0.2452704      0.6805797
      6089.5000         2.2406       686.4225        47.8261       42.44873          1.516         -23.28         -23.28      0.2010368      0.6771014
      6090.0000         2.2505       668.5764        52.1382       50.95321         1.4935         -15.52         -15.52      0.3819831      0.7895652
      6090.5000         2.2802       668.5962        56.4503       59.45771          1.471         -15.52         -15.52      0.5629299      0.7895652
      6091.0000         1.7468       686.4819        60.7623       67.96201         1.4485         -14.72         -14.72      0.7438725      0.8011594
      6091.5000         1.6663       698.4123        65.7115       77.72487          1.426          -11.6          -11.6       0.951593      0.8463768
      6092.0000         1.5857       722.2533        64.7004       75.71538         1.4034           -8.4           -8.4      0.9088379      0.8927536
      6092.5000         1.4803       752.0595        63.6894        73.7061         1.3809           -7.2           -7.2      0.8660873      0.9101449
      6093.0000         1.4644       775.9005        62.6783       71.69664         1.3584          -5.28          -5.28      0.8233328       0.937971
      6093.5000         1.4111       811.6524        63.2301       72.77411         1.3359          -4.08          -4.08      0.8462576      0.9553623
      6094.0000         1.3578       835.4934        64.7013       75.66747         1.3134          -3.68          -3.68      0.9078184      0.9611594
      6094.5000         1.2917       841.4685        66.1725       78.56086         1.2909          -4.08          -4.08        0.96938      0.9553623
