#------------------------------------------------------------------------------
# Created by    : vladimir.rabinovich
# Created on    : 09/19/2023 17:20:27
#------------------------------------------------------------------------------
~Version Information Section
VERS.           2.0     :   CWLS log ASCII Standard - VERSION 2.0
WRAP.           NO      :   One line per depth step
~Well Information Section
#MNEM       .UNIT                                         VALUE :DESCRIPTION
#------------------------------------------------------------------------------
STRT        .FT                                             304 :START DEPTH
STOP        .FT                                            9519 :STOP DEPTH
STEP        .FT                                             0.5 :STEP      
NULL        .                                           -999.25 :NULL      
COMP        .                                        TEXACO INC :COMPANY   
WELL        .                                     ST TR 00216-S :WELL      
FLD         .                                           WILDCAT :FIELD     
LOC         .                                                   :LOCATION  
CNTY        .                             GALVESTON SMALL BLOCK :LOCATION  
STAT        .                                             TEXAS :STATE     
CTRY        .                                     UNITED STATES :COUNTRY   
SRVC        .                                                   :SERVICE COMPANY
DATE        .                             9/13/2023 11:19:17 AM :LOG DATE  
API         .                                    42605000160000 :API NUMBER
UWI         .                                    42605000160000 :UNIQUE WELL ID
XCOORD      .                                  1087579.10798688 :SURFACE X 
YCOORD      .                                  10638823.7542325 :SURFACE Y 
LAT         .                                         29.303831 :LATITUDE  
LON         .                                       -94.7349593 :LONGITUDE 
ELEV        .FT                                              15 :ELEVATION VALUE
ELEV_TYPE   .                                                KB :ELEVATION REFERENCE TYPE
~Curve Information Section
#MNEM       .UNIT                                      API CODE :CURVE DESCRIPTION
#------------------------------------------------------------------------------
DEPT        .FT                                                 :DEPTH     
ASN         .OHMM                                               :          
LAT         .OHMM                                               :          
LN          .OHMM                                               :          
SP          .MV                                                 :          
SP_NORM     .MV                                                 :SP Normalized
VSH_SP      .V/V                                                :Volume of Shale from SP
~A        DEPTH            ASN            LAT             LN             SP        SP_NORM         VSH_SP
# ...
      3990.0000         0.2781         0.4432         0.2124       -81.1506      -13.78004       0.644999
      3990.5000          0.282         0.4486           0.21        -81.821      -14.48581      0.6253942
      3991.0000         0.2799         0.4513         0.2076       -83.4777      -16.17788      0.5783923
      3991.5000         0.2771         0.4335         0.2052       -90.0803      -22.81585      0.3940042
      3992.0000         0.2742         0.4158         0.2015       -92.3151      -25.08602      0.3309439
      3992.5000         0.2713          0.398         0.1948       -92.8036      -25.60989      0.3163921
      3993.0000         0.2684         0.3803         0.1882       -92.5884      -25.43006      0.3213872
      3993.5000         0.2614         0.3649         0.1785       -91.6921      -24.56913       0.345302
      3994.0000         0.2527         0.3643         0.1627       -90.4365       -23.3489      0.3791972
      3994.5000          0.244         0.3637         0.1469        -89.182      -22.12977       0.413062
      3995.0000         0.2353         0.3631         0.1356       -87.9275      -20.91064      0.4469267
      3995.5000         0.2272         0.3625         0.1259       -87.1079      -20.12641      0.4687108
      3996.0000         0.2143         0.3619         0.1163       -86.3594      -19.41328      0.4885201
      3996.5000         0.1991         0.3595         0.1066       -85.6108      -18.70005       0.508332
      3997.0000         0.1849         0.3558         0.0969       -86.8063      -19.93092      0.4741412
      3997.5000          0.171         0.3522         0.0873       -88.7537      -21.91369      0.4190642
      3998.0000         0.1571         0.3485         0.0776       -91.1184      -24.31376      0.3523956
      3998.5000         0.1431         0.3449         0.0679       -93.2089      -26.43963      0.2933437
      3999.0000         0.1292         0.3413         0.0583       -93.9803       -27.2464      0.2709334
      3999.5000         0.1152         0.3365         0.0486       -92.7893      -26.09077      0.3030342
      4000.0000         0.1036         0.3098         0.0496       -91.4331      -24.76994       0.339724
      4000.5000         0.0939          0.283         0.0507       -90.0781      -23.45031      0.3763803
      4001.0000         0.0841         0.2563         0.0518       -88.5864      -21.99398      0.4168339
      4001.5000         0.0744         0.2296         0.0528        -87.073      -20.51595      0.4578904
      4002.0000         0.0646         0.2028         0.0539       -85.5256      -19.00391      0.4998913
      4002.5000         0.0549          0.182          0.055       -83.7826      -17.29629      0.5473254
      4003.0000         0.0461         0.1742          0.056       -81.8134      -15.36246      0.6010429
      4003.5000          0.043         0.1663         0.0571       -80.0552      -13.63963      0.6488993
      4004.0000         0.0399         0.1585         0.0582       -80.2097       -13.8295       0.643625
      4004.5000         0.0368         0.1506         0.0592       -80.8337      -14.48887      0.6253092
      4005.0000         0.0352         0.1589         0.0608       -81.4572      -15.14774      0.6070073
      4005.5000         0.0396         0.1677         0.0625       -81.3892       -15.1151      0.6079137
      4006.0000         0.0439         0.1766         0.0642       -79.2574      -13.01868      0.6661479
      4006.5000         0.0483         0.1854         0.0659       -76.4785      -10.27515       0.742357
      4007.0000         0.0527         0.1937         0.0676        -74.788      -8.620018      0.7883328
      4007.5000          0.057         0.1896         0.0693       -73.8645      -7.731888      0.8130031
      4008.0000         0.0634         0.1856          0.071        -74.035      -7.937759      0.8072845
      4008.5000         0.0738         0.1816         0.0727       -74.2057      -8.143829      0.8015603
      4009.0000         0.0843         0.1775         0.0744       -74.3761      -8.349594      0.7958446
      4009.5000         0.0947         0.1723         0.0761       -74.5514      -8.560265      0.7899926
      4010.0000         0.1052         0.1577         0.0776       -74.8097      -8.853935      0.7818351
      4010.5000         0.1191         0.1431          0.078       -75.3721      -9.451714      0.7652302
      4011.0000         0.1369         0.1285         0.0784       -76.2856      -10.40058      0.7388728
      4011.5000         0.1548         0.1139         0.0788       -77.1986      -11.34895      0.7125291
      4012.0000         0.1727         0.1115         0.0792       -77.9423      -12.12802      0.6908883
      4012.5000         0.2012          0.131         0.0795       -78.5941      -12.81519      0.6718002
      4013.0000         0.2266         0.1504         0.0799       -79.2465      -13.50296      0.6526955
      4013.5000         0.2519         0.1698         0.0803       -79.7643      -14.05613      0.6373298
      4014.0000         0.2773         0.1892         0.0807       -79.8761       -14.2033      0.6332417
      4014.5000         0.2926         0.2086         0.0801       -79.3754      -13.73797      0.6461675
      4015.0000         0.3057         0.2281          0.079       -78.1744      -12.57234      0.6785461
      4015.5000         0.3188         0.2476         0.0779       -76.9735      -11.40681      0.7109218
      4016.0000         0.3318         0.2671         0.0768       -76.0818      -10.55048      0.7347088
      4016.5000         0.3449         0.2866         0.0757       -76.5145      -11.01855      0.7217068
      4017.0000         0.3424         0.3061         0.0746       -76.9475      -11.48692      0.7086966
      4017.5000         0.3395         0.3256         0.0735       -77.3844      -11.95919       0.695578
      4018.0000         0.3322         0.3213         0.0724       -79.8694      -14.47956      0.6255677
      4018.5000          0.322         0.3164         0.0713       -82.3544      -16.99993      0.5555575
      4019.0000         0.3119         0.3115         0.0721       -83.8951        -18.576      0.5117776
      4019.5000         0.3017         0.3067         0.0794       -85.3584      -20.07467      0.4701481
      4020.0000         0.2915         0.3018         0.0867       -86.5905      -21.34214      0.4349405
      4020.5000         0.2814          0.297          0.094       -87.7177      -22.50471       0.402647
      4021.0000         0.2712         0.2911         0.1013       -88.5807      -23.40308      0.3776921
      4021.5000          0.261         0.2708         0.1086       -89.1405      -23.99825      0.3611597
      4022.0000         0.2544         0.2506         0.1159       -89.7003      -24.59342      0.3446272
      4022.5000         0.2485         0.2303         0.1218         -90.26      -25.18849      0.3280975
      4023.0000         0.2426           0.21         0.1193       -90.8201      -25.78396      0.3115567
      4023.5000         0.2367         0.1898         0.1169         -91.26      -26.25923      0.2983547
      4024.0000         0.2308         0.1807         0.1144       -91.3802       -26.4148      0.2940333
      4024.5000          0.225         0.1727          0.112       -91.5005      -26.57047      0.2897091
      4025.0000         0.2191         0.1644         0.1081       -91.1146      -26.21994      0.2994461
      4025.5000          0.213         0.1555         0.0991       -90.2256      -25.36631      0.3231581
      4026.0000         0.2052         0.1466         0.0901       -89.3361      -24.51218       0.346884
      4026.5000         0.1974         0.1377         0.0811       -88.4471      -23.65855      0.3705959
      4027.0000         0.1896         0.1288         0.0721       -87.7955      -23.04232      0.3877133
      4027.5000         0.1818         0.1199         0.0631       -87.2885      -22.57069      0.4008143
