#------------------------------------------------------------------------------
# Created by    : vladimir.rabinovich
# Created on    : 09/19/2023 17:20:26
#------------------------------------------------------------------------------
~Version Information Section
VERS.           2.0     :   CWLS log ASCII Standard - VERSION 2.0
WRAP.           NO      :   One line per depth step
~Well Information Section
#MNEM       .UNIT                                         VALUE :DESCRIPTION
#------------------------------------------------------------------------------
STRT        .FT                                             500 :START DEPTH
STOP        .FT                                            8974 :STOP DEPTH
STEP        .FT                                             0.5 :STEP      
NULL        .                                           -999.25 :NULL      
COMP        .                                    G M A OFFSHORE :COMPANY   
WELL        .                                     ST TR 00112-S :WELL      
FLD         .                                           WILDCAT :FIELD     
LOC         .                                                   :LOCATION  
CNTY        .                           HIGH ISLAND SMALL BLOCK :LOCATION  
STAT        .                                             TEXAS :STATE     
CTRY        .                                     UNITED STATES :COUNTRY   
SRVC        .                                                   :SERVICE COMPANY
DATE        .                             9/13/2023 11:19:17 AM :LOG DATE  
API         .                                    42606300040000 :API NUMBER
UWI         .                                    42606300040000 :UNIQUE WELL ID
XCOORD      .                                   1218436.6654802 :SURFACE X 
YCOORD      .                                  10720928.6649768 :SURFACE Y 
LAT         .                                        29.5343489 :LATITUDE  
LON         .                                        -94.327329 :LONGITUDE 
ELEV        .FT                                              63 :ELEVATION VALUE
ELEV_TYPE   .                                                KB :ELEVATION REFERENCE TYPE
~Curve Information Section
#MNEM       .UNIT                                      API CODE :CURVE DESCRIPTION
#------------------------------------------------------------------------------
DEPT        .FT                                                 :DEPTH     
ASN         .OHMM                                               :          
CILD        .MMHO                                               :          
GR          .GAPI                                               :          
GR_NORM     .GAPI                                               :GammaRay Normalized
ILD         .OHMM                                               :          
SP          .MV                                                 :          
SP_NORM     .MV                                                 :SP Normalized
VSH_GR      .V/V                                                :Volume of Shale from GR
VSH_SP      .V/V                                                :Volume of Shale from SP
~A        DEPTH            ASN           CILD             GR        GR_NORM            ILD             SP        SP_NORM         VSH_GR         VSH_SP
       500.0000         0.0076              0         20.268       56.54291         1.2605       -62.4465        -999.25       0.500913        -999.25
       500.5000         0.0073              0        30.1927       70.19926         1.2733        -62.058        -999.25      0.7914736        -999.25
       501.0000         0.0071              0        32.4593       73.31808          1.286       -62.2886        -999.25      0.8578316        -999.25
       501.5000         0.0069         46.377        33.9584       75.38085         1.2988       -62.5193        -999.25      0.9017202        -999.25
       502.0000         0.0066       146.8564        34.6066       76.27278         1.3116       -62.6913        -999.25      0.9206975        -999.25
       502.5000         0.0064       350.2959        35.1287       76.99119         1.3243       -62.7023        -999.25      0.9359827        -999.25
       503.0000         0.0062       405.0767        35.6509       76.93022         1.3348       -62.7133        -999.25      0.9346856        -999.25
       503.5000         0.0059       486.4922        36.2338       76.69921         1.3442       -62.7243        -999.25      0.9297705        -999.25
       504.0000         0.0057       575.8096        36.8472       76.51018         1.3537       -62.8347        -999.25      0.9257485        -999.25
       504.5000         0.0055       641.5254        37.4606       76.32113         1.3631       -63.1963        -999.25      0.9217262        -999.25
       505.0000         0.0052       723.3193        38.3652       76.53278         1.3726       -63.5579        -999.25      0.9262293        -999.25
       505.5000          0.005       805.1143        37.3905       74.15852         1.3812       -63.9195        -999.25      0.8757131        -999.25
       506.0000         0.0048       886.9082        35.7195       70.82616         1.3897       -64.2811        -999.25      0.8048118        -999.25
       506.5000         0.0045       968.7021        33.8703       67.24857         1.3983       -64.6118        -999.25      0.7286929        -999.25
       507.0000         0.0043       1050.496        32.5286       64.36932         1.4069       -64.9144        -999.25      0.6674324        -999.25
       507.5000         0.0043       1132.289        34.4728       66.01146         1.4146       -65.2172        -999.25      0.7023715        -999.25
       508.0000         0.0043       1184.658        36.4171       67.65374           1.42       -65.5004        -999.25      0.7373136        -999.25
       508.5000         0.0043       1296.033        38.8359       69.94891         1.4254       -65.7471        -999.25      0.7861469        -999.25
       509.0000         0.0043       1375.053        41.4626       72.53016         1.4308        -65.691        -999.25      0.8410672        -999.25
       509.5000         0.0043       1442.779        44.2408       75.31985         1.4362       -65.3969        -999.25      0.9004225        -999.25
       510.0000         0.0043       1526.592        45.3943       75.87399         1.4415       -65.1027        -999.25      0.9122124        -999.25
       510.5000         0.0044       1584.076         46.208       75.96057         1.4451       -64.8083        -999.25      0.9140547        -999.25
       511.0000         0.0047       1625.629         46.997       76.01315         1.4485       -64.5143        -999.25      0.9151733        -999.25
       511.5000         0.0049       1642.424        47.5449       75.73399          1.452       -64.2769        -999.25      0.9092339        -999.25
       512.0000         0.0052       1280.178        47.3371        73.4779         1.4555       -64.0416        -999.25      0.8612319        -999.25
       512.5000         0.0058        1212.51        48.2453       71.32446         1.4597       -63.8065        -999.25      0.8154141        -999.25
       513.0000         0.0065       1163.178        51.7414       72.73201         1.4659       -63.5714        -999.25      0.8453619        -999.25
       513.5000         0.0087       1093.668        61.5341       82.80366         1.4722       -63.4339        -999.25              1        -999.25
       514.0000         0.0122       1044.617        65.2159        84.4667         1.4784       -63.3712        -999.25              1        -999.25
       514.5000         0.0177        956.082        68.2545       85.24472         1.4877       -63.3085        -999.25              1        -999.25
       515.0000         0.0238       804.3379        70.7019       85.20926         1.5032       -63.2457        -999.25              1        -999.25
       515.5000         0.0306       652.5938        72.2035       86.67705         1.6206       -63.1734        -999.25              1        -999.25
       516.0000         0.0375       572.4141        72.9186       87.60258         1.8668       -63.0577        -999.25              1        -999.25
       516.5000         0.0451       460.1089        73.6024       88.48504         2.4782        -62.942        -999.25              1        -999.25
       517.0000         0.0537       395.6157        73.5912       88.41118          2.872       -62.9667        -999.25              1        -999.25
       517.5000         0.0578       349.4453        73.4133       88.10793         3.1016       -63.0294        -999.25              1        -999.25
       518.0000         0.0594       340.3335        73.2356       87.80498          3.079       -63.1199        -999.25              1        -999.25
       518.5000         0.0611       358.6812         73.507       88.11996         2.9098       -63.3218        -999.25              1        -999.25
       519.0000         0.0627       377.0298        74.2333       89.06091         2.8207       -63.5237        -999.25              1        -999.25
       519.5000         0.0642       392.3799        75.4592       90.68928         2.8499       -63.7255        -999.25              1        -999.25
       520.0000         0.0657       376.2397        76.6853       92.31795         2.9839       -63.9274        -999.25              1        -999.25
       520.5000         0.0671       358.3145        77.8984       93.92871         3.1178       -64.1154        -999.25              1        -999.25
       521.0000         0.0685       339.2256        79.2725       95.76102         3.2518       -64.3004        -999.25              1        -999.25
       521.5000           0.07       317.7544        78.7285       94.95404         3.5581       -64.1985        -999.25              1        -999.25
       522.0000         0.0721       296.9941        78.1144       94.05059          3.599       -63.7344        -999.25              1        -999.25
       522.5000         0.0747       288.5723        77.5007       93.14769         3.6093       -63.2704        -999.25              1        -999.25
       523.0000         0.0772       294.8047        76.9758       92.36697         3.5815       -62.5167        -999.25              1        -999.25
       523.5000         0.0807        299.918         77.536       93.07936         3.5738       -61.3907        -999.25              1        -999.25
       524.0000         0.0852       298.0933        78.3422       94.13023         3.6158       -60.2565        -999.25              1        -999.25
       524.5000         0.0924       296.2686        79.4324       95.57189         3.6578       -59.1113        -999.25              1        -999.25
       525.0000         0.1051        287.687        80.1323       96.47651         3.6999       -57.7739        -999.25              1        -999.25
       525.5000         0.1216       278.8018        79.5638       95.63579         3.7616        -56.147        -999.25              1        -999.25
       526.0000         0.1412       274.9312        78.6301       94.29258         3.8389       -54.3232        -999.25              1        -999.25
