#------------------------------------------------------------------------------
# Created by    : vladimir.rabinovich
# Created on    : 09/19/2023 17:20:26
#------------------------------------------------------------------------------
~Version Information Section
VERS.           2.0     :   CWLS log ASCII Standard - VERSION 2.0
WRAP.           NO      :   One line per depth step
~Well Information Section
#MNEM       .UNIT                                         VALUE :DESCRIPTION
#------------------------------------------------------------------------------
STRT        .FT                                             500 :START DEPTH
STOP        .FT                                            8974 :STOP DEPTH
STEP        .FT                                             0.5 :STEP      
NULL        .                                           -999.25 :NULL      
COMP        .                                    G M A OFFSHORE :COMPANY   
WELL        .                                     ST TR 00112-S :WELL      
FLD         .                                           WILDCAT :FIELD     
LOC         .                                                   :LOCATION  
CNTY        .                           HIGH ISLAND SMALL BLOCK :LOCATION  
STAT        .                                             TEXAS :STATE     
CTRY        .                                     UNITED STATES :COUNTRY   
SRVC        .                                                   :SERVICE COMPANY
DATE        .                             9/13/2023 11:19:17 AM :LOG DATE  
API         .                                    42606300040000 :API NUMBER
UWI         .                                    42606300040000 :UNIQUE WELL ID
XCOORD      .                                   1218436.6654802 :SURFACE X 
YCOORD      .                                  10720928.6649768 :SURFACE Y 
LAT         .                                        29.5343489 :LATITUDE  
LON         .                                        -94.327329 :LONGITUDE 
ELEV        .FT                                              63 :ELEVATION VALUE
ELEV_TYPE   .                                                KB :ELEVATION REFERENCE TYPE
~Curve Information Section
#MNEM       .UNIT                                      API CODE :CURVE DESCRIPTION
#------------------------------------------------------------------------------
DEPT        .FT                                                 :DEPTH     
ASN         .OHMM                                               :          
CILD        .MMHO                                               :          
GR          .GAPI                                               :          
GR_NORM     .GAPI                                               :GammaRay Normalized
ILD         .OHMM                                               :          
SP          .MV                                                 :          
SP_NORM     .MV                                                 :SP Normalized
VSH_GR      .V/V                                                :Volume of Shale from GR
VSH_SP      .V/V                                                :Volume of Shale from SP
~A        DEPTH            ASN           CILD             GR        GR_NORM            ILD             SP        SP_NORM         VSH_GR         VSH_SP
# ...
      1639.5000         0.2178       1241.789        61.0344        76.9358         0.9816       -45.2535        -999.25      0.9348042        -999.25
      1640.0000          0.215       1251.141        58.7186       73.74927         0.9803       -45.2385        -999.25      0.8670057        -999.25
      1640.5000         0.2123       1266.738        56.3129       70.43903         0.9804       -45.2183        -999.25       0.796575        -999.25
      1641.0000         0.2095       1282.984         54.015       67.27714         0.9804       -45.1982        -999.25      0.7293008        -999.25
      1641.5000         0.2068       1294.801         54.014       67.27576         0.9804        -45.178        -999.25      0.7292714        -999.25
      1642.0000         0.2057       1302.555          54.97        68.5912         0.9804        -45.158        -999.25      0.7572596        -999.25
      1642.5000         0.2057        1286.82        56.0123       70.02541         1.0052       -45.1378        -999.25      0.7877746        -999.25
      1643.0000         0.2057         1255.1        56.8278       71.14752         1.0358       -45.1177        -999.25      0.8116494        -999.25
      1643.5000         0.2057       1223.389        56.3773       70.52765         1.0664       -45.0975        -999.25      0.7984606        -999.25
      1644.0000         0.2065       1184.318        55.9269        69.9079          1.097       -45.0775        -999.25      0.7852744        -999.25
      1644.5000         0.2085       1139.348        55.4766       69.28828         1.1276       -45.0573        -999.25      0.7720912        -999.25
      1645.0000         0.2105       1089.375        55.0262       68.66853         1.1642       -45.0886        -999.25       0.758905        -999.25
      1645.5000         0.2125        1008.19        54.0434        67.3162         1.2309       -45.1319        -999.25      0.7301319        -999.25
      1646.0000         0.2145       944.0635         50.994       63.12025         1.2977       -45.1752        -999.25      0.6408565        -999.25
      1646.5000         0.2165       909.3496        47.9326       58.90778         1.3644       -45.2184        -999.25      0.5512294        -999.25
      1647.0000         0.2185       874.9209        44.8675       54.69021         1.4311       -45.2617        -999.25      0.4614938        -999.25
      1647.5000         0.2205       840.5049        47.1938       57.89119         1.4978       -45.3129        -999.25      0.5295998        -999.25
      1648.0000         0.2225       806.0762        50.0105       61.76695         1.5611        -45.397        -999.25      0.6120628        -999.25
      1648.5000         0.2209       771.6475        53.0734       65.98148         1.5917       -45.4811        -999.25      0.7017335        -999.25
      1649.0000         0.2192       737.2187        56.0786       70.11662         1.6222       -45.5652        -999.25      0.7897154        -999.25
      1649.5000         0.2174         702.79        58.6041       73.59171          1.647       -45.6492        -999.25      0.8636533        -999.25
      1650.0000         0.2158       668.3623        59.8559       75.31418         1.5967       -45.7333        -999.25      0.9003017        -999.25
      1650.5000         0.2143       680.7158        57.2886       71.78159         1.5464       -45.8174        -999.25      0.8251403        -999.25
      1651.0000         0.2128       710.7861        57.1523       71.59404         1.4961       -45.9269        -999.25      0.8211498        -999.25
      1651.5000         0.2112       745.2021        57.7341        72.3946         1.4457        -46.037        -999.25       0.838183        -999.25
      1652.0000         0.2097       774.8633        55.7762       69.70052         1.4006       -46.1472        -999.25      0.7808622        -999.25
      1652.5000         0.2081       799.7939        53.5734       66.66949         1.3682       -46.2572        -999.25      0.7163721        -999.25
      1653.0000         0.2066       824.7305        51.4667       63.77069         1.3357       -46.3014        -999.25      0.6546956        -999.25
      1653.5000          0.205       832.0244        50.1373       61.94143         1.3422       -46.3434        -999.25       0.615775        -999.25
      1654.0000         0.2035       819.9443         48.808       60.11232         1.3658       -46.3855        -999.25      0.5768579        -999.25
      1654.5000         0.2018       807.8672        47.3619       58.12249         1.3894       -46.4276        -999.25       0.534521        -999.25
      1655.0000            0.2         795.79        48.3252       59.44798         1.4129       -46.4422        -999.25       0.562723        -999.25
      1655.5000         0.1982       803.9658        49.2886       60.77362         1.4211       -46.3075        -999.25      0.5909281        -999.25
      1656.0000         0.1965       849.3945        50.2519       62.09911         1.3866       -46.1729        -999.25      0.6191301        -999.25
      1656.5000         0.1947        911.125        51.1927       63.39367         1.3188       -46.0381        -999.25      0.6466737        -999.25
      1657.0000         0.1929       976.5049        51.7444       64.15279          1.246       -45.9035        -999.25      0.6628252        -999.25
      1657.5000         0.1912        1092.07        50.5446       62.50188         1.1731       -45.8095        -999.25      0.6276996        -999.25
      1658.0000         0.1894       1219.006        48.0411       59.05707         1.1003       -45.9694        -999.25      0.5544058        -999.25
      1658.5000          0.187       1345.943        45.3705       55.38233         1.0274       -46.1293        -999.25      0.4762198        -999.25
      1659.0000         0.1831       1522.693        42.4363       51.34488         0.9679       -46.2892        -999.25      0.3903167        -999.25
      1659.5000         0.1793       1648.066        39.2365       46.94197         0.9382       -46.4048        -999.25      0.2966377        -999.25
      1660.0000         0.1754       1690.516        37.3121       44.29401         0.9084       -46.2198        -999.25      0.2402981        -999.25
      1660.5000         0.1716       1733.672        36.2316       42.80724         0.8787       -46.0349        -999.25      0.2086647        -999.25
      1661.0000         0.1666       1780.789        37.2219        44.1699          0.849       -45.8483        -999.25      0.2376574        -999.25
      1661.5000         0.1605       1804.391        38.6998       46.20347         0.8193         -45.65        -999.25      0.2809249        -999.25
      1662.0000         0.1635       1773.818        40.1777       48.23706         0.8251       -45.4517        -999.25      0.3241927        -999.25
      1662.5000         0.1665       1671.035        41.6557       50.27079         0.8342       -45.2535        -999.25      0.3674635        -999.25
      1663.0000         0.1695       1574.664          43.47       52.76725         0.8433       -45.0552        -999.25      0.4205799        -999.25
      1663.5000         0.1725       1436.951        45.3286       55.32468         0.8524       -44.8571        -999.25      0.4749931        -999.25
      1664.0000         0.1756       1369.881        47.3376       58.08905          0.882       -45.0056        -999.25      0.5338096        -999.25
      1664.5000         0.1786       1319.635        49.5225       61.09547         0.9323       -45.3051        -999.25       0.597776        -999.25
      1665.0000         0.1816       1284.984        51.0411       63.18505         0.9827       -45.6045        -999.25      0.6422351        -999.25
      1665.5000         0.1847       1255.359        50.9921       63.11763          1.033        -45.904        -999.25      0.6408007        -999.25
