#------------------------------------------------------------------------------
# Created by    : vladimir.rabinovich
# Created on    : 09/19/2023 17:20:26
#------------------------------------------------------------------------------
~Version Information Section
VERS.           2.0     :   CWLS log ASCII Standard - VERSION 2.0
WRAP.           NO      :   One line per depth step
~Well Information Section
#MNEM       .UNIT                                         VALUE :DESCRIPTION
#------------------------------------------------------------------------------
STRT        .FT                                             344 :START DEPTH
STOP        .FT                                           10034 :STOP DEPTH
STEP        .FT                                             0.5 :STEP      
NULL        .                                           -999.25 :NULL      
COMP        .                                        TEXACO USA :COMPANY   
WELL        .                                     ST TR 00136-S :WELL      
FLD         .                                           WILDCAT :FIELD     
LOC         .                                                   :LOCATION  
CNTY        .                           HIGH ISLAND SMALL BLOCK :LOCATION  
STAT        .                                             TEXAS :STATE     
CTRY        .                                     UNITED STATES :COUNTRY   
SRVC        .                                                   :SERVICE COMPANY
DATE        .                             9/13/2023 11:19:17 AM :LOG DATE  
API         .                                    42606000310000 :API NUMBER
UWI         .                                    42606000310000 :UNIQUE WELL ID
XCOORD      .                                  1183554.44061246 :SURFACE X 
YCOORD      .                                  10706170.1937531 :SURFACE Y 
LAT         .                                          29.49262 :LATITUDE  
LON         .                                       -94.4364494 :LONGITUDE 
ELEV        .FT                                              52 :ELEVATION VALUE
ELEV_TYPE   .                                                KB :ELEVATION REFERENCE TYPE
~Curve Information Section
#MNEM       .UNIT                                      API CODE :CURVE DESCRIPTION
#------------------------------------------------------------------------------
DEPT        .FT                                                 :DEPTH     
ASN         .OHMM                                               :          
CILD        .MMHO                                               :          
LAT         .OHMM                                               :          
LN          .OHMM                                               :          
SP          .MV                                                 :          
SP_NORM     .MV                                                 :SP Normalized
VSH_SP      .V/V                                                :Volume of Shale from SP
~A        DEPTH            ASN           CILD            LAT             LN             SP        SP_NORM         VSH_SP
# ...
      2287.0000          0.948        -999.25         0.5156         0.5103       -81.4098      -22.85064      0.4922081
      2287.5000         0.9638        -999.25         0.5094         0.5087       -79.1052      -20.54008      0.5435537
      2288.0000         0.9739        -999.25         0.5032         0.5072       -76.7659      -18.19483      0.5956705
      2288.5000         0.9811        -999.25          0.497         0.5056       -73.8531      -15.27608      0.6605316
      2289.0000          0.804        -999.25         0.5021          0.507       -70.9393      -12.35632      0.7254151
      2289.5000         0.7447        -999.25         0.5078         0.5092       -68.1772      -9.588264      0.7869275
      2290.0000         0.7265        -999.25         0.5135         0.5113       -65.5748      -6.979908       0.844891
      2290.5000         0.7155        -999.25         0.5192         0.5134       -63.0725      -4.471657      0.9006299
      2291.0000         0.7117        -999.25         0.5248         0.5155       -61.4261      -2.819305      0.9373488
      2291.5000         0.7104        -999.25         0.5305         0.5177       -60.9888      -2.376049      0.9471989
      2292.0000         0.7162        -999.25         0.5362         0.5198       -61.0629      -2.444195      0.9456846
      2292.5000         0.7219        -999.25         0.5417         0.5217       -61.5914       -2.96674      0.9340724
      2293.0000         0.7277        -999.25         0.5463         0.5219       -62.1889      -3.558285       0.920927
      2293.5000         0.7335        -999.25          0.551         0.5222       -62.7864       -4.14983      0.9077815
      2294.0000         0.7395        -999.25         0.5557         0.5224       -63.3842      -4.741676      0.8946294
      2294.5000         0.7464        -999.25         0.5603         0.5227       -63.6259      -4.977421      0.8893906
      2295.0000         0.7533        -999.25          0.565         0.5229       -63.5933      -4.938866      0.8902474
      2295.5000         0.7601        -999.25         0.5697         0.5242       -63.5607      -4.900311      0.8911042
      2296.0000         0.7671        -999.25         0.5793         0.5261       -63.5281      -4.861755       0.891961
      2296.5000         0.7816        -999.25         0.5895          0.528       -63.4955        -4.8232      0.8928178
      2297.0000         0.7961        -999.25         0.5997         0.5298       -63.4623      -4.784046      0.8936878
      2297.5000         0.8106        -999.25         0.6099         0.5298       -63.4286      -4.744392       0.894569
      2298.0000         0.8325        -999.25           0.62         0.5219       -63.3948      -4.704636      0.8954526
      2298.5000         0.8793        -999.25         0.6312          0.514        -63.361      -4.665695      0.8963179
      2299.0000         0.9416        -999.25         0.6461         0.5041       -63.3273      -4.636452      0.8969678
      2299.5000         1.0027        -999.25          0.661         0.4925       -63.7133      -5.026901      0.8882911
      2300.0000         1.0378        -999.25         0.6759         0.4818       -64.3925       -5.71056      0.8730987
      2300.5000         1.0572        -999.25         0.6908         0.4776       -66.8541      -8.176613      0.8182975
      2301.0000         1.0751        -999.25         0.7025         0.4734        -70.121      -11.44797      0.7456007
      2301.5000         1.0829        -999.25          0.709         0.4693       -73.5159      -14.84732      0.6700596
      2302.0000         1.0366        -999.25         0.7121         0.4729       -77.0052      -18.34108      0.5924205
      2302.5000         0.9356        -999.25         0.6989         0.4786       -80.4958      -21.83612      0.5147528
      2303.0000         0.8678        -999.25         0.6545         0.4845       -83.1353      -24.48008      0.4559982
      2303.5000         0.7902        -999.25         0.5844         0.4923       -85.2139      -26.56313      0.4097081
      2304.0000         0.6918        -999.25         0.5143         0.5001       -87.0811      -28.43479      0.3681158
      2304.5000         0.5496        -999.25         0.4442         0.5111       -88.7848      -30.14294      0.3301569
      2305.0000         0.5148        -999.25         0.3862         0.5291       -90.2704        -31.633      0.2970445
      2305.5000         0.5058        -999.25         0.3283          0.543       -91.0845      -32.45155      0.2788544
      2306.0000         0.5033        -999.25         0.2705         0.5471       -91.5118       -32.8833      0.2692599
      2306.5000         0.5512        -999.25         0.2677         0.5423         -90.86      -32.23596      0.2836454
      2307.0000         0.6116        -999.25         0.2942         0.5277       -89.4441      -30.82451      0.3150108
      2307.5000         0.7578        -999.25         0.3206          0.522       -85.2397      -26.62457       0.408343
      2308.0000         0.8162        -999.25         0.3516         0.5163       -82.6665      -24.05582      0.4654263
      2308.5000         0.8759        -999.25         0.3849         0.5105       -80.8409      -22.23467      0.5058963
      2309.0000         0.9419        -999.25         0.4182         0.5048       -79.8098      -21.20803      0.5287105
      2309.5000         1.0084        -999.25         0.4515         0.4991       -79.0917      -20.49438      0.5445694
      2310.0000         1.0769        -999.25         0.4847         0.4934       -78.7213      -20.12843      0.5527015
      2310.5000         1.2126        -999.25         0.4879         0.4876       -78.6725      -20.08409      0.5536869
      2311.0000          1.244        -999.25         0.4802         0.4948       -78.6237      -20.03975      0.5546723
      2311.5000         1.1929        -999.25         0.4725         0.5069       -78.6104       -20.0309       0.554869
      2312.0000         1.1498        -999.25         0.4649         0.5189       -78.6125      -20.03745      0.5547233
      2312.5000         1.1112        -999.25         0.4572         0.5309       -78.6147      -20.04411      0.5545754
      2313.0000         1.0765        -999.25         0.4495         0.5429       -78.6168      -20.05066      0.5544299
      2313.5000         1.0486        -999.25         0.4429         0.5535       -78.7947      -20.23301      0.5503775
      2314.0000         1.0563        -999.25         0.4397           0.56       -79.0632      -20.50597      0.5443118
      2314.5000         1.1002        -999.25         0.4364         0.5665       -79.3317      -20.77892      0.5382462
      2315.0000         1.1471        -999.25         0.4332          0.573       -79.8916      -21.34328       0.525705
      2315.5000          1.194        -999.25         0.4299         0.5796       -80.8561      -22.31223      0.5041727
      2316.0000         1.2224        -999.25         0.4267         0.5861       -81.8206      -23.28119      0.4826403
      2316.5000         1.2333        -999.25         0.4234         0.5853       -82.7852      -24.25024      0.4611059
      2317.0000         1.2108        -999.25         0.4201          0.579       -83.6598      -25.12929      0.4415714
      2317.5000         1.1925        -999.25         0.4169         0.5728       -84.4551      -25.92905       0.423799
      2318.0000         1.1788        -999.25         0.4203         0.5665       -85.2504      -26.72879      0.4060268
      2318.5000         1.1652        -999.25         0.4283         0.5602       -85.9045      -27.38736      0.3913921
      2319.0000         1.1516        -999.25         0.4364          0.554       -86.1685      -27.65581      0.3854265
      2319.5000         1.1746        -999.25         0.4444         0.5477       -86.4324      -27.92416       0.379463
      2320.0000         1.2162        -999.25         0.4525         0.5424        -86.696      -28.19221      0.3735064
