#------------------------------------------------------------------------------
# Created by    : vladimir.rabinovich
# Created on    : 09/19/2023 17:20:27
#------------------------------------------------------------------------------
~Version Information Section
VERS.           2.0     :   CWLS log ASCII Standard - VERSION 2.0
WRAP.           NO      :   One line per depth step
~Well Information Section
#MNEM       .UNIT                                         VALUE :DESCRIPTION
#------------------------------------------------------------------------------
STRT        .FT                                             304 :START DEPTH
STOP        .FT                                            9519 :STOP DEPTH
STEP        .FT                                             0.5 :STEP      
NULL        .                                           -999.25 :NULL      
COMP        .                                        TEXACO INC :COMPANY   
WELL        .                                     ST TR 00216-S :WELL      
FLD         .                                           WILDCAT :FIELD     
LOC         .                                                   :LOCATION  
CNTY        .                             GALVESTON SMALL BLOCK :LOCATION  
STAT        .                                             TEXAS :STATE     
CTRY        .                                     UNITED STATES :COUNTRY   
SRVC        .                                                   :SERVICE COMPANY
DATE        .                             9/13/2023 11:19:17 AM :LOG DATE  
API         .                                    42605000160000 :API NUMBER
UWI         .                                    42605000160000 :UNIQUE WELL ID
XCOORD      .                                  1087579.10798688 :SURFACE X 
YCOORD      .                                  10638823.7542325 :SURFACE Y 
LAT         .                                         29.303831 :LATITUDE  
LON         .                                       -94.7349593 :LONGITUDE 
ELEV        .FT                                              15 :ELEVATION VALUE
ELEV_TYPE   .                                                KB :ELEVATION REFERENCE TYPE
~Curve Information Section
#MNEM       .UNIT                                      API CODE :CURVE DESCRIPTION
#------------------------------------------------------------------------------
DEPT        .FT                                                 :DEPTH     
ASN         .OHMM                                               :          
LAT         .OHMM                                               :          
LN          .OHMM                                               :          
SP          .MV                                                 :          
SP_NORM     .MV                                                 :SP Normalized
VSH_SP      .V/V                                                :Volume of Shale from SP
~A        DEPTH            ASN            LAT             LN             SP        SP_NORM         VSH_SP
# ...
      3382.0000          0.278         0.4987         0.3047       -63.6187      -2.516647      0.9477018
      3382.5000         0.2748         0.5092         0.2925       -63.9949      -2.852306      0.9361274
      3383.0000         0.2649         0.5249         0.2803       -64.3707      -3.187557       0.924567
      3383.5000          0.255         0.5442         0.2681       -64.7306      -3.506916      0.9135546
      3384.0000         0.2451         0.5634         0.2559       -65.0775      -3.813274      0.9029905
      3384.5000         0.2352         0.5827         0.2437       -65.4244      -4.119629      0.8924266
      3385.0000         0.2243         0.6019         0.2315       -66.3124      -4.967087      0.8632039
      3385.5000         0.2104         0.6212         0.2026       -70.0038      -8.617943      0.7373123
      3386.0000         0.1965         0.6346         0.1704       -73.9247      -12.49829      0.6035071
      3386.5000         0.1826          0.645         0.1421       -75.9332      -14.46625      0.5356465
      3387.0000         0.1689         0.6554         0.1256       -77.7975      -16.29001      0.4727582
      3387.5000         0.1607         0.6658         0.1091       -79.5328      -17.98476      0.4143185
      3388.0000         0.1525         0.6435         0.0925        -82.833      -21.24442      0.3019165
      3388.5000         0.1443         0.5893         0.0768       -84.6152      -22.98608      0.2418594
      3389.0000         0.1362         0.5351         0.0697       -84.3722      -22.70253      0.2516368
      3389.5000         0.1288         0.4809         0.0626       -83.9375      -22.22729      0.2680244
      3390.0000         0.1226         0.4263         0.0554       -83.4902      -21.73944      0.2848467
      3390.5000         0.1163         0.3686         0.0483       -82.9633        -21.172      0.3044136
      3391.0000           0.11         0.3108         0.0412       -82.4363      -20.60446      0.3239841
      3391.5000         0.1047          0.253          0.034       -81.9093      -20.03692      0.3435545
      3392.0000         0.1005         0.2392         0.0269       -81.5822      -19.66927      0.3562321
      3392.5000         0.0964         0.2443         0.0198       -81.5773      -19.62383       0.357799
      3393.0000         0.0967         0.2494          0.021       -80.9097      -18.91568      0.3822178
      3393.5000         0.1015         0.2545         0.0278       -79.2476      -17.21304      0.4409298
      3394.0000         0.1081          0.262         0.0347       -77.7117       -15.6366      0.4952898
      3394.5000         0.1248         0.2741         0.0415       -76.5566      -14.44096      0.5365188
      3395.0000         0.1415         0.2862         0.0484       -75.4015       -13.2453      0.5777481
      3395.5000         0.1582         0.2983         0.0552       -74.0831      -11.88636      0.6246082
      3396.0000         0.1756         0.3105         0.0621       -74.8961      -12.65882      0.5979716
      3396.5000         0.1947         0.3226          0.069       -75.2847      -13.00687      0.5859699
      3397.0000         0.2138         0.3347         0.0758       -75.4764      -13.15804      0.5807574
      3397.5000          0.233         0.3468         0.0827       -75.0918      -12.73289      0.5954177
      3398.0000         0.2492         0.3516         0.0895       -78.1166      -15.71714      0.4925123
      3398.5000         0.2637         0.3519         0.0914       -81.1217       -18.6817      0.3902863
      3399.0000         0.2533         0.3522          0.093       -83.9454      -21.46486      0.2943153
      3399.5000         0.2393         0.3524         0.0947       -87.3527      -24.83161      0.1782203
      3400.0000         0.2252         0.3527         0.0963       -91.5282      -28.96657     0.03563559
      3400.5000         0.2141         0.3308          0.098       -92.4243      -29.82213    0.006133507
      3401.0000          0.205         0.3007         0.1051       -93.3198      -30.67708              0
      3401.5000         0.1958         0.2706         0.1134       -93.8517      -31.16844              0
      3402.0000         0.1867         0.2406         0.1217       -93.9525      -31.22869              0
      3402.5000         0.1935         0.2172           0.13       -94.0532      -31.28885              0
      3403.0000         0.2043         0.2063         0.1383        -94.075       -31.2701              0
      3403.5000          0.215         0.1955         0.1466       -93.3176      -30.47216              0
      3404.0000         0.2258         0.1846         0.1433       -92.5603      -29.67432     0.01123034
      3404.5000         0.2365         0.1738         0.1348        -91.803      -28.87648      0.0387422
      3405.0000          0.246         0.1909         0.1263       -90.9719      -28.00483     0.06879885
      3405.5000          0.255         0.2081         0.1178       -89.8383      -26.83069      0.1092866
      3406.0000         0.2639         0.2253         0.1093       -88.7045      -25.65634      0.1497813
      3406.5000         0.2634         0.2425         0.1057       -87.6852       -24.5965      0.1863274
      3407.0000         0.2552         0.2597         0.1025       -87.6548      -24.52555       0.188774
      3407.5000         0.2471         0.2575         0.0993       -87.6244      -24.45461      0.1912204
      3408.0000         0.2389         0.2366         0.0961       -87.7969      -24.58656      0.1866702
      3408.5000         0.2308         0.2158         0.0929       -88.1453      -24.89442      0.1760543
      3409.0000          0.224          0.195         0.0897       -88.4935      -25.20208      0.1654455
      3409.5000         0.2173         0.1699         0.0985       -88.8419      -25.50994      0.1548298
      3410.0000         0.2106         0.1411         0.1077       -89.1902      -25.81769      0.1442175
      3410.5000         0.2039         0.1123         0.1168       -89.5386      -26.12555      0.1336019
      3411.0000         0.1972         0.0836          0.126       -89.3292       -25.8756      0.1422206
      3411.5000         0.1932         0.0548         0.1351       -88.9487      -25.45456      0.1567393
      3412.0000          0.191         0.0832         0.1394       -88.5681      -25.03342      0.1712615
      3412.5000         0.1888         0.1138         0.1374       -88.3175      -24.74227      0.1813011
      3413.0000         0.1866         0.1444         0.1353       -88.2397      -24.62393      0.1853818
      3413.5000         0.1862         0.1751         0.1333        -88.162      -24.50569       0.189459
      3414.0000         0.1927         0.2099         0.1312       -88.0842      -24.38734      0.1935401
      3414.5000         0.2056         0.2551         0.1292       -88.4875       -24.7501      0.1810311
      3415.0000         0.2396         0.3004         0.1213       -89.1169      -25.33895      0.1607258
      3415.5000         0.2736         0.3456         0.1072       -89.7462      -25.92771      0.1404239
      3416.0000         0.2715         0.3909         0.0931       -90.3754      -26.51636      0.1201255
      3416.5000         0.2666         0.4269         0.0791       -90.3037      -26.40413      0.1239957
      3417.0000         0.2617         0.4339          0.068       -89.4667      -25.52657      0.1542561
      3417.5000         0.2563          0.439         0.0801       -88.6296      -24.64893      0.1845195
      3418.0000         0.2503         0.4207         0.0922       -87.7926      -23.77139      0.2147796
      3418.5000         0.2444         0.4023         0.1043       -86.9009      -22.83915      0.2469259
      3419.0000         0.2293          0.384         0.1164       -85.7867       -21.6844      0.2867447
      3419.5000         0.2112         0.3499         0.1305       -84.6726      -20.52975      0.3265602
