#------------------------------------------------------------------------------
# Created by    : vladimir.rabinovich
# Created on    : 09/19/2023 17:20:27
#------------------------------------------------------------------------------
~Version Information Section
VERS.           2.0     :   CWLS log ASCII Standard - VERSION 2.0
WRAP.           NO      :   One line per depth step
~Well Information Section
#MNEM       .UNIT                                         VALUE :DESCRIPTION
#------------------------------------------------------------------------------
STRT        .FT                                             304 :START DEPTH
STOP        .FT                                            9519 :STOP DEPTH
STEP        .FT                                             0.5 :STEP      
NULL        .                                           -999.25 :NULL      
COMP        .                                        TEXACO INC :COMPANY   
WELL        .                                     ST TR 00216-S :WELL      
FLD         .                                           WILDCAT :FIELD     
LOC         .                                                   :LOCATION  
CNTY        .                             GALVESTON SMALL BLOCK :LOCATION  
STAT        .                                             TEXAS :STATE     
CTRY        .                                     UNITED STATES :COUNTRY   
SRVC        .                                                   :SERVICE COMPANY
DATE        .                             9/13/2023 11:19:17 AM :LOG DATE  
API         .                                    42605000160000 :API NUMBER
UWI         .                                    42605000160000 :UNIQUE WELL ID
XCOORD      .                                  1087579.10798688 :SURFACE X 
YCOORD      .                                  10638823.7542325 :SURFACE Y 
LAT         .                                         29.303831 :LATITUDE  
LON         .                                       -94.7349593 :LONGITUDE 
ELEV        .FT                                              15 :ELEVATION VALUE
ELEV_TYPE   .                                                KB :ELEVATION REFERENCE TYPE
~Curve Information Section
#MNEM       .UNIT                                      API CODE :CURVE DESCRIPTION
#------------------------------------------------------------------------------
DEPT        .FT                                                 :DEPTH     
ASN         .OHMM                                               :          
LAT         .OHMM                                               :          
LN          .OHMM                                               :          
SP          .MV                                                 :          
SP_NORM     .MV                                                 :SP Normalized
VSH_SP      .V/V                                                :Volume of Shale from SP
~A        DEPTH            ASN            LAT             LN             SP        SP_NORM         VSH_SP
# ...
      7030.0000          0.991         0.3113         1.2298        -42.864      -2.939034      0.9559311
      7030.5000         0.9905         0.3308         1.1993       -42.1158      -2.185696      0.9730524
      7031.0000         0.9901         0.4207         1.1776       -41.3967      -1.461456      0.9895124
      7031.5000         0.9951         0.5105          1.156       -40.8677     -0.9273148              1
      7032.0000         1.0022         0.6004         1.1344       -40.7989     -0.8533783              1
      7032.5000         1.0094         0.7108         1.1127       -40.8447     -0.8940392              1
      7033.0000         1.0166         0.9271         1.1101       -40.8905        -0.9347              1
      7033.5000         1.0452         1.1437         1.1088       -40.9363     -0.9753571              1
      7034.0000          1.075         1.3318         1.1074       -40.9821      -1.016022      0.9996359
      7034.5000         1.0327         1.5183          1.106       -41.0345      -1.063282      0.9985618
      7035.0000          0.973         1.6998            1.1       -41.1941      -1.217743      0.9950513
      7035.5000         1.0117         1.8714         1.0927       -41.3537      -1.372204      0.9915408
      7036.0000         1.0542         1.8949         1.0853       -41.8851      -1.898464      0.9795803
      7036.5000         1.0903          1.845          1.078       -42.8409      -2.849125      0.9579744
      7037.0000         1.1205         1.7284          1.065       -43.7979      -3.800987      0.9363412
      7037.5000         1.0823         1.5999         1.0319       -45.0876      -5.085548      0.9071466
      7038.0000         1.0174         1.4713         0.9988       -47.1048       -7.09761      0.8614179
      7038.5000         0.9432         1.3429         0.9658       -49.1483      -9.135967      0.8150917
      7039.0000          0.897         1.2151         0.9327       -51.6357      -11.61823      0.7586766
      7039.5000         0.8591         1.0891         0.9234       -54.6878      -14.66519      0.6894274
      7040.0000         0.8696         0.9631         0.9193       -57.3939      -17.36615       0.628042
      7040.5000         0.8854         0.8372         0.9152       -58.1948      -18.16191      0.6099565
      7041.0000         0.9012         0.7111          0.918       -53.6946      -13.65657      0.7123507
      7041.5000          0.917         0.6263         0.9245       -49.4406      -9.397434      0.8091492
      7042.0000          0.909         0.5843         0.9311       -45.9161      -5.867794      0.8893683
      7042.5000         0.8873         0.5421         0.9305       -44.9701      -4.916656      0.9109851
      7043.0000         0.8657            0.5          0.912       -44.0231       -3.96452      0.9326246
      7043.5000          0.844          0.458         0.8936       -43.4012      -3.337475      0.9468756
      7044.0000         0.8223         0.4424         0.8785       -43.0749      -3.006039      0.9544082
      7044.5000         0.7876         0.4314          0.871       -44.6899      -4.615898      0.9178205
      7045.0000         0.7689         0.4203         0.8635       -46.8433       -6.76416      0.8689964
      7045.5000         0.8021         0.4092         0.8559       -48.9945      -8.910221      0.8202223
      7046.0000         0.8353         0.3981          0.864       -51.1479      -11.05848      0.7713982
      7046.5000         0.8686          0.387         0.8777       -53.4991      -13.40454      0.7180786
      7047.0000         0.8927          0.376         0.8915       -55.3734       -15.2737      0.6755976
      7047.5000         0.9074         0.3704         0.9052       -55.4261      -15.32127      0.6745167
      7048.0000         0.9221         0.3708          0.919        -54.011      -13.90103      0.7067948
      7048.5000         0.9368         0.3711         0.9326       -53.0524      -12.93728      0.7286981
      7049.0000         0.9515         0.3715         0.9281       -53.6111      -13.49084      0.7161171
      7049.5000         0.9662         0.3718         0.9236       -54.8152      -14.68981       0.688868
      7050.0000         0.9645         0.3722         0.9191       -56.0194      -15.88887      0.6616166
      7050.5000         0.9436         0.3725         0.9146       -57.2136      -17.07793      0.6345926
      7051.0000         0.9228         0.4134          0.899       -58.1827      -18.04189      0.6126843
      7051.5000         0.9019         0.4684         0.8774       -59.1528      -19.00685      0.5907534
      7052.0000         0.8811         0.5234         0.8557       -58.2255      -18.07441      0.6119452
      7052.5000         0.8582         0.5784         0.8426       -56.6193      -16.46307      0.6485665
      7053.0000         0.8352         0.6334         0.8394       -55.0504      -14.88903      0.6843402
      7053.5000         0.8123         0.6884         0.8359        -54.088      -13.92149      0.7063297
      7054.0000         0.7966         0.7434         0.8321         -53.41      -13.23835      0.7218556
      7054.5000         0.7878         0.8044         0.8283       -49.9372      -9.760414      0.8008997
      7055.0000         0.7789         0.8658         0.8245       -48.3145      -8.132576       0.837896
      7055.5000         0.7701         0.9272         0.8208       -47.8217      -7.634636      0.8492128
      7056.0000         0.7761         0.9886          0.817       -47.3289      -7.136696      0.8605297
      7056.5000         0.7836           1.05         0.8132       -47.6091      -7.411758      0.8542782
      7057.0000         0.7912         1.1113         0.8094       -48.3419       -8.13942      0.8377405
      7057.5000         0.7987          1.135         0.8056       -49.1989       -8.99128        0.81838
      7058.0000         0.8139         1.1439         0.8129       -50.7546      -10.54184        0.78314
      7058.5000         0.8311         1.1527         0.8207       -52.3125       -12.0946        0.74785
      7059.0000         0.8483         1.1616         0.8286       -53.8484      -13.62536        0.71306
      7059.5000         0.8655         1.1705         0.8364       -55.1536      -14.92542      0.6835131
      7060.0000         0.8798         1.1499         0.8442       -56.4578      -16.22449      0.6539889
      7060.5000         0.8763         1.1207          0.852       -57.3708      -17.13234      0.6333559
      7061.0000         0.8621         1.0915         0.8531       -57.8943       -17.6507      0.6215749
      7061.5000          0.839         1.0623         0.8454       -58.4178      -18.16907      0.6097939
      7062.0000          0.816         1.0331         0.8377       -58.9682      -18.71433      0.5974016
      7062.5000         0.7909         1.0039           0.83       -60.3372      -20.07819      0.5664048
      7063.0000          0.761         0.9835         0.8216        -61.772      -21.50785      0.5339126
      7063.5000         0.7459         0.9789         0.8034       -63.8815      -23.61221      0.4860862
      7064.0000         0.7335         0.9744         0.7852       -66.2084      -25.93397      0.4333189
      7064.5000         0.7188         0.9698         0.7671       -68.0388      -27.75924      0.3918356
      7065.0000         0.6981         0.9652         0.7556       -65.0548       -24.7701      0.4597706
      7065.5000         0.6691         0.9606         0.7608       -60.6206      -20.33075      0.5606647
      7066.0000         0.6758          0.956          0.766       -56.0502      -15.75521      0.6646542
      7066.5000         0.6835         0.9515         0.7712       -51.5588      -11.25867      0.7668483
      7067.0000         0.6911         0.9469         0.7764       -48.2211      -7.915836      0.8428219
      7067.5000         0.7041         0.9575         0.7816        -46.907        -6.5966      0.8728046
