#------------------------------------------------------------------------------
# Created by    : vladimir.rabinovich
# Created on    : 09/19/2023 17:19:42
#------------------------------------------------------------------------------
~Version Information Section
VERS.           2.0     :   CWLS log ASCII Standard - VERSION 2.0
WRAP.           NO      :   One line per depth step
~Well Information Section
#MNEM       .UNIT                                         VALUE :DESCRIPTION
#------------------------------------------------------------------------------
STRT        .FT                                             583 :START DEPTH
STOP        .FT                                            6498 :STOP DEPTH
STEP        .FT                                             0.5 :STEP      
NULL        .                                           -999.25 :NULL      
COMP        .                                        EXXON CORP :COMPANY   
WELL        .                                     ST TR 00692-S :WELL      
FLD         .                                           WILDCAT :FIELD     
LOC         .                                                   :LOCATION  
CNTY        .                      MATAGORDA ISLAND SMALL BLOCK :LOCATION  
STAT        .                                             TEXAS :STATE     
CTRY        .                                     UNITED STATES :COUNTRY   
SRVC        .                                                   :SERVICE COMPANY
DATE        .                             9/13/2023 11:19:17 AM :LOG DATE  
API         .                                    42603301950000 :API NUMBER
UWI         .                                    42603301950000 :UNIQUE WELL ID
XCOORD      .                                  518375.599551337 :SURFACE X 
YCOORD      .                                  10266878.6313095 :SURFACE Y 
LAT         .                                        28.2472954 :LATITUDE  
LON         .                                       -96.4850657 :LONGITUDE 
ELEV        .FT                                              89 :ELEVATION VALUE
ELEV_TYPE   .                                                KB :ELEVATION REFERENCE TYPE
~Curve Information Section
#MNEM       .UNIT                                      API CODE :CURVE DESCRIPTION
#------------------------------------------------------------------------------
DEPT        .FT                                                 :DEPTH     
ASFL        .OHMM                                               :          
CILD        .MMHO                                               :          
GR          .GAPI                                               :          
GR_NORM     .GAPI                                               :GammaRay Normalized
ILD         .OHMM                                               :          
SP          .MV                                                 :          
SP_NORM     .MV                                                 :SP Normalized
VSH_GR      .V/V                                                :Volume of Shale from GR
VSH_SP      .V/V                                                :Volume of Shale from SP
~A        DEPTH           ASFL           CILD             GR        GR_NORM            ILD             SP        SP_NORM         VSH_GR         VSH_SP
# ...
      4134.0000         1.0699       872.5062        36.3477       44.54654          1.121         -19.12      -15.11402      0.2456711      0.7479638
      4134.5000         1.5925       812.9157        35.6035       43.46717         1.1954         -23.92      -19.90742      0.2227057      0.6623674
      4135.0000         1.6025       765.2493        34.8593       42.38778         1.2698         -28.64      -24.62083        0.19974      0.5781995
      4135.5000         1.6957       735.4698         34.115       41.30826         1.3441         -34.16      -30.13423      0.1767715      0.4797459
      4136.0000         1.7889       711.6522        33.3708       40.22887         1.4185         -37.36      -33.32764      0.1538057      0.4227208
      4136.5000         1.8821       711.6837        32.6266       39.14949         1.5032         -39.68      -35.64104      0.1308401      0.3814101
      4137.0000           1.99       693.8442        31.6518       37.73584         1.5031         -40.88      -36.83444      0.1007626      0.3600993
      4137.5000         2.1291       789.2412        33.0744       39.79733         1.4335         -41.28      -37.22784      0.1446241      0.3530742
      4138.0000         1.8437       884.6382        35.1137       42.75278         1.2999         -43.28      -39.22124      0.2075059      0.3174778
      4138.5000         1.7474       980.0352        35.0148       42.60878         1.1662         -43.28      -39.21465      0.2044422      0.3175955
      4139.0000         1.4469       1075.432        33.6942       40.69387         1.0326          -45.2      -41.12805      0.1636994      0.2834277
      4139.5000         1.1463       1170.829        32.3736       38.77897         0.8989         -47.12      -43.04145      0.1229568      0.2492597
      4140.0000         0.9564       1981.741         31.053       36.86406         0.7652         -49.12      -45.03486     0.08221411      0.2136632
      4140.5000         0.9283       2279.842        29.7324       34.94917         0.6316         -51.04      -46.94827      0.0414716      0.1794953
      4141.0000         0.9002       2488.781        28.4118       33.03426         0.4979          -52.4      -48.30167   0.0007289319      0.1553274
      4141.5000         0.8721       2500.742        26.5084       30.27456         0.4191          -52.4      -48.29507              0      0.1554452
      4142.0000          0.841       2494.798        26.5084       30.27393         0.3991         -34.96      -30.84847              0      0.4669916
      4142.5000          0.841       2321.271         27.003       30.99025         0.3991         -34.56      -30.44188              0      0.4742522
      4143.0000         0.8529       2147.743        36.9226       45.36856         0.4377         -27.44      -23.31528      0.2631609      0.6015129
      4143.5000         0.8613       1974.216        46.8423       59.74703         0.4764         -26.64      -22.50868      0.5690857      0.6159164
      4144.0000         0.8696       1800.688        52.5223       67.97984          0.515          -17.2      -13.06208      0.7442518      0.7846056
      4144.5000         0.8787       1627.161        54.8417       71.34128         0.5536            -14      -9.855487      0.8157719      0.8418663
      4145.0000         0.8787       1499.282        57.1611       74.70274         0.5923          -13.2      -9.048889      0.8872924      0.8562698
      4145.5000         0.8616       1487.391        59.4806       78.06433         0.6309         -12.64      -8.482294      0.9588156      0.8663876
      4146.0000         0.8446       1475.499           61.8       81.42579         0.6696         -10.88      -6.715696              1       0.897934
      4146.5000         0.8275       1475.532         64.095       84.75188         0.7082          -9.76      -5.589099              1      0.9180518
      4147.0000         0.8104       1469.603         65.183       86.32835         0.7468          -8.72      -4.542502              1      0.9367411
      4147.5000         0.7934       1457.711        74.5071       99.84347         0.7855          -7.68      -3.495905              1      0.9554303
      4148.0000         0.7752        1445.82        80.1187       107.9771         0.8252          -6.56      -2.369308              1      0.9755481
      4148.5000         0.7732       1433.928        76.8107       103.1814         0.8053          -5.52      -1.322711              1      0.9942373
      4149.0000          0.819       1416.073        73.5027       98.38565         0.7953          -5.52      -1.316114              1      0.9943551
      4149.5000         0.8648       1416.106        70.1948       93.59006         0.7454          -5.68      -1.469517              1      0.9916158
      4150.0000         0.9106        1416.14        66.8868       88.79433         0.7454          -5.68      -1.462921              1      0.9917336
      4150.5000         0.9564       1255.179        63.5788       83.99857         0.7453          -5.76      -1.536324              1      0.9904228
      4151.0000         0.9818       1231.361        60.2708       79.20285         0.7612          -5.84      -1.609727      0.9830394       0.989112
      4151.5000         0.9739       1237.357        55.4896       72.27163          0.777          -5.92       -1.68313      0.8355666      0.9878013
      4152.0000           0.95        1237.39        55.3907       72.12764         0.7929          -5.68      -1.436533       0.832503      0.9922048
      4152.5000         0.9169       1267.237        58.2287       76.24082         0.8087          -5.92      -1.669936      0.9200175      0.9880369
      4153.0000         0.8838       1297.084        61.0667       80.35402         0.8243          -5.68      -1.423339              1      0.9924404
      4153.5000         0.8506       1320.968        66.0732       87.61055         0.8242          -5.68      -1.416742              1      0.9925582
      4154.0000         0.8168       1332.927        64.5329       85.37719         0.8042          -5.52      -1.250145              1      0.9955331
      4154.5000         0.8167        1332.96        62.9926       83.14381         0.7929          -5.36      -1.083549              1       0.998508
      4155.0000         0.8167        1327.03        61.4523       80.91046         0.7817           -5.2     -0.9169512              1              1
      4155.5000         0.8253       1321.101        59.9121       78.67722         0.7704          -5.04     -0.7503543      0.9718558              1
      4156.0000         0.8339       1303.245        58.3718       76.44385         0.7541          -4.88     -0.5837579      0.9243372              1
      4156.5000         0.8424       1273.464        56.8315       74.21048          0.754          -4.72     -0.4171605      0.8768187              1
      4157.0000          0.851       1261.571        54.8961       71.40439         0.7539          -4.56     -0.2505636      0.8171147              1
      4157.5000         0.8596       1243.715        55.7864       72.69431         0.7648           -4.4    -0.08396673      0.8445597              1
      4158.0000         0.8681       1225.859        58.5394       76.68428         0.7757          -4.24     0.08263016      0.9294528              1
      4158.5000         0.8767       1208.003        61.2925        80.6744         0.7866             -4       0.329227              1              1
      4159.0000         0.8853       1208.036        64.3917       85.16623         0.7975          -3.84      0.4958241              1              1
      4159.5000         0.8881       1202.106        65.3841       86.60413          0.813          -3.68       0.662421              1              1
      4160.0000         0.8762       1214.065        66.5678       88.31932         0.8181          -3.52      0.8290176              1              1
