#------------------------------------------------------------------------------
# Created by    : vladimir.rabinovich
# Created on    : 09/19/2023 17:19:42
#------------------------------------------------------------------------------
~Version Information Section
VERS.           2.0     :   CWLS log ASCII Standard - VERSION 2.0
WRAP.           NO      :   One line per depth step
~Well Information Section
#MNEM       .UNIT                                         VALUE :DESCRIPTION
#------------------------------------------------------------------------------
STRT        .FT                                             583 :START DEPTH
STOP        .FT                                            6498 :STOP DEPTH
STEP        .FT                                             0.5 :STEP      
NULL        .                                           -999.25 :NULL      
COMP        .                                        EXXON CORP :COMPANY   
WELL        .                                     ST TR 00692-S :WELL      
FLD         .                                           WILDCAT :FIELD     
LOC         .                                                   :LOCATION  
CNTY        .                      MATAGORDA ISLAND SMALL BLOCK :LOCATION  
STAT        .                                             TEXAS :STATE     
CTRY        .                                     UNITED STATES :COUNTRY   
SRVC        .                                                   :SERVICE COMPANY
DATE        .                             9/13/2023 11:19:17 AM :LOG DATE  
API         .                                    42603301950000 :API NUMBER
UWI         .                                    42603301950000 :UNIQUE WELL ID
XCOORD      .                                  518375.599551337 :SURFACE X 
YCOORD      .                                  10266878.6313095 :SURFACE Y 
LAT         .                                        28.2472954 :LATITUDE  
LON         .                                       -96.4850657 :LONGITUDE 
ELEV        .FT                                              89 :ELEVATION VALUE
ELEV_TYPE   .                                                KB :ELEVATION REFERENCE TYPE
~Curve Information Section
#MNEM       .UNIT                                      API CODE :CURVE DESCRIPTION
#------------------------------------------------------------------------------
DEPT        .FT                                                 :DEPTH     
ASFL        .OHMM                                               :          
CILD        .MMHO                                               :          
GR          .GAPI                                               :          
GR_NORM     .GAPI                                               :GammaRay Normalized
ILD         .OHMM                                               :          
SP          .MV                                                 :          
SP_NORM     .MV                                                 :SP Normalized
VSH_GR      .V/V                                                :Volume of Shale from GR
VSH_SP      .V/V                                                :Volume of Shale from SP
~A        DEPTH           ASFL           CILD             GR        GR_NORM            ILD             SP        SP_NORM         VSH_GR         VSH_SP
# ...
      3736.5000         0.7352       3291.724        36.9572       49.38208         0.2551         -76.24      -56.96289      0.3485549   0.0006626674
      3737.0000           0.73       3166.381        36.6599       48.85699          0.265         -75.92      -56.64289      0.3373829    0.006376948
      3737.5000         0.7236       3047.008        36.1098       47.88607          0.265         -75.68      -56.40289       0.316725     0.01066262
      3738.0000         0.7296       2939.575        35.5596       46.91498         0.2817          -75.2      -55.92289      0.2960635     0.01923411
      3738.5000         0.7771       2861.993        34.9767       45.88621         0.2983          -75.6      -56.32289      0.2741746     0.01209123
      3739.0000         0.8245       2808.292        35.3721       46.58278          0.315            -76      -56.72289      0.2889952    0.004948344
      3739.5000          0.872       2694.889        36.2647        48.1562         0.3317          -76.4      -57.12289      0.3224724              0
      3740.0000         0.9195       2539.696        37.1573       49.72961         0.3484          -76.8       -57.5229      0.3559492              0
      3740.5000         0.9743        2497.95        38.0498       51.30286         0.3651          -77.2      -57.92289      0.3894225              0
      3741.0000         1.1333       2563.636        39.2273       53.37872          0.384          -77.6      -58.32289      0.4335898              0
      3741.5000         1.2768        2647.29        39.0293       53.02877         0.3839         -77.76      -58.48289       0.426144              0
      3742.0000         1.2728       2730.944        38.5345       52.15537         0.3839         -77.76      -58.48289      0.4075611              0
      3742.5000         1.2549       2814.598        36.9113       49.29194         0.3753         -76.48       -57.2029      0.3466371              0
      3743.0000         1.1528       2898.253         35.288       46.42831         0.3668          -75.2      -55.92289      0.2857087     0.01923411
      3743.5000         1.0508       2981.907        33.6648       43.56488         0.3582         -73.92      -54.64289      0.2247847     0.04209123
      3744.0000         0.9487       3065.561        33.3889       43.07755         0.3497         -72.64      -53.36289      0.2144158     0.06494836
      3744.5000         0.8466       3101.158        35.2094       46.28741         0.3438         -70.24      -50.96289      0.2827108      0.1078055
      3745.0000         0.7115       2848.509        37.0299       49.49727         0.3438         -66.88      -47.60289      0.3510057      0.1678055
      3745.5000         0.7115       2595.861        38.8504       52.70713         0.3438         -55.12      -35.84289      0.4193006      0.3778056
      3746.0000         0.7135       2343.213        40.6708       55.91681         0.4046         -45.12      -25.84289      0.4875918       0.556377
      3746.5000         0.8569       2090.564        42.4913       59.12668         0.4654          -41.6      -22.32289      0.5558868      0.6192341
      3747.0000         1.0002       1837.916        44.3118       62.33655         0.5263         -38.08      -18.80289      0.6241819      0.6820912
      3747.5000         1.1436       1483.445        46.1322       65.54623         0.5871         -34.56      -15.28289      0.6924729      0.7449483
      3748.0000         1.2826       1429.729        47.9527        68.7561         0.6479         -30.96      -11.68289      0.7607682      0.8092341
      3748.5000         1.2568       1376.042        50.0015       72.36861         0.7088         -27.44      -8.162891      0.8376299      0.8720912
      3749.0000         1.1615       1334.251        48.3987       69.54115         0.7696         -23.92      -4.642891      0.7774712      0.9349484
      3749.5000         1.0663       1196.983        46.7959       66.71365         0.8304          -20.4       -1.12289      0.7173118      0.9978055
      3750.0000         0.9443       1119.401        45.1931       63.88622         0.8913         -24.48       -5.20289      0.6571537      0.9249484
      3750.5000         1.0441       1119.431        43.5903       61.05875         0.9701         -28.48       -9.20289      0.5969947      0.8535198
      3751.0000         1.1439       1131.401        41.9875       58.23129         0.9701         -32.48      -13.20289      0.5368358      0.7820913
      3751.5000         1.2437       1149.341        40.3846       55.40365           0.98         -36.56      -17.28289      0.4766734      0.7092341
      3752.0000         1.3435       1119.505        38.7818        52.5762         0.9799         -42.56      -23.28289      0.4165149      0.6020912
      3752.5000         1.4433        1101.64         37.179       49.74874         0.9799         -46.16      -26.88289      0.3563562      0.5378055
      3753.0000         1.5431       1053.909        35.5762       46.92126           0.95         -53.28      -34.00289      0.2961971      0.4106627
      3753.5000         1.6009       1030.058        33.4781       43.22029         0.9127         -55.28      -36.00289      0.2174531      0.3749484
      3754.0000         1.5969       1018.148        32.9836       42.34742         0.9001          -58.8      -39.52289      0.1988814      0.3120913
      3754.5000         1.5731       1048.028        32.0929       40.77583         0.8608          -62.4      -43.12289      0.1654432      0.2478055
      3755.0000         1.5591       1083.879        29.2695       35.79572         0.8215         -65.52      -46.24289     0.05948347      0.1920913
      3755.5000         1.5671       1215.252        26.6514       31.17768         0.7822         -67.52      -48.24289              0       0.156377
      3756.0000         1.6128       1280.953        26.8487       31.52487         0.7429         -68.72      -49.44289              0      0.1349483
      3756.5000         1.5131       1418.296        27.4925       32.65951         0.7036         -69.12       -49.8429              0      0.1278054
      3757.0000         1.4133       1561.609        28.1363       33.79414         0.6643         -69.52      -50.24289     0.01689667      0.1206627
      3757.5000         1.3136       1782.535        28.8254       35.00867          0.625         -70.32      -51.04289      0.0427376      0.1063769
      3758.0000         1.2139       1991.519         28.924        35.1818         0.5857         -70.48       -51.2029     0.04642121      0.1035197
      3758.5000         1.1141       2128.862        28.4292        34.3084         0.5464         -72.24      -52.96289     0.02783836     0.07209124
      3759.0000         1.0144       2158.743        27.8389       33.26659         0.5072         -74.48       -55.2029    0.005672211     0.03209114
      3759.5000         0.9147       2433.414        27.2485       32.22459         0.4518         -74.08      -54.80289              0     0.03923402
      3760.0000         0.8127       2373.713        26.9441       31.68699         0.4418         -73.44       -54.1629              0     0.05066258
      3760.5000         0.8306       2282.545        27.9537       33.46674         0.4517         -72.88      -53.60289    0.009930631     0.06066268
      3761.0000         0.9843       2191.378        28.9632       35.24634         0.4517         -72.24      -52.96289     0.04779442     0.07209124
      3761.5000         1.1379       2100.211        29.9728        37.0261         0.4516         -71.68      -52.40289     0.08566178      0.0820912
      3762.0000         1.2916       2009.043        30.9823       38.80569         0.4515         -71.52      -52.24289      0.1235253     0.08494841
      3762.5000         1.4435       1926.117         31.689       40.05125         0.4614         -71.52      -52.24289      0.1500267     0.08494841
