#------------------------------------------------------------------------------
# Created by    : vladimir.rabinovich
# Created on    : 09/19/2023 17:20:27
#------------------------------------------------------------------------------
~Version Information Section
VERS.           2.0     :   CWLS log ASCII Standard - VERSION 2.0
WRAP.           NO      :   One line per depth step
~Well Information Section
#MNEM       .UNIT                                         VALUE :DESCRIPTION
#------------------------------------------------------------------------------
STRT        .FT                                             304 :START DEPTH
STOP        .FT                                            9519 :STOP DEPTH
STEP        .FT                                             0.5 :STEP      
NULL        .                                           -999.25 :NULL      
COMP        .                                        TEXACO INC :COMPANY   
WELL        .                                     ST TR 00216-S :WELL      
FLD         .                                           WILDCAT :FIELD     
LOC         .                                                   :LOCATION  
CNTY        .                             GALVESTON SMALL BLOCK :LOCATION  
STAT        .                                             TEXAS :STATE     
CTRY        .                                     UNITED STATES :COUNTRY   
SRVC        .                                                   :SERVICE COMPANY
DATE        .                             9/13/2023 11:19:17 AM :LOG DATE  
API         .                                    42605000160000 :API NUMBER
UWI         .                                    42605000160000 :UNIQUE WELL ID
XCOORD      .                                  1087579.10798688 :SURFACE X 
YCOORD      .                                  10638823.7542325 :SURFACE Y 
LAT         .                                         29.303831 :LATITUDE  
LON         .                                       -94.7349593 :LONGITUDE 
ELEV        .FT                                              15 :ELEVATION VALUE
ELEV_TYPE   .                                                KB :ELEVATION REFERENCE TYPE
~Curve Information Section
#MNEM       .UNIT                                      API CODE :CURVE DESCRIPTION
#------------------------------------------------------------------------------
DEPT        .FT                                                 :DEPTH     
ASN         .OHMM                                               :          
LAT         .OHMM                                               :          
LN          .OHMM                                               :          
SP          .MV                                                 :          
SP_NORM     .MV                                                 :SP Normalized
VSH_SP      .V/V                                                :Volume of Shale from SP
~A        DEPTH            ASN            LAT             LN             SP        SP_NORM         VSH_SP
       304.0000         0.3206         0.0566         0.6393       -39.9549      0.4822578              1
       304.5000         0.3301         0.0525         0.7482       -39.8267      0.6104584              1
       305.0000         0.3397          0.048         0.8571       -39.6986      0.7385559              1
       305.5000         0.4288          0.043         1.0518       -39.5704      0.8667564              1
       306.0000         0.4843         0.0381         1.2677       -39.4449      0.9922562              1
       306.5000         0.8858         0.0331         1.4621       -39.3206       1.116558              1
       307.0000         1.0254         0.0281         1.6435       -39.1962       1.240955              1
       307.5000          1.116         0.0231         1.8248       -39.3498       1.087357              1
       308.0000         1.2463         0.0181         2.0193       -39.5882      0.8489571              1
       308.5000         1.2888         0.0131         2.2166       -40.0898      0.3473549              1
       309.0000         1.3327         0.0081         2.4206       -40.6972     -0.2600441              1
       309.5000         1.3772         0.0031         2.6324       -41.3046     -0.8674431              1
       310.0000         1.4222              0         2.8287       -41.8706      -1.433445      0.9839465
       310.5000         1.4677              0         3.0322       -42.3894      -1.952244      0.9647317
       311.0000          1.513              0         3.2511       -42.6326      -2.195442      0.9557244
       311.5000         1.5582              0          3.386       -42.5164      -2.079243      0.9600281
       312.0000         1.5947              0         3.5395       -42.0255      -1.588345      0.9782094
       312.5000         1.6166              0         3.7024       -41.3464     -0.9092445              1
       313.0000         1.6385              0         3.8406       -40.6753     -0.2381439              1
       313.5000         1.6551              0         3.9495       -39.2877       1.149456              1
       314.0000         1.6673              0         4.0102       -38.0118       2.425358              1
       314.5000         1.6794              0          4.062       -36.8123       3.624855              1
       315.0000         1.6916              0         4.1139        -36.348       4.089157              1
       315.5000         1.7038              0          4.143       -36.9124       3.524757              1
       316.0000         1.7149              0         4.1559       -38.5687       1.868458              1
       316.5000         1.7249              0         4.1688        -38.228       2.209156              1
       317.0000         1.7348              0         4.1833       -37.8409       2.596256              1
       317.5000         1.7448              0         4.2015       -37.8675       2.569656              1
       318.0000         1.7547              0         4.2197       -38.1299       2.307255              1
       318.5000         1.7646              0         4.2379       -38.3924       2.061066              1
       319.0000         1.7744              0         4.2679       -38.7338       1.747448              1
       319.5000         1.7842              0         4.3004       -39.0767       1.432327              1
       320.0000         1.7941              0         4.3329       -39.4197       1.117104              1
       320.5000         1.8014              0         4.3657       -39.7418      0.8227882              1
       321.0000         1.8061              0         4.4002        -40.015      0.5773659              1
       321.5000         1.8108              0         4.4347       -40.2881      0.3320427              1
       322.0000         1.8129         0.0073         4.4691       -40.5613     0.08662796              1
       322.5000         1.8053         0.0557         4.5036       -40.7979     -0.1221962              1
       323.0000         1.7977         0.1042          4.538       -40.8866     -0.1831131              1
       323.5000           1.79          0.655         4.5632       -40.9753     -0.2440338              1
       324.0000         1.7824         0.9172         4.5547       -41.0462     -0.2871552              1
       324.5000         1.7738         1.1592         4.5462       -40.9633     -0.1764717              1
       325.0000         1.7459         1.8189         4.5377       -40.8803     -0.0656929              1
       325.5000         1.7179         2.3972         4.5296       -40.7974     0.04498672              1
       326.0000         1.7082         2.7823         4.5254       -40.6655      0.2046661              1
       326.5000          1.705         2.9344         4.5211       -40.4976      0.4003448              1
       327.0000         1.7019         3.4404         4.5169       -40.3298      0.5959282              1
       327.5000         1.6987         4.6707          4.544       -40.1619      0.7916069              1
       328.0000         1.6955         4.8261         4.5785       -39.9941      0.9871902              1
       328.5000         1.6924         5.0431          4.613       -39.8262       1.182869              1
       329.0000         1.6936         5.4628         4.6474       -39.6584       1.378445              1
       329.5000         1.6949         5.6928         4.6804        -39.585        1.47963              1
       330.0000         1.6962         5.8544         4.7133       -39.7384       1.354008              1
       330.5000         1.6976          5.975         4.7462       -39.8918       1.228386              1
       331.0000         1.6989         6.0755         4.7791       -40.0452       1.102768              1
       331.5000         1.7002         6.1347          4.811       -40.1986      0.9771461              1
       332.0000         1.6959          6.149         4.8416       -40.3521       0.851429              1
       332.5000         1.6878         6.1097         4.8722       -40.5054      0.7259064              1
       333.0000         1.6798         6.0704         4.9028       -40.7764      0.4826851              1
       333.5000         1.6717         6.0408         4.9233       -41.1645      0.1223679              1
       334.0000         1.6636         6.0115         4.9405       -41.5527     -0.2380524              1
       334.5000         1.6556         5.9822         4.9483       -41.9407     -0.5982704              1
       335.0000         1.6475         5.9528         4.9522       -42.3289     -0.9586906              1
       335.5000         1.6391         5.9469         4.9309        -42.717      -1.319012      0.9881848
       336.0000         1.6307         6.0182         4.9054       -43.0374      -1.611629      0.9773471
       336.5000         1.6223         6.0895         4.8799       -43.0229      -1.569351      0.9789129
       337.0000         1.6175         6.2039         4.8543       -43.0084      -1.527069      0.9804789
       337.5000         1.6166         6.4105          4.836       -42.9938      -1.484692      0.9820485
       338.0000         1.6158         6.6167         4.8202       -42.9793      -1.442413      0.9836143
       338.5000         1.6149         6.7236         4.8092       -42.9648      -1.400131      0.9851803
       339.0000         1.6141         6.8296         4.8867       -42.8848      -1.292351      0.9891722
       339.5000         1.6197         6.9292         4.9642       -42.4739     -0.8536682              1
       340.0000          1.631         7.0585         5.0417        -42.063     -0.4149895              1
       340.5000         1.6423         7.0677         5.1067       -41.6521     0.02368927              1
       341.0000         1.6536         6.9091         5.1632       -41.2739      0.4296722              1
       341.5000         1.6643         6.7253         5.2016        -41.045      0.6863518              1
