#------------------------------------------------------------------------------
# Created by    : vladimir.rabinovich
# Created on    : 09/19/2023 17:21:28
#------------------------------------------------------------------------------
~Version Information Section
VERS.           2.0     :   CWLS log ASCII Standard - VERSION 2.0
WRAP.           NO      :   One line per depth step
~Well Information Section
#MNEM       .UNIT                                         VALUE :DESCRIPTION
#------------------------------------------------------------------------------
STRT        .FT                                            2437 :START DEPTH
STOP        .FT                                            8654 :STOP DEPTH
STEP        .FT                                             0.5 :STEP      
NULL        .                                           -999.25 :NULL      
COMP        .                                      PELTO OIL CO :COMPANY   
WELL        .                                     ST TR 00163-S :WELL      
FLD         .                                           WILDCAT :FIELD     
LOC         .                                                   :LOCATION  
CNTY        .                             GALVESTON SMALL BLOCK :LOCATION  
STAT        .                                             TEXAS :STATE     
CTRY        .                                     UNITED STATES :COUNTRY   
SRVC        .                                                   :SERVICE COMPANY
DATE        .                             9/13/2023 11:19:17 AM :LOG DATE  
API         .                                    42605301550000 :API NUMBER
UWI         .                                    42605301550000 :UNIQUE WELL ID
XCOORD      .                                  1154226.19631992 :SURFACE X 
YCOORD      .                                  10687289.1653299 :SURFACE Y 
LAT         .                                        29.4396686 :LATITUDE  
LON         .                                       -94.5278571 :LONGITUDE 
ELEV        .FT                                             111 :ELEVATION VALUE
ELEV_TYPE   .                                                KB :ELEVATION REFERENCE TYPE
~Curve Information Section
#MNEM       .UNIT                                      API CODE :CURVE DESCRIPTION
#------------------------------------------------------------------------------
DEPT        .FT                                                 :DEPTH     
CALI        .IN                                                 :          
GR          .GAPI                                               :          
GR_NORM     .GAPI                                               :GammaRay Normalized
ILD         .OHMM                                               :          
ILM         .OHMM                                               :          
NPSS        .%                                                  :Neutron Porosity Sandstone
RHOB        .G/CM3                                              :          
SFL         .OHMM                                               :          
SP          .MV                                                 :          
SP_NORM     .GAPI                                               :SP Normalized
TENS        .LB                                                 :          
VSH_GR      .V/V                                                :Volume of Shale from GR
VSH_SP      .V/V                                                :Volume of Shale from SP
~A        DEPTH           CALI             GR        GR_NORM            ILD            ILM           NPSS           RHOB            SFL             SP        SP_NORM           TENS         VSH_GR         VSH_SP
# ...
      2893.0000        14.6282        73.8276       72.86255         0.9043         0.8063        40.9174         2.1583         0.8137        78.5089      -1.746142       -15.5461      0.8481393      0.9731362
      2893.5000        14.5694         73.725       72.73589         0.9215         0.8062        40.2113         2.1763         0.8249        78.3258      -2.060518       -16.5363      0.8454444      0.9682997
      2894.0000        14.7094        73.0188       71.86403         0.9128         0.7986        39.4441         2.1904         0.8247         77.652      -3.182429       -17.5265      0.8268942      0.9510396
      2894.5000        14.8593        71.6092       70.12378         0.8595         0.7731        38.5567         2.1984         0.8246         77.173      -3.983774       -18.5167      0.7898676      0.9387112
      2895.0000        15.0094        70.6031       68.88169         0.8131         0.7484        38.3848         2.1965         0.8244         76.989      -4.299606       -19.5069      0.7634403      0.9338522
      2895.5000        15.0991        69.1846       67.13046         0.7727         0.7245        38.9889         2.1835         0.8055        76.6078      -4.939984       -20.5961      0.7261799      0.9240003
      2896.0000        15.0311         68.881       66.75563          0.731         0.6981        39.8931         2.1646         0.7869        76.2274      -5.579044       -21.5863      0.7182049      0.9141685
      2896.5000        14.6837        71.7063       70.24367         0.6948         0.6729        40.8573         2.1516         0.7688        75.8455       -6.22059       -22.5765      0.7924185      0.9042986
      2897.0000        14.5151        76.8219       76.55922         0.6575         0.6486        41.4037         2.1487         0.7512        75.2657      -7.187799       -23.5667      0.9267919      0.8894185
      2897.5000         14.476        79.6262       80.02131         0.6167         0.6252        41.7114         2.1537         0.7373        74.8829      -7.830814       -24.5569              1       0.879526
      2898.0000        14.5465        80.5149       81.11848         0.5781         0.6027        41.7209         2.1608         0.7137        74.7973      -7.984712       -25.5471              1      0.8771583
      2898.5000        14.6471        80.2146       80.74774         0.5441         0.5944        41.7296         2.1698          0.707         74.908      -7.815559       -26.5373              1      0.8797606
      2899.0000         14.648        80.9997         81.717         0.5315         0.5944        42.2755         2.1709         0.7036        75.1177      -7.483479       -27.5275              1      0.8848696
      2899.5000        14.6188         84.654       86.22848         0.5144         0.5944        42.8191         2.1639         0.6908        75.2299      -7.311852       -38.5187              1      0.8875099
      2900.0000        14.6196        86.8308       88.91589         0.5167         0.5972        43.1253          2.159         0.6782        74.8461      -7.956511       -39.5089              1      0.8775921
      2900.5000        14.6192        88.1129       90.49873          0.519         0.6221        43.2472          2.159         0.6689        74.1513      -9.112988       -38.4823              1      0.8598002
      2901.0000        14.6179        85.9248       87.79736         0.5288         0.6334        42.3562          2.166         0.6905        73.0483      -10.94126       -35.9736              1      0.8316729
      2901.5000        14.6166        82.8457       83.99602         0.5337         0.6391        38.5111          2.179         0.7229        71.6469      -13.26062       -33.4698              1      0.7959905
      2902.0000         14.795         79.363       79.69637         0.5513         0.6478        37.9056          2.181         0.8305        70.8392       -14.6029        -30.971      0.9935399        0.77534
      2902.5000        15.0329        75.8446       75.35268         0.5856         0.6507        38.5043          2.169          0.854        70.4278      -15.29297        -28.477      0.9011208      0.7647235
      2903.0000        15.2399        72.6234       71.37589         0.6103         0.6687        37.8971           2.15         0.8151         71.406      -13.69616        -25.988      0.8165082      0.7892899
      2903.5000        15.1889        70.5027       68.75774         0.6476            0.7        38.2554         2.1287         0.7605        73.0806      -10.95324       -23.5039      0.7608029      0.8314887
      2904.0000        14.4208        68.4861        66.2681         0.6904         0.7296         41.335         2.1075         0.7263        74.3593      -8.861857       -21.0247       0.707832      0.8636637
      2904.5000        13.7044        66.8712        64.2744         0.7364         0.7605        41.5158         2.0984         0.7364        75.7387      -6.604764       -18.5503      0.6654127      0.8983883
      2905.0000        13.5945        66.7562       64.13244         0.7854         0.7963         40.122         2.1086         0.7675        76.8209      -4.836774       -16.0808      0.6623923      0.9255881
      2905.5000        13.5737        68.4411       66.21255         0.8149         0.8149        39.1499         2.1318            0.8        77.5061      -3.722146       -13.3699      0.7066501      0.9427362
      2906.0000        13.6024         69.926       68.04576         0.8416           0.83        38.7829          2.148         0.8037        77.7936      -3.262021       -10.9105      0.7456545      0.9498151
      2906.5000         13.651        71.5207       70.01453          0.869         0.8415        38.7189           2.16         0.8074        77.9818      -2.965337        -8.4559      0.7875431      0.9543794
      2907.0000        13.6599        72.1106       70.74281         0.8972         0.8414        39.4453          2.166         0.8074        77.8711      -3.160531        -6.0061      0.8030384      0.9513764
      2907.5000        13.6292        72.0965       70.72539          0.897         0.8413        39.5645          2.171         0.8111        77.6605      -3.520159        -3.5611      0.8026678      0.9458437
      2908.0000        13.5589        72.5865       71.33033         0.8765         0.8412        39.0745          2.178          0.811        77.0507       -4.53675        -1.1209      0.8155389      0.9302039
      2908.5000        13.4589        74.3879       73.55428         0.8412         0.8412        37.7293          2.192          0.811         75.941      -6.376045         1.3146      0.8628571       0.901907
      2909.0000        13.4084         75.384       74.78403         0.7818          0.811        36.5036          2.208          0.811        74.5306      -8.710207         3.7453       0.889022      0.8659968
      2909.5000        13.4074        74.8668       74.14552         0.7296         0.7675        35.8887          2.213          0.811        73.2188      -10.88211         6.1713      0.8754365       0.832583
      2910.0000        13.4064        74.4502        73.6312         0.7097         0.7296        36.1866          2.199          0.811        72.3055      -12.39819         8.5927      0.8644937      0.8092586
      2910.5000        13.4057        74.3406       73.49588         0.6838         0.6934        37.0452          2.175         0.8035        71.4975      -13.74097         9.2281      0.8616145      0.7886004
      2911.0000        13.4052        73.0225        71.8686         0.6586          0.671        38.3963          2.146         0.7815        70.8925      -14.74965         8.2668      0.8269914      0.7730823
      2911.5000        13.4047        70.2901       68.49527         0.6345         0.6647        40.2313         2.1149         0.7636        70.7874      -14.93564         7.3056      0.7552185      0.7702209
