#------------------------------------------------------------------------------
# Created by    : vladimir.rabinovich
# Created on    : 09/19/2023 17:20:26
#------------------------------------------------------------------------------
~Version Information Section
VERS.           2.0     :   CWLS log ASCII Standard - VERSION 2.0
WRAP.           NO      :   One line per depth step
~Well Information Section
#MNEM       .UNIT                                         VALUE :DESCRIPTION
#------------------------------------------------------------------------------
STRT        .FT                                             344 :START DEPTH
STOP        .FT                                           10034 :STOP DEPTH
STEP        .FT                                             0.5 :STEP      
NULL        .                                           -999.25 :NULL      
COMP        .                                        TEXACO USA :COMPANY   
WELL        .                                     ST TR 00136-S :WELL      
FLD         .                                           WILDCAT :FIELD     
LOC         .                                                   :LOCATION  
CNTY        .                           HIGH ISLAND SMALL BLOCK :LOCATION  
STAT        .                                             TEXAS :STATE     
CTRY        .                                     UNITED STATES :COUNTRY   
SRVC        .                                                   :SERVICE COMPANY
DATE        .                             9/13/2023 11:19:17 AM :LOG DATE  
API         .                                    42606000310000 :API NUMBER
UWI         .                                    42606000310000 :UNIQUE WELL ID
XCOORD      .                                  1183554.44061246 :SURFACE X 
YCOORD      .                                  10706170.1937531 :SURFACE Y 
LAT         .                                          29.49262 :LATITUDE  
LON         .                                       -94.4364494 :LONGITUDE 
ELEV        .FT                                              52 :ELEVATION VALUE
ELEV_TYPE   .                                                KB :ELEVATION REFERENCE TYPE
~Curve Information Section
#MNEM       .UNIT                                      API CODE :CURVE DESCRIPTION
#------------------------------------------------------------------------------
DEPT        .FT                                                 :DEPTH     
ASN         .OHMM                                               :          
CILD        .MMHO                                               :          
LAT         .OHMM                                               :          
LN          .OHMM                                               :          
SP          .MV                                                 :          
SP_NORM     .MV                                                 :SP Normalized
VSH_SP      .V/V                                                :Volume of Shale from SP
~A        DEPTH            ASN           CILD            LAT             LN             SP        SP_NORM         VSH_SP
# ...
      8719.0000         0.2511        -999.25          0.266         0.2604      -113.9771       -76.0105     0.04986877
      8719.5000          0.226        -999.25         0.2039         0.2551      -117.1334      -79.16908     0.01038647
      8720.0000         0.2083        -999.25         0.1879         0.2498      -119.0361      -81.07407              0
      8720.5000         0.2023        -999.25         0.2437         0.2445      -120.9388      -82.97903              0
      8721.0000         0.2328        -999.25         0.2994         0.2393       -121.463      -83.50552              0
      8721.5000         0.2771        -999.25          0.355          0.234       -121.702       -83.7468              0
      8722.0000         0.3369        -999.25          0.385         0.2287      -118.8086      -80.85568              0
      8722.5000         0.3732        -999.25         0.4147         0.2248       -113.571      -75.62035     0.05474558
      8723.0000         0.4034        -999.25         0.4443         0.2218      -108.9581      -71.00974      0.1123783
      8723.5000          0.419        -999.25          0.474         0.2187      -104.7914      -66.84531      0.1644337
      8724.0000         0.4201        -999.25         0.4574         0.2156      -101.6105      -63.66669      0.2041664
      8724.5000         0.4105        -999.25         0.4307         0.2126       -97.4838      -59.54227      0.2557216
      8725.0000         0.4008        -999.25          0.404         0.2095       -98.7507      -60.81145      0.2398569
      8725.5000         0.3946        -999.25         0.4021         0.2064      -107.6108      -69.67383      0.1290772
      8726.0000         0.3909        -999.25         0.4025         0.2034      -111.3717        -73.437     0.08203755
      8726.5000         0.3872        -999.25         0.4029         0.2003      -114.2938      -76.36138     0.04548273
      8727.0000         0.4372        -999.25         0.4166         0.1972      -111.9651      -74.03497     0.07456293
      8727.5000         0.4796        -999.25         0.4459         0.1942      -108.1105      -70.18263      0.1227171
      8728.0000         0.5151        -999.25         0.4753         0.1911      -103.4708      -65.54522      0.1806848
      8728.5000          0.513        -999.25         0.5046          0.188       -98.5455       -60.6222      0.2422225
      8729.0000          0.423        -999.25         0.4838          0.185       -93.0135      -55.09247      0.3113441
      8729.5000         0.3646        -999.25         0.4102         0.1819       -99.5984      -61.67965      0.2290044
      8730.0000         0.3219        -999.25         0.3366         0.1843      -104.9475      -67.03104       0.162112
      8730.5000         0.2907        -999.25         0.3027         0.1888      -108.8467      -70.93251      0.1133436
      8731.0000         0.2749        -999.25         0.2876         0.1933      -110.8564      -72.94449     0.08819389
      8731.5000         0.2829        -999.25          0.293         0.1977      -112.0922      -74.18257     0.07271786
      8732.0000         0.2984        -999.25         0.3028         0.2022      -111.6628      -73.75545     0.07805691
      8732.5000          0.323        -999.25         0.3126         0.2067      -110.1671      -72.26202      0.0967247
      8733.0000         0.3216        -999.25         0.3224         0.2112      -106.6383       -68.7355      0.1408062
      8733.5000          0.305        -999.25            0.3         0.2213      -102.0656      -64.16508      0.1979365
      8734.0000         0.2885        -999.25         0.2773         0.2318      -104.4388      -66.54056       0.168243
      8734.5000          0.272        -999.25         0.2546         0.2416      -107.9901      -70.09413      0.1238234
      8735.0000         0.2555        -999.25         0.2319         0.2471      -111.7197      -73.82602     0.07717476
      8735.5000         0.2371        -999.25         0.2133         0.2526      -115.4894      -77.59799      0.0300251
      8736.0000         0.2456        -999.25         0.1969         0.2581      -117.7736      -79.88447    0.001444149
      8736.5000         0.3243        -999.25         0.1804         0.2636      -119.2324      -81.34555              0
      8737.0000         0.3936        -999.25         0.1639         0.2691      -118.0903      -80.20573              0
      8737.5000         0.4279        -999.25         0.1475         0.2746       -114.798       -76.9157     0.03855371
      8738.0000         0.4563        -999.25         0.1311         0.2801       -112.371      -74.49098     0.06886272
      8738.5000         0.4716        -999.25         0.1146         0.2856      -112.1145      -74.23677     0.07204036
      8739.0000         0.4168        -999.25         0.1181         0.2911      -112.9565      -75.08104     0.06148701
      8739.5000         0.3729        -999.25         0.1253          0.293      -113.7986      -75.92542     0.05093231
      8740.0000         0.3293        -999.25         0.1324         0.2921      -114.4609         -76.59     0.04262505
      8740.5000         0.3063        -999.25         0.1396         0.2912      -114.5869      -76.71828     0.04102154
      8741.0000         0.2964        -999.25         0.1467         0.2902      -114.7126      -76.84625     0.03942185
      8741.5000         0.3054        -999.25         0.1539         0.2893      -114.3251      -76.46104     0.04423704
      8742.0000         0.3281        -999.25          0.161         0.2883      -111.7554      -73.89362      0.0763298
      8742.5000         0.3672        -999.25         0.1853         0.2782      -109.1857      -71.32619      0.1084227
      8743.0000         0.4198        -999.25         0.2386         0.2644       -106.616      -68.75877      0.1405154
      8743.5000         0.4866        -999.25         0.2919         0.2506       -95.0033      -57.14835      0.2856456
      8744.0000         0.5326        -999.25         0.3433         0.2521       -88.6594      -50.80673      0.3649159
      8744.5000         0.5786        -999.25         0.3889         0.2611       -82.8063       -44.9559      0.4380512
      8745.0000         0.6307        -999.25         0.4345         0.2701       -77.0691      -39.22098      0.5097377
      8745.5000         0.6782        -999.25         0.4801          0.279       -70.3236      -32.47776       0.594028
      8746.0000         0.7102        -999.25         0.4843          0.288       -65.9628      -28.11924      0.6485095
      8746.5000         0.7422        -999.25         0.4847          0.297       -63.0072      -25.16592      0.6854261
      8747.0000         0.7635        -999.25         0.4851         0.3069       -54.5308       -16.6918      0.7913526
      8747.5000         0.7846        -999.25         0.4786         0.3259       -31.7182       6.118526              1
      8748.0000          0.798        -999.25         0.4685          0.345       -29.8601       7.974346              1
      8748.5000         0.8062        -999.25         0.4584          0.364       -28.7804       9.051769              1
      8749.0000         0.8042        -999.25         0.4483          0.383       -31.1449       6.684992              1
      8749.5000         0.7967        -999.25          0.442         0.4021       -33.5138       4.313808              1
      8750.0000         0.7833        -999.25         0.4384         0.4105       -37.7744     0.05093384              1
      8750.5000         0.7613        -999.25         0.4348         0.4157       -42.5077      -4.684647      0.9414419
      8751.0000         0.7484        -999.25         0.4313         0.4209       -46.0767       -8.25592       0.896801
      8751.5000         0.7383        -999.25         0.4277         0.4261       -48.3876       -10.5691      0.8678862
      8752.0000         0.7239        -999.25         0.4241         0.4313       -50.3975      -12.58128       0.842734
