#------------------------------------------------------------------------------
# Created by    : vladimir.rabinovich
# Created on    : 09/19/2023 17:21:28
#------------------------------------------------------------------------------
~Version Information Section
VERS.           2.0     :   CWLS log ASCII Standard - VERSION 2.0
WRAP.           NO      :   One line per depth step
~Well Information Section
#MNEM       .UNIT                                         VALUE :DESCRIPTION
#------------------------------------------------------------------------------
STRT        .FT                                            2437 :START DEPTH
STOP        .FT                                            8654 :STOP DEPTH
STEP        .FT                                             0.5 :STEP      
NULL        .                                           -999.25 :NULL      
COMP        .                                      PELTO OIL CO :COMPANY   
WELL        .                                     ST TR 00163-S :WELL      
FLD         .                                           WILDCAT :FIELD     
LOC         .                                                   :LOCATION  
CNTY        .                             GALVESTON SMALL BLOCK :LOCATION  
STAT        .                                             TEXAS :STATE     
CTRY        .                                     UNITED STATES :COUNTRY   
SRVC        .                                                   :SERVICE COMPANY
DATE        .                             9/13/2023 11:19:17 AM :LOG DATE  
API         .                                    42605301550000 :API NUMBER
UWI         .                                    42605301550000 :UNIQUE WELL ID
XCOORD      .                                  1154226.19631992 :SURFACE X 
YCOORD      .                                  10687289.1653299 :SURFACE Y 
LAT         .                                        29.4396686 :LATITUDE  
LON         .                                       -94.5278571 :LONGITUDE 
ELEV        .FT                                             111 :ELEVATION VALUE
ELEV_TYPE   .                                                KB :ELEVATION REFERENCE TYPE
~Curve Information Section
#MNEM       .UNIT                                      API CODE :CURVE DESCRIPTION
#------------------------------------------------------------------------------
DEPT        .FT                                                 :DEPTH     
CALI        .IN                                                 :          
GR          .GAPI                                               :          
GR_NORM     .GAPI                                               :GammaRay Normalized
ILD         .OHMM                                               :          
ILM         .OHMM                                               :          
NPSS        .%                                                  :Neutron Porosity Sandstone
RHOB        .G/CM3                                              :          
SFL         .OHMM                                               :          
SP          .MV                                                 :          
SP_NORM     .GAPI                                               :SP Normalized
TENS        .LB                                                 :          
VSH_GR      .V/V                                                :Volume of Shale from GR
VSH_SP      .V/V                                                :Volume of Shale from SP
~A        DEPTH           CALI             GR        GR_NORM            ILD            ILM           NPSS           RHOB            SFL             SP        SP_NORM           TENS         VSH_GR         VSH_SP
# ...
      6579.0000        14.5998             50       34.50897         0.2484         0.2945        43.3663           1.96         0.7196        32.9466      -70.27926             20     0.03210571              0
      6579.5000        15.8016        50.3028       34.90666         0.2484         0.2945        44.1386         1.8757          0.687        32.9518      -70.27198             20      0.0405672              0
      6580.0000        15.8005         50.303       34.90692         0.2461         0.2932        46.0396         1.8569         0.7097        32.9569      -70.26484             20      0.0405728              0
      6580.5000          14.83        50.5107       35.17971         0.2416         0.2852        45.9802         1.8728         0.7466        33.1633      -69.97588        30.2956     0.04637673   0.0003445217
      6581.0000         13.901        50.2175       34.79462         0.2383           0.28         43.901         1.9252         0.7675        33.3673      -69.69028        50.7882      0.0381835    0.004424504
      6581.5000        12.4949        49.0255       33.22909         0.2383         0.2736          41.82          1.988         0.7605        33.5714      -69.40454        61.2808     0.00487429    0.008506557
      6582.0000        12.5657        48.6353       32.71661         0.2383         0.2711          39.48          2.023         0.7398        33.5714      -69.40454        61.7734              0    0.008506557
      6582.5000         13.604        49.8451       34.30553         0.2372         0.2749          40.38          2.036         0.7196        33.5714      -69.40454        -57.734     0.02777717    0.008506557
      6583.0000          14.66        50.9601       35.76993         0.2383           0.28        42.2376          2.022         0.7229        33.3673      -69.69028       -47.2414     0.05893472    0.004424504
      6583.5000        15.1629        51.0694       35.91349         0.2394         0.2865        43.9604          1.999         0.7196        33.2653      -69.83308       -46.7488     0.06198915    0.002384513
      6584.0000        15.1823        49.5755       33.95145         0.2438         0.2959         45.505         1.9292         0.7097        33.2653      -69.83308       -46.2069     0.02024354    0.002384513
      6584.5000         15.192        48.9853       33.17629         0.2484         0.3041        46.0396          1.852         0.6967        33.2653      -69.83308       -45.7143    0.003750903    0.002384513
      6585.0000        15.6247        49.2951       33.58317         0.2541         0.3126        44.5545          1.819          0.687        33.3673      -69.69028       -45.2217     0.01240791    0.004424504
      6585.5000        15.3656        50.4056       35.04168         0.2565         0.3126          41.52         1.8797         0.7097        33.6735       -69.2616       -34.7291     0.04343991     0.01054851
      6586.0000        13.8416        51.0141       35.84086         0.2577         0.3126           38.4          1.946         0.7432        33.9796      -68.83306       -34.2365      0.0604438     0.01667055
      6586.5000        12.7778        52.1201       37.29344         0.2553         0.3014        35.2773          2.021         0.7818        34.1837      -68.54732       -33.7438     0.09134983     0.02075261
      6587.0000        12.7273        53.1243       38.61233         0.2518         0.2932        34.5553          2.062          0.789        34.3878      -68.26158        -33.202      0.1194112     0.02483455
      6587.5000        12.3333        54.7238       40.71307         0.2449           0.28         34.556         2.0881         0.7746        34.5918      -67.97598       -32.7094      0.1641079     0.02891453
      6588.0000        11.6531        55.9228       42.28779         0.2383         0.2761        34.9176         2.1061          0.757        34.6939      -67.83304       -32.2167      0.1976126      0.0309566
      6588.5000        11.3571        55.5294       41.77112         0.2328         0.2686          36.36         2.1011          0.733        34.7959      -67.69025       -21.7241      0.1866195     0.03299648
      6589.0000        11.9592        55.0375       41.12507         0.2307         0.2698          37.98          2.045         0.6903         35.102       -67.2617       -21.2315      0.1728738     0.03911852
      6589.5000        13.0495        53.3567       38.91756         0.2372         0.2787          39.12          1.968         0.6316        35.5102      -66.69022       -20.7389      0.1259055     0.04728252
      6590.0000        13.4158        51.0848       35.93371         0.2461            0.3          39.06         1.8856         0.5812        35.6122      -66.54742       -20.2463      0.0624194     0.04932262
      6590.5000        12.8583        49.2025       33.46156         0.2612         0.3212         37.923         1.8349         0.5758        36.2265       -65.6874       -19.4975    0.009820329     0.06160856
      6591.0000        12.2019        48.7075       32.81144         0.2799         0.3455         36.609         1.8656         0.6403        37.2492      -64.25562        -8.4925              0     0.08206253
      6591.5000         11.196        50.7064       35.43673         0.3026         0.3649        35.2351         1.9478         0.7496        38.6769      -62.25684        -7.4874     0.05184539      0.1106165
      6592.0000        10.5274         56.266       42.73854         0.3254         0.3853        33.6213         2.0556         0.8912             40       -60.4045        -6.4824       0.207203      0.1370785
      6592.5000        10.5083         62.281       50.63847         0.3406         0.3888        31.9474         2.1635          0.933        41.2093      -58.71148        -5.4774      0.3752865      0.1612646
      6593.0000        10.5091        63.8103         52.647         0.3499         0.3834        30.7535         2.2264          0.863        41.7124      -58.00714        -4.4724      0.4180214      0.1713265
      6593.5000        10.5198        61.6885       49.86029         0.3451          0.373        30.7595         2.2173         0.7806        41.2081      -58.71316        -3.4673      0.3587296      0.1612405
      6594.0000        10.5305        59.8765       47.48047         0.3372         0.3628        31.7255         2.1982          0.725        40.6037      -59.55932         7.5377      0.3080951      0.1491525
      6594.5000        10.5213        58.9916       46.31826         0.3296         0.3545        31.7315         2.1902         0.7316        40.5029      -59.70044         8.5427      0.2833673      0.1471365
      6595.0000        10.5022        58.8021       46.06939         0.3265         0.3544        31.6175         2.1921         0.7553        40.5026      -59.70086         9.5477      0.2780721      0.1471306
      6595.5000        10.5029        58.9111       46.21254          0.322         0.3576        31.6235         2.1929          0.738        40.3014      -59.98254        10.5528      0.2811179      0.1431065
      6596.0000        10.5037        58.9197       46.22383         0.3278         0.3592        31.8095         2.1898         0.7014        39.5966      -60.96926        11.5578      0.2813582      0.1290106
      6596.5000        10.5044         58.431       45.58199         0.3384         0.3674        32.4755         2.1898         0.6568         39.194       -61.5329        12.5628       0.267702      0.1209585
      6597.0000        10.5151        57.8422       44.80868         0.3525         0.3775        33.5015         2.1926         0.6209        38.4903      -62.51808        13.5678      0.2512485      0.1068845
      6597.5000        10.5158         57.552       44.42754         0.3774         0.3969        34.7675         2.1946         0.6121         38.894       -61.9529        14.5729      0.2431391      0.1149586
