#------------------------------------------------------------------------------
# Created by    : vladimir.rabinovich
# Created on    : 09/19/2023 17:20:26
#------------------------------------------------------------------------------
~Version Information Section
VERS.           2.0     :   CWLS log ASCII Standard - VERSION 2.0
WRAP.           NO      :   One line per depth step
~Well Information Section
#MNEM       .UNIT                                         VALUE :DESCRIPTION
#------------------------------------------------------------------------------
STRT        .FT                                             500 :START DEPTH
STOP        .FT                                            8974 :STOP DEPTH
STEP        .FT                                             0.5 :STEP      
NULL        .                                           -999.25 :NULL      
COMP        .                                    G M A OFFSHORE :COMPANY   
WELL        .                                     ST TR 00112-S :WELL      
FLD         .                                           WILDCAT :FIELD     
LOC         .                                                   :LOCATION  
CNTY        .                           HIGH ISLAND SMALL BLOCK :LOCATION  
STAT        .                                             TEXAS :STATE     
CTRY        .                                     UNITED STATES :COUNTRY   
SRVC        .                                                   :SERVICE COMPANY
DATE        .                             9/13/2023 11:19:17 AM :LOG DATE  
API         .                                    42606300040000 :API NUMBER
UWI         .                                    42606300040000 :UNIQUE WELL ID
XCOORD      .                                   1218436.6654802 :SURFACE X 
YCOORD      .                                  10720928.6649768 :SURFACE Y 
LAT         .                                        29.5343489 :LATITUDE  
LON         .                                        -94.327329 :LONGITUDE 
ELEV        .FT                                              63 :ELEVATION VALUE
ELEV_TYPE   .                                                KB :ELEVATION REFERENCE TYPE
~Curve Information Section
#MNEM       .UNIT                                      API CODE :CURVE DESCRIPTION
#------------------------------------------------------------------------------
DEPT        .FT                                                 :DEPTH     
ASN         .OHMM                                               :          
CILD        .MMHO                                               :          
GR          .GAPI                                               :          
GR_NORM     .GAPI                                               :GammaRay Normalized
ILD         .OHMM                                               :          
SP          .MV                                                 :          
SP_NORM     .MV                                                 :SP Normalized
VSH_GR      .V/V                                                :Volume of Shale from GR
VSH_SP      .V/V                                                :Volume of Shale from SP
~A        DEPTH            ASN           CILD             GR        GR_NORM            ILD             SP        SP_NORM         VSH_GR         VSH_SP
# ...
      2752.5000         0.0926       3354.863        31.2231       35.91557         0.4666        -45.555        -999.25     0.06203339        -999.25
      2753.0000         0.0932       3346.164        32.8929       38.21321         0.4677        -45.441        -999.25      0.1109193        -999.25
      2753.5000         0.0937       3335.266        34.6295       40.60277         0.4662       -45.4453        -999.25       0.161761        -999.25
      2754.0000         0.0943       3310.734        35.0702       41.20917         0.4647       -45.5291        -999.25      0.1746632        -999.25
      2754.5000         0.0948       3286.211        34.6719       40.66111         0.4632       -45.6129        -999.25      0.1630024        -999.25
      2755.0000         0.0954       3265.246        34.2737       40.11319         0.4617       -45.6967        -999.25      0.1513444        -999.25
      2755.5000         0.0959       3249.238        33.8754       39.56512         0.4602       -45.7805        -999.25      0.1396835        -999.25
      2756.0000         0.0964       3259.988        33.5583        39.1288         0.4587       -45.8643        -999.25      0.1303999        -999.25
      2756.5000          0.097       3292.457        34.8967       40.97043         0.4573       -45.9481        -999.25      0.1695836        -999.25
      2757.0000         0.0975       3324.938         36.235       42.81192         0.4558       -46.0466        -999.25      0.2087643        -999.25
      2757.5000         0.0981       3358.109        37.5778       44.65961         0.4543       -46.4382        -999.25      0.2480769        -999.25
      2758.0000         0.0975       3476.855        38.9919       46.60541         0.4528       -46.8296        -999.25      0.2894768        -999.25
      2758.5000         0.0969       3556.289        38.4985       45.92649         0.4513       -47.2211        -999.25      0.2750317        -999.25
      2759.0000         0.0964       3615.289        38.0051       45.24758         0.4498       -47.5946        -999.25      0.2605868        -999.25
      2759.5000         0.0958       3641.086        37.5114       44.56824         0.4589       -47.9233        -999.25      0.2461328        -999.25
      2760.0000         0.0952       3398.363        37.0179       43.88919         0.4695       -48.2519        -999.25      0.2316848        -999.25
      2760.5000         0.0947       3338.223        36.5074       43.18675         0.4801       -48.5804        -999.25      0.2167393        -999.25
      2761.0000         0.0967       3204.902        37.5052       44.55972         0.5689        -48.909        -999.25      0.2459514        -999.25
      2761.5000         0.0989       2875.641        39.6093       47.45494         0.6665        -48.981        -999.25       0.307552        -999.25
      2762.0000         0.1012       2554.023        41.8652       50.55906         0.7641       -49.0304        -999.25      0.3735969        -999.25
      2762.5000         0.1035        2232.41        44.1205       53.66233           0.83       -49.0798        -999.25      0.4396241        -999.25
      2763.0000         0.1029       2068.352        46.3765       56.76658          0.891       -49.1292        -999.25       0.505672        -999.25
      2763.5000         0.1013       2017.957        48.6452       59.88831         0.9519       -48.9973        -999.25      0.5720917        -999.25
      2764.0000         0.0997       1884.125        51.3188       63.56717         0.9833        -48.855        -999.25      0.6503653        -999.25
      2764.5000         0.0985           1621        55.8503       69.80248         0.9791       -48.7126        -999.25      0.7830315        -999.25
      2765.0000         0.0998       1357.875        61.6287       77.75356         0.9645       -48.5702        -999.25      0.9522033        -999.25
      2765.5000         0.1011       1137.771        59.5419       74.88213         0.9387       -48.4279        -999.25      0.8911092        -999.25
      2766.0000         0.1023       1160.504        57.4521       72.00657         0.9128       -48.2855        -999.25       0.829927        -999.25
      2766.5000         0.1036       1183.238        54.7964       68.35235         0.8869       -48.1904        -999.25      0.7521776        -999.25
      2767.0000         0.1049       1205.982        53.0936       66.00928          0.861       -48.3141        -999.25      0.7023252        -999.25
      2767.5000         0.1062       1245.402        51.5823       63.92974          0.869       -48.4377        -999.25      0.6580796        -999.25
      2768.0000         0.1074       1286.424         50.125       61.92451         0.8789       -48.5613        -999.25       0.615415        -999.25
      2768.5000         0.1086       1321.658        49.2994       60.78849         0.9453       -48.6851        -999.25      0.5912444        -999.25
      2769.0000         0.1098       1056.672        48.4738       59.65246          1.014        -48.825        -999.25      0.5670736        -999.25
      2769.5000         0.1109       1023.102        47.6482       58.51644         1.1091       -48.9542        -999.25       0.542903        -999.25
      2770.0000         0.1121       987.3691        46.4558        56.8757         1.2128       -48.5976        -999.25      0.5079936        -999.25
      2770.5000         0.1133       961.7559        47.0591       57.70584         1.3166       -48.2408        -999.25      0.5256562        -999.25
      2771.0000         0.1145       916.2148        47.8102       58.73934         1.3968        -47.884        -999.25      0.5476455        -999.25
      2771.5000         0.1157       862.4053        48.5618       59.77354         1.4544       -47.6899        -999.25      0.5696499        -999.25
      2772.0000         0.1169       808.5713        49.3132       60.80748          1.512       -47.7092        -999.25      0.5916484        -999.25
      2772.5000         0.1181       754.7373          50.07       61.84882         1.5696       -47.7285        -999.25      0.6138047        -999.25
      2773.0000         0.1192       700.9033        49.9304       61.65675         1.5972       -47.7478        -999.25      0.6097181        -999.25
      2773.5000         0.1204       647.0938        47.9791       58.97174         1.6215       -47.7671        -999.25      0.5525903        -999.25
      2774.0000         0.1216       649.7822        48.0573       59.07935         1.6469       -47.7864        -999.25      0.5548798        -999.25
      2774.5000         0.1229       671.6025        48.7646        60.0526         1.6446       -47.7686        -999.25      0.5755873        -999.25
      2775.0000         0.1245       694.3477        49.4716       61.02543         1.5605       -47.7087        -999.25      0.5962858        -999.25
      2775.5000         0.1261       722.3945        50.1276       61.92808         1.4764       -47.6489        -999.25      0.6154911        -999.25
      2776.0000         0.1277       755.0605         50.529       62.48041         1.3887       -47.5891        -999.25      0.6272428        -999.25
      2776.5000         0.1293       793.0518        50.9306       63.03301         1.2956       -47.5292        -999.25      0.6390002        -999.25
      2777.0000         0.1308       839.0146        51.3322        63.5856         1.2024       -47.4694        -999.25      0.6507575        -999.25
      2777.5000          0.131       913.0859        51.2996       63.54076         1.1092       -47.4096        -999.25      0.6498033        -999.25
      2778.0000         0.1291       988.6973        50.9534       63.06437          1.016       -47.3013        -999.25      0.6396675        -999.25
      2778.5000         0.1272       1236.488        50.6074       62.58828         0.9228       -47.1728        -999.25      0.6295379        -999.25
