#------------------------------------------------------------------------------
# Created by    : vladimir.rabinovich
# Created on    : 09/19/2023 17:20:26
#------------------------------------------------------------------------------
~Version Information Section
VERS.           2.0     :   CWLS log ASCII Standard - VERSION 2.0
WRAP.           NO      :   One line per depth step
~Well Information Section
#MNEM       .UNIT                                         VALUE :DESCRIPTION
#------------------------------------------------------------------------------
STRT        .FT                                             344 :START DEPTH
STOP        .FT                                           10034 :STOP DEPTH
STEP        .FT                                             0.5 :STEP      
NULL        .                                           -999.25 :NULL      
COMP        .                                        TEXACO USA :COMPANY   
WELL        .                                     ST TR 00136-S :WELL      
FLD         .                                           WILDCAT :FIELD     
LOC         .                                                   :LOCATION  
CNTY        .                           HIGH ISLAND SMALL BLOCK :LOCATION  
STAT        .                                             TEXAS :STATE     
CTRY        .                                     UNITED STATES :COUNTRY   
SRVC        .                                                   :SERVICE COMPANY
DATE        .                             9/13/2023 11:19:17 AM :LOG DATE  
API         .                                    42606000310000 :API NUMBER
UWI         .                                    42606000310000 :UNIQUE WELL ID
XCOORD      .                                  1183554.44061246 :SURFACE X 
YCOORD      .                                  10706170.1937531 :SURFACE Y 
LAT         .                                          29.49262 :LATITUDE  
LON         .                                       -94.4364494 :LONGITUDE 
ELEV        .FT                                              52 :ELEVATION VALUE
ELEV_TYPE   .                                                KB :ELEVATION REFERENCE TYPE
~Curve Information Section
#MNEM       .UNIT                                      API CODE :CURVE DESCRIPTION
#------------------------------------------------------------------------------
DEPT        .FT                                                 :DEPTH     
ASN         .OHMM                                               :          
CILD        .MMHO                                               :          
LAT         .OHMM                                               :          
LN          .OHMM                                               :          
SP          .MV                                                 :          
SP_NORM     .MV                                                 :SP Normalized
VSH_SP      .V/V                                                :Volume of Shale from SP
~A        DEPTH            ASN           CILD            LAT             LN             SP        SP_NORM         VSH_SP
# ...
      9992.0000         0.8196       1457.211        -999.25          0.662       -51.7551      -6.801258      0.9149843
      9992.5000         0.8079       1464.461        -999.25          0.662        -51.941      -6.948002        0.91315
      9993.0000         0.7901       1468.389        -999.25          0.662        -52.127      -7.094837      0.9113145
      9993.5000         0.7688       1472.316        -999.25         0.6621       -52.1663      -7.094982      0.9113127
      9994.0000         0.7475        1468.75        -999.25         0.6621          -52.2      -7.089523      0.9113809
      9994.5000         0.7379       1461.172        -999.25         0.6621       -52.2335      -7.083862      0.9114517
      9995.0000         0.7689       1453.604        -999.25         0.6621       -52.2672      -7.078403      0.9115199
      9995.5000            0.8       1437.719        -999.25         0.6621       -52.3009      -7.072941      0.9115883
      9996.0000          0.825       1420.219        -999.25         0.6621       -52.3345      -7.067383      0.9116577
      9996.5000         0.8452       1402.098        -999.25         0.6621       -52.3409      -7.034626      0.9120672
      9997.0000         0.8654       1383.646        -999.25         0.6622       -52.0275      -6.682064      0.9164742
      9997.5000         0.8818       1367.031        -999.25         0.6622       -51.7141      -6.329506      0.9208812
      9998.0000          0.893       1355.502        -999.25         0.6622       -51.4007      -5.976944      0.9252882
      9998.5000         0.9041       1366.564        -999.25         0.6622       -51.0873      -5.624386      0.9296952
      9999.0000          0.864       1389.311        -999.25         0.6619        -50.528      -5.025928      0.9371759
      9999.5000         0.8143       1417.496        -999.25         0.6615       -49.9313      -4.390068      0.9451241
     10000.0000         0.7623       1455.551        -999.25         0.6611       -50.1956      -4.615208      0.9423099
     10000.5000          0.706       1498.031        -999.25         0.6607       -50.8514      -5.231846      0.9346019
     10001.0000         0.6693       1532.148        -999.25         0.6603       -51.4448      -5.786091      0.9276739
     10001.5000          0.684       1567.592        -999.25         0.6599       -51.9789      -6.281033      0.9214871
     10002.0000         0.6986        1579.76        -999.25         0.6595       -52.5143      -6.777271      0.9152841
     10002.5000         0.7132       1569.273        -999.25         0.6591       -53.0486      -7.272411      0.9090949
     10003.0000         0.7278       1559.273        -999.25         0.6587       -53.5828      -7.767456      0.9029068
     10003.5000         0.7424       1549.271        -999.25         0.6583        -54.117      -8.262493      0.8967189
     10004.0000         0.7445       1542.209        -999.25         0.6579       -54.6524      -8.758736      0.8905158
     10004.5000         0.7453       1539.432        -999.25         0.6575       -54.4846      -8.551773      0.8931028
     10005.0000          0.746        1536.66        -999.25         0.6572       -54.2648      -8.292816      0.8963398
     10005.5000         0.7444       1536.563        -999.25         0.6568       -54.0448      -8.033657      0.8995793
     10006.0000         0.7413       1539.914        -999.25         0.6564       -53.8248      -7.774494      0.9028188
     10006.5000         0.7381       1543.271        -999.25          0.656       -53.6048      -7.515339      0.9060583
     10007.0000          0.735       1548.441        -999.25         0.6556       -53.3851      -7.256477       0.909294
     10007.5000         0.7326       1553.961        -999.25         0.6572       -53.1584       -6.99062      0.9126173
     10008.0000         0.7313       1559.039        -999.25         0.6591       -52.9114       -6.70446      0.9161943
     10008.5000         0.7299       1562.668        -999.25          0.661       -52.6643      -6.418198      0.9197725
     10009.0000         0.7286       1566.303        -999.25         0.6629       -52.4173      -6.132042      0.9233495
     10009.5000         0.7272       1559.748        -999.25         0.6648       -52.1702      -5.845779      0.9269277
     10010.0000         0.7278       1551.285        -999.25         0.6667       -51.9227       -5.55912       0.930511
     10010.5000         0.7338       1542.822        -999.25         0.6686       -51.6756      -5.272861      0.9340892
     10011.0000         0.7398       1531.527        -999.25         0.6705       -51.4286      -4.986702      0.9376662
     10011.5000          0.746       1518.984        -999.25         0.6724       -51.1815      -4.700443      0.9412445
     10012.0000         0.7596       1506.416        -999.25         0.6743       -51.0092      -4.488983      0.9438877
     10012.5000         0.7732       1493.494        -999.25         0.6762       -50.8416      -4.282223      0.9464722
     10013.0000         0.7867        1480.33        -999.25         0.6781       -50.6741      -4.075565      0.9490554
     10013.5000         0.7934       1467.564        -999.25           0.68       -50.5062      -3.868504      0.9516437
     10014.0000            0.8       1456.414        -999.25         0.6819       -50.3386      -3.661747      0.9542282
     10014.5000         0.7966       1451.326        -999.25         0.6838        -50.171       -3.45499      0.9568126
     10015.0000         0.7905       1453.775        -999.25         0.6857       -50.0032      -3.248028      0.9593996
     10015.5000         0.7844       1456.297        -999.25         0.6876       -49.8356      -3.041271      0.9619841
     10016.0000         0.7788       1460.115        -999.25         0.6897        -49.668      -2.834507      0.9645687
     10016.5000         0.7739       1463.926        -999.25         0.6917       -49.5005       -2.62785      0.9671519
     10017.0000         0.7689       1467.736        -999.25         0.6937       -49.3354      -2.423592      0.9697051
     10017.5000          0.764       1469.279        -999.25         0.6957         -49.17      -2.219028      0.9722621
     10018.0000          0.759        1464.18        -999.25         0.6978       -49.0047      -2.014572      0.9748179
     10018.5000         0.7543       1459.092        -999.25         0.6998       -48.8397       -1.81041      0.9773699
     10019.0000         0.7708       1454.002        -999.25         0.7018       -48.6743      -1.605854      0.9799268
     10019.5000         0.7888       1439.797        -999.25         0.7039        -48.509      -1.401394      0.9824826
     10020.0000         0.8088       1421.678        -999.25         0.7059        -48.621      -1.474232      0.9815721
     10020.5000         0.8281        1403.58        -999.25         0.7079       -48.7546      -1.568676      0.9803916
     10021.0000          0.833       1385.461        -999.25         0.7099       -48.7317      -1.506615      0.9811673
     10021.5000         0.8318        1372.25        -999.25          0.712       -48.6884      -1.424156      0.9821981
     10022.0000         0.8281       1378.977        -999.25         0.7136       -48.6451      -1.341698      0.9832288
     10022.5000         0.8238       1385.703        -999.25         0.7151       -48.5984      -1.255836       0.984302
     10023.0000         0.8195       1392.439        -999.25         0.7166       -48.3665     -0.9847794      0.9876903
     10023.5000         0.8153       1397.672        -999.25          0.718       -48.1345     -0.7136154      0.9910798
     10024.0000         0.8108       1402.584        -999.25         0.7195       -47.9025     -0.4424591      0.9944693
     10024.5000          0.806       1407.496        -999.25          0.721       -47.6702     -0.1710014      0.9978625
     10025.0000         0.8012       1412.396        -999.25         0.7224       -47.4382      0.1001587              1
