#------------------------------------------------------------------------------
# Created by    : vladimir.rabinovich
# Created on    : 09/19/2023 17:19:42
#------------------------------------------------------------------------------
~Version Information Section
VERS.           2.0     :   CWLS log ASCII Standard - VERSION 2.0
WRAP.           NO      :   One line per depth step
~Well Information Section
#MNEM       .UNIT                                         VALUE :DESCRIPTION
#------------------------------------------------------------------------------
STRT        .FT                                             583 :START DEPTH
STOP        .FT                                            6498 :STOP DEPTH
STEP        .FT                                             0.5 :STEP      
NULL        .                                           -999.25 :NULL      
COMP        .                                        EXXON CORP :COMPANY   
WELL        .                                     ST TR 00692-S :WELL      
FLD         .                                           WILDCAT :FIELD     
LOC         .                                                   :LOCATION  
CNTY        .                      MATAGORDA ISLAND SMALL BLOCK :LOCATION  
STAT        .                                             TEXAS :STATE     
CTRY        .                                     UNITED STATES :COUNTRY   
SRVC        .                                                   :SERVICE COMPANY
DATE        .                             9/13/2023 11:19:17 AM :LOG DATE  
API         .                                    42603301950000 :API NUMBER
UWI         .                                    42603301950000 :UNIQUE WELL ID
XCOORD      .                                  518375.599551337 :SURFACE X 
YCOORD      .                                  10266878.6313095 :SURFACE Y 
LAT         .                                        28.2472954 :LATITUDE  
LON         .                                       -96.4850657 :LONGITUDE 
ELEV        .FT                                              89 :ELEVATION VALUE
ELEV_TYPE   .                                                KB :ELEVATION REFERENCE TYPE
~Curve Information Section
#MNEM       .UNIT                                      API CODE :CURVE DESCRIPTION
#------------------------------------------------------------------------------
DEPT        .FT                                                 :DEPTH     
ASFL        .OHMM                                               :          
CILD        .MMHO                                               :          
GR          .GAPI                                               :          
GR_NORM     .GAPI                                               :GammaRay Normalized
ILD         .OHMM                                               :          
SP          .MV                                                 :          
SP_NORM     .MV                                                 :SP Normalized
VSH_GR      .V/V                                                :Volume of Shale from GR
VSH_SP      .V/V                                                :Volume of Shale from SP
~A        DEPTH           ASFL           CILD             GR        GR_NORM            ILD             SP        SP_NORM         VSH_GR         VSH_SP
# ...
      6466.0000         0.7595       1753.897        59.3124       65.26205         0.5894          -3.68      -1.270361      0.6864267      0.9960817
      6466.5000         0.7609        1754.88        59.1139          64.87          0.583          -3.68      -1.270361       0.678085      0.9960817
      6467.0000         0.7627       1755.862        60.3023       67.21722         0.5766           -3.6      -1.190361       0.728026      0.9972411
      6467.5000         0.7628       1757.216        61.3916       69.36873         0.5712          -3.52      -1.110361      0.7738028      0.9984006
      6468.0000         0.7568       1763.166        61.8855       70.34425         0.5713          -3.36     -0.9503613      0.7945584              1
      6468.5000         0.7538       1774.004        62.3795       71.31995         0.5713          -3.28     -0.8703613      0.8153182              1
      6469.0000         0.7508       1784.841        62.7769       72.10485         0.5714          -3.12     -0.7103612      0.8320181              1
      6469.5000         0.7479       1795.679        62.7762       72.10349         0.5615          -3.04     -0.6303613       0.831989              1
      6470.0000         0.7449       1806.516        62.0819       70.73217         0.5616          -2.88     -0.4703615      0.8028122              1
      6470.5000         0.7419       1817.354        60.2976       67.20795         0.5622          -2.72     -0.3103614      0.7278288              1
      6471.0000         0.7389       1828.192        59.1078       64.85794         0.5628          -2.72     -0.3103614      0.6778286              1
      6471.5000         0.7359       1839.029         59.008       64.66085         0.5634          -2.72     -0.3103614      0.6736351              1
      6472.0000         0.7329       1849.867        59.2056       65.05111         0.5641          -2.72     -0.3103614      0.6819385              1
      6472.5000         0.7299        1864.73        59.5022       65.63694         0.5647           -2.8     -0.3903613       0.694403              1
      6473.0000          0.727       1880.616        60.9879       68.57139         0.5653          -2.88     -0.4703615       0.756838              1
      6473.5000          0.724       1896.502        62.1763       70.91859         0.5659          -2.96     -0.5503614      0.8067786              1
      6474.0000          0.721       1912.388        62.2748       71.11316         0.5665          -3.04     -0.6303613      0.8109183              1
      6474.5000          0.718       1928.274        -999.25        -999.25         0.5671          -3.12     -0.7103612        -999.25              1
      6475.0000          0.715        1944.16        -999.25        -999.25         0.5677          -3.12     -0.7103612        -999.25              1
      6475.5000          0.712       1960.046        -999.25        -999.25         0.5683           -3.2     -0.7903614        -999.25              1
      6476.0000         0.7091       1975.932        -999.25        -999.25         0.5689          -3.28     -0.8703613        -999.25              1
      6476.5000         0.7054       1991.818        -999.25        -999.25         0.5696          -3.36     -0.9503613        -999.25              1
      6477.0000         0.7054       2007.704        -999.25        -999.25         0.5702          -3.36     -0.9503613        -999.25              1
      6477.5000         0.7034       2019.838        -999.25        -999.25         0.5708           -3.2     -0.7903614        -999.25              1
      6478.0000         0.7018       2019.881        -999.25        -999.25         0.5714          -3.12     -0.7103612        -999.25              1
      6478.5000         0.7002       2019.925        -999.25        -999.25         0.5328          -3.04     -0.6303613        -999.25              1
      6479.0000         0.6986       2019.968        -999.25        -999.25          0.536          -2.88     -0.4703615        -999.25              1
      6479.5000         0.6975       2014.063        -999.25        -999.25           0.54           -2.8     -0.3903613        -999.25              1
      6480.0000         0.6955       2014.106        -999.25        -999.25          0.544          -2.72     -0.3103614        -999.25              1
      6480.5000         0.6955       2008.179        -999.25        -999.25        -999.25          -2.56     -0.1503613        -999.25              1
      6481.0000         0.6975       1971.809        -999.25        -999.25        -999.25          -2.48    -0.07036138        -999.25              1
      6481.5000         0.6995       1935.439        -999.25        -999.25        -999.25           -2.4    0.009638548        -999.25              1
      6482.0000         0.7054       1899.069        -999.25        -999.25        -999.25          -2.16      0.2496386        -999.25              1
      6482.5000         0.7193       1862.698        -999.25        -999.25        -999.25          -2.16      0.2496386        -999.25              1
      6483.0000         0.7352       1826.328        -999.25        -999.25        -999.25          -2.16      0.2496386        -999.25              1
      6483.5000         0.7431       1789.958        -999.25        -999.25        -999.25          -2.16      0.2496386        -999.25              1
      6484.0000          0.759       1746.814        -999.25        -999.25        -999.25          -2.24      0.1696386        -999.25              1
      6484.5000         0.7828       1740.889        -999.25        -999.25        -999.25          -2.24      0.1696386        -999.25              1
      6485.0000         0.7986       1734.964        -999.25        -999.25        -999.25          -2.32     0.08963871        -999.25              1
      6485.5000         0.8125       1729.084        -999.25        -999.25        -999.25           -2.4    0.009638548        -999.25              1
      6486.0000         0.8224       1723.182        -999.25        -999.25        -999.25           -2.4    0.009638548        -999.25              1
      6486.5000         0.8264       1718.101        -999.25        -999.25        -999.25          -2.48    -0.07036138        -999.25              1
      6487.0000         0.8324       1717.325        -999.25        -999.25        -999.25          -2.56     -0.1503613        -999.25              1
      6487.5000         0.8403       1711.423        -999.25        -999.25        -999.25          -2.56     -0.1503613        -999.25              1
      6488.0000         0.8423       1711.469        -999.25        -999.25        -999.25          -2.56     -0.1503613        -999.25              1
      6488.5000         0.8443        -999.25        -999.25        -999.25        -999.25          -2.56     -0.1503613        -999.25              1
      6489.0000         0.8443        -999.25        -999.25        -999.25        -999.25          -2.48    -0.07036138        -999.25              1
      6489.5000         0.8443        -999.25        -999.25        -999.25        -999.25           -2.4    0.009638548        -999.25              1
      6490.0000         0.8383        -999.25        -999.25        -999.25        -999.25          -2.32     0.08963871        -999.25              1
      6490.5000        -999.25        -999.25        -999.25        -999.25        -999.25          -2.24      0.1696386        -999.25              1
      6491.0000        -999.25        -999.25        -999.25        -999.25        -999.25          -2.08      0.3296387        -999.25              1
      6491.5000        -999.25        -999.25        -999.25        -999.25        -999.25             -2      0.4096386        -999.25              1
      6492.0000        -999.25        -999.25        -999.25        -999.25        -999.25          -2.16      0.2496386        -999.25              1
