#------------------------------------------------------------------------------
# Created by    : vladimir.rabinovich
# Created on    : 09/19/2023 17:20:26
#------------------------------------------------------------------------------
~Version Information Section
VERS.           2.0     :   CWLS log ASCII Standard - VERSION 2.0
WRAP.           NO      :   One line per depth step
~Well Information Section
#MNEM       .UNIT                                         VALUE :DESCRIPTION
#------------------------------------------------------------------------------
STRT        .FT                                             500 :START DEPTH
STOP        .FT                                            8974 :STOP DEPTH
STEP        .FT                                             0.5 :STEP      
NULL        .                                           -999.25 :NULL      
COMP        .                                    G M A OFFSHORE :COMPANY   
WELL        .                                     ST TR 00112-S :WELL      
FLD         .                                           WILDCAT :FIELD     
LOC         .                                                   :LOCATION  
CNTY        .                           HIGH ISLAND SMALL BLOCK :LOCATION  
STAT        .                                             TEXAS :STATE     
CTRY        .                                     UNITED STATES :COUNTRY   
SRVC        .                                                   :SERVICE COMPANY
DATE        .                             9/13/2023 11:19:17 AM :LOG DATE  
API         .                                    42606300040000 :API NUMBER
UWI         .                                    42606300040000 :UNIQUE WELL ID
XCOORD      .                                   1218436.6654802 :SURFACE X 
YCOORD      .                                  10720928.6649768 :SURFACE Y 
LAT         .                                        29.5343489 :LATITUDE  
LON         .                                        -94.327329 :LONGITUDE 
ELEV        .FT                                              63 :ELEVATION VALUE
ELEV_TYPE   .                                                KB :ELEVATION REFERENCE TYPE
~Curve Information Section
#MNEM       .UNIT                                      API CODE :CURVE DESCRIPTION
#------------------------------------------------------------------------------
DEPT        .FT                                                 :DEPTH     
ASN         .OHMM                                               :          
CILD        .MMHO                                               :          
GR          .GAPI                                               :          
GR_NORM     .GAPI                                               :GammaRay Normalized
ILD         .OHMM                                               :          
SP          .MV                                                 :          
SP_NORM     .MV                                                 :SP Normalized
VSH_GR      .V/V                                                :Volume of Shale from GR
VSH_SP      .V/V                                                :Volume of Shale from SP
~A        DEPTH            ASN           CILD             GR        GR_NORM            ILD             SP        SP_NORM         VSH_GR         VSH_SP
# ...
      6144.5000         0.6202       2290.254        -999.25        -999.25         0.4925       -48.0021      -4.523842        -999.25      0.9396821
      6145.0000         0.6334       2412.164        -999.25        -999.25          0.466         -52.53      -9.051739        -999.25      0.8793101
      6145.5000         0.6564       2551.805        -999.25        -999.25         0.4395       -57.0579      -13.57964        -999.25      0.8189381
      6146.0000         0.6793       2691.246        -999.25        -999.25         0.4173       -61.4507      -17.97244        -999.25      0.7603675
      6146.5000         0.7023       2867.141        -999.25        -999.25         0.3994        -70.071      -26.59274        -999.25      0.6454301
      6147.0000         0.7246       2902.945        -999.25        -999.25         0.4029       -96.3235      -52.84524        -999.25      0.2953968
      6147.5000         0.7348       2912.645        -999.25        -999.25         0.4063       -97.0115      -53.53324        -999.25      0.2862235
      6148.0000          0.745        2882.68        -999.25        -999.25         0.4098       -97.6986      -54.22034        -999.25      0.2770621
      6148.5000         0.7552       2814.453        -999.25        -999.25         0.4132         -98.61      -55.13174        -999.25      0.2649101
      6149.0000         0.7285       2724.113        -999.25        -999.25         0.4187        -76.754      -33.27574        -999.25      0.5563235
      6149.5000         0.6837       2627.203        -999.25        -999.25          0.428       -65.4474      -21.96914        -999.25      0.7070781
      6150.0000         0.6585        2495.23        -999.25        -999.25         0.4374       -63.8911      -20.41284        -999.25      0.7278288
      6150.5000         0.6406       2358.082        -999.25        -999.25         0.4467       -62.4907      -19.01244        -999.25      0.7465008
      6151.0000         0.6227       2269.984        -999.25        -999.25         0.4561       -61.4066      -17.92834        -999.25      0.7609555
      6151.5000         0.6315       2220.285        -999.25        -999.25         0.4654       -60.3234      -16.84514        -999.25      0.7753981
      6152.0000          0.648       2166.848        -999.25        -999.25         0.4748       -59.2177      -15.73944        -999.25      0.7901408
      6152.5000          0.652       2267.645        -999.25        -999.25         0.4841       -58.0341      -14.55584        -999.25      0.8059222
      6153.0000         0.6333       2320.684        -999.25        -999.25         0.4935       -56.8636      -13.38534        -999.25      0.8215288
      6153.5000         0.6145       2302.953        -999.25        -999.25         0.5028        -55.819      -12.34074        -999.25      0.8354568
      6154.0000         0.6167       2285.223        -999.25        -999.25         0.5122       -55.0681      -11.58984        -999.25      0.8454688
      6154.5000         0.6311       2267.496        -999.25        -999.25         0.5215       -57.0917      -13.61344        -999.25      0.8184875
      6155.0000         0.6456       2258.445        -999.25        -999.25         0.5309       -61.7886      -18.31034        -999.25      0.7558621
      6155.5000         0.6603       2249.973        -999.25        -999.25         0.5403       -68.6631      -25.18484        -999.25      0.6642021
      6156.0000          0.675        2229.57        -999.25        -999.25         0.5496       -71.6479      -28.16964        -999.25      0.6244047
      6156.5000         0.6898       2205.969        -999.25        -999.25          0.559       -74.9857      -31.50744        -999.25      0.5799007
      6157.0000         0.7025        2182.41        -999.25        -999.25         0.5683       -77.4562      -33.97794        -999.25      0.5469608
      6157.5000         0.6836       2159.031        -999.25        -999.25         0.5748       -79.2489      -35.77064        -999.25      0.5230581
      6158.0000          0.643       2135.672        -999.25        -999.25         0.5559       -78.4961      -35.01784        -999.25      0.5330954
      6158.5000         0.5993       2372.125        -999.25        -999.25          0.537       -71.1411      -27.66284        -999.25      0.6311622
      6159.0000         0.5557       2632.281        -999.25        -999.25         0.5182        -68.374      -24.89574        -999.25      0.6680568
      6159.5000         0.5354       2892.438        -999.25        -999.25         0.4863       -65.6107      -22.13244        -999.25      0.7049007
      6160.0000         0.6171       3152.598        -999.25        -999.25         0.4536       -62.5583      -19.08004        -999.25      0.7455994
      6160.5000         0.6297       3170.973        -999.25        -999.25         0.4209       -59.6748      -16.19654        -999.25      0.7840461
      6161.0000         0.6215       3152.297        -999.25        -999.25         0.3882       -64.4092      -20.93094        -999.25      0.7209207
      6161.5000         0.6133       3133.621        -999.25        -999.25         0.3554       -70.2288      -26.75054        -999.25      0.6433262
      6162.0000          0.605       3122.797        -999.25        -999.25         0.3223       -75.5526      -32.07434        -999.25      0.5723422
      6162.5000         0.5968       3115.719        -999.25        -999.25         0.2875       -81.9127      -38.43444        -999.25      0.4875408
      6163.0000         0.5886       3108.637        -999.25        -999.25         0.2528       -87.8073      -44.32904        -999.25      0.4089462
      6163.5000         0.5819       3100.094        -999.25        -999.25          0.218       -98.1998      -54.72154        -999.25      0.2703795
      6164.0000         0.5772       3350.504        -999.25        -999.25         0.2167      -104.1244      -60.64614        -999.25      0.1913848
      6164.5000         0.5725       3418.828        -999.25        -999.25         0.2329      -108.2244      -64.74614        -999.25      0.1367181
      6165.0000         0.5678       3507.773        -999.25        -999.25         0.2491      -110.0706      -66.59235        -999.25      0.1121021
      6165.5000         0.6113       3561.754        -999.25        -999.25         0.2653      -111.1144      -67.63614        -999.25     0.09818482
      6166.0000         0.6594       3474.902        -999.25        -999.25         0.2893      -112.1581      -68.67984        -999.25      0.0842688
      6166.5000         0.7033       3384.566        -999.25        -999.25         0.3168      -112.8114      -69.33315        -999.25     0.07555807
      6167.0000         0.7435       3294.129        -999.25        -999.25         0.3444      -113.2765      -69.79823        -999.25      0.0693569
      6167.5000         0.7747       3208.473        -999.25        -999.25         0.3719      -113.7411      -70.26283        -999.25     0.06316223
      6168.0000         0.8055       3278.094        -999.25        -999.25         0.3858      -114.1869      -70.70863        -999.25     0.05721822
      6168.5000         0.8255       3456.078        -999.25        -999.25         0.3714      -114.6252      -71.14694        -999.25      0.0513741
      6169.0000         0.8078       3553.191        -999.25        -999.25          0.357      -115.0631      -71.58484        -999.25     0.04553548
      6169.5000         0.7691       3618.078        -999.25        -999.25         0.3426      -115.5559      -72.07764        -999.25     0.03896485
      6170.0000         0.7308       3670.121        -999.25        -999.25         0.3282      -116.3622      -72.88394        -999.25     0.02821411
      6170.5000          0.696       3707.695        -999.25        -999.25         0.3138      -117.1685      -73.69025        -999.25     0.01746338
