#------------------------------------------------------------------------------
# Created by    : vladimir.rabinovich
# Created on    : 09/19/2023 17:21:28
#------------------------------------------------------------------------------
~Version Information Section
VERS.           2.0     :   CWLS log ASCII Standard - VERSION 2.0
WRAP.           NO      :   One line per depth step
~Well Information Section
#MNEM       .UNIT                                         VALUE :DESCRIPTION
#------------------------------------------------------------------------------
STRT        .FT                                            2437 :START DEPTH
STOP        .FT                                            8654 :STOP DEPTH
STEP        .FT                                             0.5 :STEP      
NULL        .                                           -999.25 :NULL      
COMP        .                                      PELTO OIL CO :COMPANY   
WELL        .                                     ST TR 00163-S :WELL      
FLD         .                                           WILDCAT :FIELD     
LOC         .                                                   :LOCATION  
CNTY        .                             GALVESTON SMALL BLOCK :LOCATION  
STAT        .                                             TEXAS :STATE     
CTRY        .                                     UNITED STATES :COUNTRY   
SRVC        .                                                   :SERVICE COMPANY
DATE        .                             9/13/2023 11:19:17 AM :LOG DATE  
API         .                                    42605301550000 :API NUMBER
UWI         .                                    42605301550000 :UNIQUE WELL ID
XCOORD      .                                  1154226.19631992 :SURFACE X 
YCOORD      .                                  10687289.1653299 :SURFACE Y 
LAT         .                                        29.4396686 :LATITUDE  
LON         .                                       -94.5278571 :LONGITUDE 
ELEV        .FT                                             111 :ELEVATION VALUE
ELEV_TYPE   .                                                KB :ELEVATION REFERENCE TYPE
~Curve Information Section
#MNEM       .UNIT                                      API CODE :CURVE DESCRIPTION
#------------------------------------------------------------------------------
DEPT        .FT                                                 :DEPTH     
CALI        .IN                                                 :          
GR          .GAPI                                               :          
GR_NORM     .GAPI                                               :GammaRay Normalized
ILD         .OHMM                                               :          
ILM         .OHMM                                               :          
NPSS        .%                                                  :Neutron Porosity Sandstone
RHOB        .G/CM3                                              :          
SFL         .OHMM                                               :          
SP          .MV                                                 :          
SP_NORM     .GAPI                                               :SP Normalized
TENS        .LB                                                 :          
VSH_GR      .V/V                                                :Volume of Shale from GR
VSH_SP      .V/V                                                :Volume of Shale from SP
~A        DEPTH           CALI             GR        GR_NORM            ILD            ILM           NPSS           RHOB            SFL             SP        SP_NORM           TENS         VSH_GR         VSH_SP
# ...
      6978.0000        11.4977        69.1612       62.80481         0.3318         0.4413          37.14         2.2006         0.6687        61.0198      -30.97678            -10      0.6341449      0.5574745
      6978.5000        10.9385        72.4111       66.41581         0.3686         0.4796           37.2         2.2298          0.737        65.2082      -25.11302            -10      0.7109747      0.6412425
      6979.0000        10.5898        78.3818       73.04992         0.4096         0.5282          37.32          2.254         0.7786        71.7843      -15.90648            -10      0.8521259      0.7727646
      6979.5000        10.5899        84.1776       79.48969         0.4578         0.5787          37.38         2.2688         0.8076        76.1429      -9.804443            -10      0.9891424      0.8599365
      6980.0000        10.6399        88.4483       84.23492         0.5069         0.6142           37.8         2.2678         0.8147        79.4083      -5.232878            -10              1      0.9252446
      6980.5000          10.72        88.9317       84.77203         0.5785         0.6496        38.4617         2.2609          0.822        82.1201      -1.436359         -9.703              1      0.9794806
      6981.0000          10.77        86.6965       82.28848         0.6526          0.687        39.0046         2.2559         0.8447        83.6307      0.6784775        -9.2079              1              1
      6981.5000          10.79        85.7229        81.2067         0.6743         0.6935        38.1676         2.2568          0.864        84.6345       2.083797        -8.7129              1              1
      6982.0000          10.79         85.818       81.31236         0.6967         0.6935        36.3107         2.2696         0.8759        84.6299       2.077356        -8.2178              1              1
      6982.5000          10.79        86.2052       81.74258          0.713         0.7032        35.8934         2.2864         0.8959        84.8263       2.352321        -7.7228              1              1
      6983.0000          10.83        87.5663       83.25492          0.713         0.7065        36.3166         2.3032         0.8919        85.0224       2.626858        -7.2277              1              1
      6983.5000          10.85        90.9967       87.06647          0.713         0.7065        36.8596         2.3051         0.8798        85.4188       3.181819        -6.7327              1              1
      6984.0000          10.89        92.0921       88.28359          0.713         0.7032        37.1025         2.2991         0.8798        85.4135       3.174396        -6.2376              1              1
      6984.5000          10.97        89.3176       85.20081         0.7065         0.6838        36.2655         2.2922         0.8838         85.007       2.605304        -5.7426              1              1
      6985.0000        11.0914         86.196       81.73236          0.687         0.6681        37.8887         2.2852         0.8798        84.4019        1.75816        -5.2475              1              1
      6985.5000        11.1827        85.1207       80.53758         0.6496         0.6526        39.8116         2.2663          0.868         83.598      0.6326981         -4.703              1              1
      6986.0000          10.97         85.216       80.64348         0.6199         0.6346        39.7546         2.2564         0.8719        82.2964      -1.189539        -4.2079              1      0.9830066
      6986.5000          10.76        85.0183       80.42381         0.5917         0.6199        38.5576         2.2573         0.8959        80.6982      -3.427026        -3.7129              1      0.9510425
      6987.0000          10.76        84.7227       80.09537         0.5649         0.6028        37.4206         2.2672         0.9084        79.2026      -5.520864        -3.2178              1      0.9211305
      6987.5000           10.8         84.329       79.65792         0.5392         0.5917        36.7636          2.276         0.8759         77.806      -7.476102        -2.7228      0.9927217      0.8931985
      6988.0000          10.81        84.9132       80.30703         0.5268         0.5808        36.2266          2.273         0.8333        76.4081      -9.433167        -2.2277              1      0.8652405
      6988.5000          10.83        86.3787       81.93536         0.5218         0.5701         35.929          2.268         0.8183        75.2084      -11.11275        -1.7327              1      0.8412465
      6989.0000          10.84        88.0416       83.78304         0.5145         0.5492        35.8109         2.2709         0.8371         74.407       -12.2347        -1.2376              1      0.8252185
      6989.5000          10.85        88.6285       84.43514         0.5072         0.5241        35.9955         2.2818         0.8524        74.3043      -12.37848        -0.7426              1      0.8231645
      6990.0000          10.94        88.8238       84.65215         0.5024         0.5191        36.8388         2.2867         0.8333        74.1015       -12.6624        -0.2475              1      0.8191086
      6990.5000        11.2523        88.3357       84.10981         0.5094         0.5363          38.28         2.2787         0.7781        72.9991      -14.20576              0              1      0.7970605
      6991.0000        11.5249        87.8492       83.56925         0.5214          0.554          39.54         2.2439          0.716        72.3981      -15.04716              0              1      0.7850406
      6991.5000        11.3122        86.7732        82.3737         0.5337          0.567           40.2         2.2139         0.6963        74.2945       -12.3922              0              1      0.8229686
      6992.0000        10.7886        85.4998       80.95881         0.5462          0.583          39.66         2.2108         0.7494         77.886      -7.364099              0              1      0.8947986
      6992.5000        10.4889        84.5198       79.86992          0.559         0.6022          38.82         2.2338         0.8287        80.4758      -3.738382              0      0.9972323      0.9465945
      6993.0000        10.4188        83.8339       79.10781          0.572         0.6134           38.7         2.2587         0.8669        81.9689      -1.648038              0      0.9810172      0.9764566
      6993.5000        10.3987        84.1308        79.4377           0.58          0.619             39         2.2666         0.8321        81.5669      -2.210838              0      0.9880362      0.9684166
      6994.0000        10.3885        84.2314       79.54948         0.5799         0.6131          39.24         2.2615         0.8096        80.5629      -3.616446              0      0.9904144      0.9483365
      6994.5000        10.3684        83.9381       79.22359         0.5587         0.5878          36.72         2.2526         0.8094        79.1607      -5.579524              0      0.9834806      0.9202925
      6995.0000        10.4379        82.8565        78.0218         0.5023         0.5261        34.4921         2.2545         0.8505        76.6681      -9.069163              0      0.9579107      0.8704405
      6995.5000        10.6068        84.0405       79.33736         0.4375         0.4539        33.4077         2.2644         0.8938        73.0837      -14.08732              0      0.9859014      0.7987526
      6996.0000        10.6662        85.4228       80.87325         0.3953         0.4139        32.6258         2.2634         0.8976        68.8186      -20.05846              0              1      0.7134506
      6996.5000        10.6857        84.5376       79.88969         0.3672         0.3862        32.6274         2.2504         0.8385        63.8993      -26.94548              0      0.9976531      0.6150646
