#------------------------------------------------------------------------------
# Created by    : vladimir.rabinovich
# Created on    : 09/19/2023 17:19:42
#------------------------------------------------------------------------------
~Version Information Section
VERS.           2.0     :   CWLS log ASCII Standard - VERSION 2.0
WRAP.           NO      :   One line per depth step
~Well Information Section
#MNEM       .UNIT                                         VALUE :DESCRIPTION
#------------------------------------------------------------------------------
STRT        .FT                                             583 :START DEPTH
STOP        .FT                                            6498 :STOP DEPTH
STEP        .FT                                             0.5 :STEP      
NULL        .                                           -999.25 :NULL      
COMP        .                                        EXXON CORP :COMPANY   
WELL        .                                     ST TR 00692-S :WELL      
FLD         .                                           WILDCAT :FIELD     
LOC         .                                                   :LOCATION  
CNTY        .                      MATAGORDA ISLAND SMALL BLOCK :LOCATION  
STAT        .                                             TEXAS :STATE     
CTRY        .                                     UNITED STATES :COUNTRY   
SRVC        .                                                   :SERVICE COMPANY
DATE        .                             9/13/2023 11:19:17 AM :LOG DATE  
API         .                                    42603301950000 :API NUMBER
UWI         .                                    42603301950000 :UNIQUE WELL ID
XCOORD      .                                  518375.599551337 :SURFACE X 
YCOORD      .                                  10266878.6313095 :SURFACE Y 
LAT         .                                        28.2472954 :LATITUDE  
LON         .                                       -96.4850657 :LONGITUDE 
ELEV        .FT                                              89 :ELEVATION VALUE
ELEV_TYPE   .                                                KB :ELEVATION REFERENCE TYPE
~Curve Information Section
#MNEM       .UNIT                                      API CODE :CURVE DESCRIPTION
#------------------------------------------------------------------------------
DEPT        .FT                                                 :DEPTH     
ASFL        .OHMM                                               :          
CILD        .MMHO                                               :          
GR          .GAPI                                               :          
GR_NORM     .GAPI                                               :GammaRay Normalized
ILD         .OHMM                                               :          
SP          .MV                                                 :          
SP_NORM     .MV                                                 :SP Normalized
VSH_GR      .V/V                                                :Volume of Shale from GR
VSH_SP      .V/V                                                :Volume of Shale from SP
~A        DEPTH           ASFL           CILD             GR        GR_NORM            ILD             SP        SP_NORM         VSH_GR         VSH_SP
# ...
      5697.5000         0.6672       3882.068        33.9397       30.48262         0.2589         -73.92      -58.30993              0      0.1694213
      5698.0000         0.6731       3894.031        35.5189       33.23215         0.2588          -73.6      -57.99769    0.004939465      0.1739465
      5698.5000         0.6771       3894.084        38.3308       38.13304         0.2588         -72.56      -56.96545      0.1092136      0.1889066
      5699.0000         0.6698       3894.136        41.1427       43.03391         0.2587         -70.64      -55.05321      0.2134875      0.2166202
      5699.5000         0.6624       3763.167        43.9546       47.93478         0.2587         -67.68      -52.10096      0.3177613      0.2594063
      5700.0000         0.6551       3739.398        46.7665       52.83565         0.2685         -65.68      -50.10872      0.4220351      0.2882794
      5700.5000         0.6453       3667.985        50.9165       60.07179         0.2685         -60.96      -45.39648      0.5759955      0.3565727
      5701.0000         0.6453       3578.706        49.5343       57.65305         0.2684         -61.12      -45.56424       0.524533      0.3541414
      5701.5000         0.6453       3489.427         47.289       53.72803         0.2684         -64.24      -48.69199      0.4410219      0.3088117
      5702.0000         0.6472       3459.703        45.0437       49.80298         0.2782         -67.28      -51.73975      0.3575102      0.2646413
      5702.5000         0.6723       3435.962        42.7985       45.87812         0.2782          -70.4      -54.86752      0.2740026      0.2193114
      5703.0000         0.6974        3459.81        40.5532       41.95309         0.2782         -73.52      -57.99527      0.1904913      0.1739816
      5703.5000         0.7224       3500.304        38.3079       38.02805         0.2764         -76.64      -61.12303      0.1069797      0.1286517
      5704.0000         0.7475       3501.577        36.0627        34.1032         0.2746         -80.64      -65.13079     0.02347224     0.07056825
      5704.5000         0.7683       3600.423        33.7368       30.03749         0.2728         -80.48      -64.97855              0     0.07277458
      5705.0000         0.7663       3699.269          34.23       30.89174          0.271         -80.32      -64.82631              0     0.07498103
      5705.5000         0.7543       3847.226        37.9937       37.45369         0.2692         -78.72      -63.23407     0.09475943     0.09805702
      5706.0000         0.7227       3722.191        41.7574       44.01567         0.2679            -74      -58.52182       0.234376      0.1663504
      5706.5000         0.6911        3650.78         45.521       50.57747         0.2678          -69.2      -53.72958      0.3739888      0.2358032
      5707.0000         0.6594       3519.817        49.2847       57.13943         0.2678         -64.48      -49.01734       0.513605      0.3040965
      5707.5000         0.6278       3353.123        53.0484       63.70141         0.2777         -59.76       -44.3051      0.6532215      0.3723899
      5708.0000         0.5961       3210.251        57.8209       72.02395         0.2875         -55.04      -39.59286      0.8302968      0.4406832
      5708.5000         0.5716       3150.753        57.5933       71.62025         0.2974         -40.24      -24.80062      0.8217075      0.6550635
      5709.0000         0.5696       2888.779        57.4254       69.55039         0.2974         -41.04      -25.60837      0.7776679      0.6433569
      5709.5000          0.607       2906.699         55.465       65.42339         0.3072         -47.12      -31.69613      0.6898594      0.5551286
      5710.0000         0.6444       2930.574        53.5045       61.29618          0.337         -53.28      -37.86389      0.6020463      0.4657408
      5710.5000         0.6818       2942.567        51.5441       57.16914         0.3468         -59.44      -44.03165      0.5142371      0.3763529
      5711.0000         0.7192       2918.746        49.5836       53.04195         0.3468          -65.6      -50.19941      0.4264246      0.2869651
      5711.5000         0.7566       2863.956        47.6232       48.91495         0.3467          -71.6      -56.20716      0.3386159      0.1998962
      5712.0000         0.8038       2809.166        44.6883       42.74033         0.3467         -69.44      -54.05492      0.2072411      0.2310881
      5712.5000         0.7819       2754.375        45.3793       44.18442         0.3565          -62.8      -47.42268      0.2379664      0.3272075
      5713.0000         0.7522       2674.862        55.2504       64.91769         0.3565         -56.08      -40.71044      0.6790999      0.4244863
      5713.5000         0.7225        2674.89        54.5592       63.45751         0.3664         -53.28       -37.9182      0.6480321      0.4649537
      5714.0000         0.7005       2698.738        52.7262       59.59819         0.3663         -58.24      -42.88596      0.5659189      0.3929572
      5714.5000         0.7124       2776.264        50.8931       55.73866         0.3663         -63.28      -47.93372      0.4838013      0.3198012
      5715.0000          0.731       2823.931        49.0601       51.87935         0.3492         -68.24      -52.90147      0.4016883      0.2478048
      5715.5000         0.7497       3066.973        47.2271       48.02004         0.3321         -74.96      -59.62923      0.3195754       0.150301
      5716.0000         0.7683       3310.015         45.394       44.16052          0.315          -75.2      -59.87699      0.2374579      0.1467103
      5716.5000         0.7869       3553.057         43.561        40.3012         0.2979            -76      -60.68475      0.1553447      0.1350036
      5717.0000         0.8096       3796.099         41.728        36.4419         0.2866         -78.88       -63.5725     0.07323188     0.09315214
      5717.5000         0.8096        4039.14        40.4395       33.72668         0.2667         -81.84      -66.54026     0.01546129     0.05014116
      5718.0000         0.8096       4259.398        40.5381       33.92604         0.2567         -84.88      -69.58802     0.01970291     0.00597072
      5718.5000         0.7758       4247.514          41.13       35.16191         0.2467         -85.04      -69.75578     0.04599803    0.003539376
      5719.0000         0.7619       4197.806        42.4167       37.85767         0.2467         -83.68      -68.40354      0.1033547     0.02313708
      5719.5000          0.746       4148.097        43.7034       40.55346         0.2466          -82.4       -67.1313      0.1607119     0.04157533
      5720.0000         0.7242       4098.389         45.472        44.2618         0.2466         -81.04      -65.77906      0.2396128     0.06117304
      5720.5000         0.6904       4048.681        42.2799       37.54675         0.2465         -79.52      -64.26682     0.09673943     0.08308963
      5721.0000         0.6904       3998.973        38.8572       30.34718         0.2465         -79.52      -64.27457              0     0.08297729
      5721.5000         0.6904       3949.265         38.857       30.33892         0.2464         -80.08      -64.84233              0     0.07474883
      5722.0000         0.7003       3899.557        38.8565       30.33005         0.2563         -82.72      -67.49009              0     0.03637552
      5722.5000         0.7102       3849.848        39.0537       30.73658         0.2562          -86.4      -71.17785              0              0
      5723.0000         0.7162        3800.14        39.6829       32.05082         0.2562         -86.64      -71.42561              0              0
      5723.5000         0.7162       3759.763        39.7441       32.17159         0.2561          -86.4      -71.19337              0              0
