#------------------------------------------------------------------------------
# Created by    : vladimir.rabinovich
# Created on    : 09/19/2023 17:20:27
#------------------------------------------------------------------------------
~Version Information Section
VERS.           2.0     :   CWLS log ASCII Standard - VERSION 2.0
WRAP.           NO      :   One line per depth step
~Well Information Section
#MNEM       .UNIT                                         VALUE :DESCRIPTION
#------------------------------------------------------------------------------
STRT        .FT                                             304 :START DEPTH
STOP        .FT                                            9519 :STOP DEPTH
STEP        .FT                                             0.5 :STEP      
NULL        .                                           -999.25 :NULL      
COMP        .                                        TEXACO INC :COMPANY   
WELL        .                                     ST TR 00216-S :WELL      
FLD         .                                           WILDCAT :FIELD     
LOC         .                                                   :LOCATION  
CNTY        .                             GALVESTON SMALL BLOCK :LOCATION  
STAT        .                                             TEXAS :STATE     
CTRY        .                                     UNITED STATES :COUNTRY   
SRVC        .                                                   :SERVICE COMPANY
DATE        .                             9/13/2023 11:19:17 AM :LOG DATE  
API         .                                    42605000160000 :API NUMBER
UWI         .                                    42605000160000 :UNIQUE WELL ID
XCOORD      .                                  1087579.10798688 :SURFACE X 
YCOORD      .                                  10638823.7542325 :SURFACE Y 
LAT         .                                         29.303831 :LATITUDE  
LON         .                                       -94.7349593 :LONGITUDE 
ELEV        .FT                                              15 :ELEVATION VALUE
ELEV_TYPE   .                                                KB :ELEVATION REFERENCE TYPE
~Curve Information Section
#MNEM       .UNIT                                      API CODE :CURVE DESCRIPTION
#------------------------------------------------------------------------------
DEPT        .FT                                                 :DEPTH     
ASN         .OHMM                                               :          
LAT         .OHMM                                               :          
LN          .OHMM                                               :          
SP          .MV                                                 :          
SP_NORM     .MV                                                 :SP Normalized
VSH_SP      .V/V                                                :Volume of Shale from SP
~A        DEPTH            ASN            LAT             LN             SP        SP_NORM         VSH_SP
# ...
      9500.0000        38.7273         0.9262       621.7725       -48.4506      -1.456066       0.988306
      9500.5000        38.7502         0.9447       625.9453       -48.1304      -1.135868      0.9965162
      9501.0000        38.7831         0.9632       630.1191       -47.8109     -0.8163681              1
      9501.5000        38.8359         0.9818       634.2871       -47.5346     -0.5400658              1
      9502.0000        38.8886         1.0003         638.46       -47.3334     -0.3388672              1
      9502.5000        38.9413         1.0189       642.3418       -47.1324      -0.137867              1
      9503.0000        38.9941         1.0374       644.5586       -46.9314     0.06313324              1
      9503.5000        39.0469         1.0771       646.7764       -46.7302      0.2643318              1
      9504.0000        39.0995         1.1337       648.9941       -46.5292       0.465332              1
      9504.5000        39.1523         1.1903       651.2119       -46.3491      0.6454353              1
      9505.0000        39.2051         1.2469       653.4297       -46.3287      0.6658325              1
      9505.5000        39.2578         1.3035       655.6465       -46.3084      0.6861343              1
      9506.0000        39.3105          1.351       657.8643       -46.2881      0.7064323              1
      9506.5000        39.3633         1.3742        660.082       -46.2678      0.7267342              1
      9507.0000        39.4161         1.3974       662.2998       -46.2474      0.7471352              1
      9507.5000        39.4688         1.4206       664.5176       -46.2271      0.7674332              1
      9508.0000        39.5215         1.4253       666.7344       -46.2014      0.7931328              1
      9508.5000        39.5743         1.4069       668.9521       -46.1591       0.835434              1
      9509.0000         39.627         1.3884       671.1699       -46.1168      0.8777351              1
      9509.5000        39.6797         1.3771       672.3535       -46.0745      0.9200325              1
      9510.0000        39.7325         1.3695       672.8018       -46.0321      0.9624329              1
      9510.5000        39.7852         1.3619        673.251       -45.9898       1.004734              1
      9511.0000         39.838         1.3543       673.6982       -45.9475       1.047035              1
      9511.5000        39.8907         1.3467       674.1475       -45.9052       1.089333              1
      9512.0000        39.9434         1.3456       674.4531       -45.8629       1.131634              1
      9512.5000        39.9962         1.3504       674.3525       -45.8206       1.173935              1
      9513.0000        39.9578         1.3551        674.252       -45.7073       1.287235              1
      9513.5000        39.8763         1.3599       674.1514       -45.4602       1.534332              1
      9514.0000        39.7949         1.3524       674.0508       -45.2126       1.781933              1
      9514.5000        39.7134         1.3393       673.3525       -44.9655       2.029034              1
      9515.0000         39.632         1.3262       672.4756       -44.7179       2.276634              1
      9515.5000        39.5505         1.3131       671.5996       -44.4709       2.523632              1
      9516.0000        39.6229            1.3       670.7227       -44.1622       2.832333              1
      9516.5000        40.1422         1.2869       670.0625       -43.8273       3.167233              1
      9517.0000        40.6627         1.2739       669.9756       -43.4919       3.502632              1
      9517.5000         41.182         1.2849       669.8887        -43.157       3.837532              1
      9518.0000        41.7025         1.3007       669.8008       -42.8221       4.172432              1
      9518.5000        42.2218         1.3165       669.7139       -42.4872       4.507332              1
      9519.0000        42.7422         1.3323       669.6348        -42.442       4.552532              1
