#------------------------------------------------------------------------------
# Created by    : vladimir.rabinovich
# Created on    : 09/19/2023 17:20:27
#------------------------------------------------------------------------------
~Version Information Section
VERS.           2.0     :   CWLS log ASCII Standard - VERSION 2.0
WRAP.           NO      :   One line per depth step
~Well Information Section
#MNEM       .UNIT                                         VALUE :DESCRIPTION
#------------------------------------------------------------------------------
STRT        .FT                                             304 :START DEPTH
STOP        .FT                                            9519 :STOP DEPTH
STEP        .FT                                             0.5 :STEP      
NULL        .                                           -999.25 :NULL      
COMP        .                                        TEXACO INC :COMPANY   
WELL        .                                     ST TR 00216-S :WELL      
FLD         .                                           WILDCAT :FIELD     
LOC         .                                                   :LOCATION  
CNTY        .                             GALVESTON SMALL BLOCK :LOCATION  
STAT        .                                             TEXAS :STATE     
CTRY        .                                     UNITED STATES :COUNTRY   
SRVC        .                                                   :SERVICE COMPANY
DATE        .                             9/13/2023 11:19:17 AM :LOG DATE  
API         .                                    42605000160000 :API NUMBER
UWI         .                                    42605000160000 :UNIQUE WELL ID
XCOORD      .                                  1087579.10798688 :SURFACE X 
YCOORD      .                                  10638823.7542325 :SURFACE Y 
LAT         .                                         29.303831 :LATITUDE  
LON         .                                       -94.7349593 :LONGITUDE 
ELEV        .FT                                              15 :ELEVATION VALUE
ELEV_TYPE   .                                                KB :ELEVATION REFERENCE TYPE
~Curve Information Section
#MNEM       .UNIT                                      API CODE :CURVE DESCRIPTION
#------------------------------------------------------------------------------
DEPT        .FT                                                 :DEPTH     
ASN         .OHMM                                               :          
LAT         .OHMM                                               :          
LN          .OHMM                                               :          
SP          .MV                                                 :          
SP_NORM     .MV                                                 :SP Normalized
VSH_SP      .V/V                                                :Volume of Shale from SP
~A        DEPTH            ASN            LAT             LN             SP        SP_NORM         VSH_SP
# ...
      5206.0000         0.4595         0.7907         0.5672       -52.7379      -3.822941       0.942389
      5206.5000         0.4664         0.8056         0.5719       -52.3472       -3.41795      0.9506541
      5207.0000         0.4733         0.8204         0.5758       -51.9568      -3.013264       0.958913
      5207.5000         0.4802         0.8353         0.5792       -51.5662      -2.608379       0.967176
      5208.0000         0.4871         0.8501         0.5826       -51.1755      -2.203392       0.975441
      5208.5000          0.494          0.865          0.586       -50.7849      -1.798504       0.983704
      5209.0000         0.5009         0.8798         0.5894       -50.5346      -1.533916      0.9891037
      5209.5000         0.5072         0.8848         0.5928       -50.7101      -1.695129      0.9858137
      5210.0000         0.5126         0.8873         0.5962       -50.8858      -1.856544      0.9825195
      5210.5000          0.518         0.8897         0.5996        -51.051      -2.007458      0.9794396
      5211.0000         0.5233         0.8922          0.603       -51.1157      -2.057869      0.9784108
      5211.5000         0.5287         0.8947         0.6064       -51.1805      -2.108383      0.9773799
      5212.0000         0.5341         0.8971         0.6093       -51.2452      -2.158798      0.9763511
      5212.5000         0.5395         0.8996         0.6097       -51.1269      -2.026211      0.9790569
      5213.0000         0.5448         0.9021         0.6101       -50.9962      -1.881222      0.9820159
      5213.5000          0.547         0.9045         0.6106       -51.1998      -2.070534      0.9781524
      5214.0000          0.547         0.8956          0.611       -51.5052      -2.361649      0.9722112
      5214.5000          0.547         0.8864         0.6114        -51.811      -2.653164       0.966262
      5215.0000         0.5471         0.8772         0.6118       -52.3549      -3.182777      0.9554535
      5215.5000         0.5471          0.868         0.6123       -52.9559      -3.778748      0.9432909
      5216.0000         0.5462         0.8588         0.6127       -53.5575      -4.387814      0.9308609
      5216.5000          0.537         0.8496         0.6131       -54.1585      -4.996277      0.9184433
      5217.0000         0.5277         0.8312         0.6135       -54.7595      -5.604736      0.9060258
      5217.5000         0.5185         0.8118          0.614       -55.3606      -6.213303      0.8936061
      5218.0000         0.5093         0.7923         0.6144       -55.9775      -6.837666       0.880864
      5218.5000         0.5001         0.7729         0.6148       -56.5129      -7.380531      0.8697851
      5219.0000         0.4909         0.7534         0.6153       -56.8659       -7.74099      0.8624288
      5219.5000         0.4816          0.734         0.6157       -56.6777      -7.560257      0.8661172
      5220.0000         0.4745         0.7152         0.6161       -56.4504       -7.34042      0.8706037
      5220.5000         0.4674         0.7196         0.6165       -56.0739      -6.971382      0.8781351
      5221.0000         0.4603          0.724         0.6148        -55.651      -6.555946      0.8866134
      5221.5000         0.4533         0.7284          0.608       -55.2281      -6.140511      0.8950916
      5222.0000         0.4559         0.7328         0.6013       -54.8054      -5.725273      0.9035659
      5222.5000         0.4607         0.7379         0.5946       -54.3826      -5.309937      0.9120421
      5223.0000         0.4654          0.748         0.5878       -53.9597      -4.894501      0.9205204
      5223.5000         0.4701         0.7582         0.5811       -53.8722      -4.814461      0.9221539
      5224.0000         0.4748         0.7683         0.5743       -54.1929      -5.142628      0.9154566
      5224.5000         0.4795         0.7785         0.5676       -54.5134      -5.470589      0.9087635
      5225.0000         0.4843         0.7848         0.5613       -54.8339      -5.798553      0.9020703
      5225.5000          0.489         0.7779         0.5637       -55.1362      -6.108315      0.8957487
      5226.0000         0.4924          0.771          0.566        -55.292       -6.27158      0.8924167
      5226.5000         0.4955         0.7641         0.5684       -55.4479       -6.43494      0.8890828
      5227.0000         0.4986         0.7572         0.5707       -55.6037      -6.598206      0.8857509
      5227.5000         0.5018         0.7503         0.5731       -55.7595      -6.761467       0.882419
      5228.0000         0.5049          0.747         0.5755       -55.9153      -6.924732      0.8790871
      5228.5000          0.508         0.7644         0.5778       -55.5196      -6.536495      0.8870103
      5229.0000         0.5111         0.7818         0.5802       -54.9732      -5.997562      0.8980089
      5229.5000         0.5146         0.7992         0.5826       -54.4274      -5.459221      0.9089955
      5230.0000         0.5199         0.8166         0.5861        -53.881      -4.920284      0.9199942
      5230.5000         0.5252          0.834         0.5896       -53.3346      -4.381348      0.9309929
      5231.0000         0.5305         0.8641         0.5931       -52.8472      -3.901409      0.9407876
      5231.5000         0.5358         0.8964         0.5966       -52.5264      -3.588078      0.9471821
      5232.0000         0.5558         0.9287         0.6001       -52.5499      -3.619038      0.9465503
      5232.5000         0.5824          0.956         0.6036       -53.4127      -4.489304      0.9287897
      5233.0000          0.609         0.9511         0.6072       -54.2755      -5.359566      0.9110293
      5233.5000         0.6356         0.9463         0.6107       -55.1486      -6.240131      0.8930585
      5234.0000         0.6483         0.9415         0.6074       -56.0916       -7.19059      0.8736615
      5234.5000         0.6584         0.9366          0.604       -56.8112      -7.917656      0.8588234
      5235.0000         0.6686         0.9538         0.6006       -56.0676      -7.181519      0.8738465
      5235.5000         0.6809         0.9758         0.5971       -54.8896      -6.010983      0.8977351
      5236.0000          0.695         0.9978         0.5937       -53.7105      -4.839344      0.9216461
      5236.5000         0.7091         1.0198         0.5903       -52.5314      -3.667706      0.9455571
      5237.0000         0.7232         1.0429         0.5749       -51.3523      -2.496071      0.9694679
      5237.5000          0.738         1.0683         0.5581       -50.6573      -1.808533      0.9834993
      5238.0000         0.7545         1.0938         0.5413       -50.0557      -1.214397      0.9956245
      5238.5000         0.7309         1.1193         0.5261       -49.4863      -0.652462              1
      5239.0000         0.7013         1.0909         0.5193       -49.0012     -0.1748276              1
      5239.5000         0.6661         1.0617         0.5125       -48.6269      0.1920128              1
      5240.0000         0.6308         1.0325         0.5057       -49.2159     -0.4044533              1
      5240.5000         0.5956         1.0033         0.4989       -50.2026      -1.398613       0.991865
      5241.0000         0.5725         0.9741         0.4921       -52.0014       -3.20488      0.9550024
      5241.5000         0.5632         0.9373         0.4855       -53.8001       -5.01104       0.918142
      5242.0000          0.554          0.897          0.479       -56.0534      -7.271805       0.872004
      5242.5000         0.5448         0.8567         0.4724       -58.5515      -9.777367        0.82087
      5243.0000         0.5355         0.8163         0.4659       -61.5391      -12.77243      0.7597463
      5243.5000          0.528          0.776         0.4593       -64.2405       -15.4813      0.7044634
