#------------------------------------------------------------------------------
# Created by    : vladimir.rabinovich
# Created on    : 09/19/2023 17:20:26
#------------------------------------------------------------------------------
~Version Information Section
VERS.           2.0     :   CWLS log ASCII Standard - VERSION 2.0
WRAP.           NO      :   One line per depth step
~Well Information Section
#MNEM       .UNIT                                         VALUE :DESCRIPTION
#------------------------------------------------------------------------------
STRT        .FT                                             500 :START DEPTH
STOP        .FT                                            8974 :STOP DEPTH
STEP        .FT                                             0.5 :STEP      
NULL        .                                           -999.25 :NULL      
COMP        .                                    G M A OFFSHORE :COMPANY   
WELL        .                                     ST TR 00112-S :WELL      
FLD         .                                           WILDCAT :FIELD     
LOC         .                                                   :LOCATION  
CNTY        .                           HIGH ISLAND SMALL BLOCK :LOCATION  
STAT        .                                             TEXAS :STATE     
CTRY        .                                     UNITED STATES :COUNTRY   
SRVC        .                                                   :SERVICE COMPANY
DATE        .                             9/13/2023 11:19:17 AM :LOG DATE  
API         .                                    42606300040000 :API NUMBER
UWI         .                                    42606300040000 :UNIQUE WELL ID
XCOORD      .                                   1218436.6654802 :SURFACE X 
YCOORD      .                                  10720928.6649768 :SURFACE Y 
LAT         .                                        29.5343489 :LATITUDE  
LON         .                                        -94.327329 :LONGITUDE 
ELEV        .FT                                              63 :ELEVATION VALUE
ELEV_TYPE   .                                                KB :ELEVATION REFERENCE TYPE
~Curve Information Section
#MNEM       .UNIT                                      API CODE :CURVE DESCRIPTION
#------------------------------------------------------------------------------
DEPT        .FT                                                 :DEPTH     
ASN         .OHMM                                               :          
CILD        .MMHO                                               :          
GR          .GAPI                                               :          
GR_NORM     .GAPI                                               :GammaRay Normalized
ILD         .OHMM                                               :          
SP          .MV                                                 :          
SP_NORM     .MV                                                 :SP Normalized
VSH_GR      .V/V                                                :Volume of Shale from GR
VSH_SP      .V/V                                                :Volume of Shale from SP
~A        DEPTH            ASN           CILD             GR        GR_NORM            ILD             SP        SP_NORM         VSH_GR         VSH_SP
# ...
      5005.0000         0.8609       1278.293        -999.25        -999.25          0.805       -53.2096      -6.558849        -999.25      0.9063022
      5005.5000         0.8179       1385.961        -999.25        -999.25         0.7094       -54.6635      -8.018234        -999.25      0.8854538
      5006.0000         0.7766       1482.773        -999.25        -999.25         0.6555        -57.486      -10.84621        -999.25      0.8450541
      5006.5000         0.7478       1553.889        -999.25        -999.25         0.6017        -60.835       -14.2007        -999.25      0.7971328
      5007.0000          0.719       1631.078        -999.25        -999.25         0.5478       -66.7745      -20.14568        -999.25      0.7122046
      5007.5000         0.6975       1726.994        -999.25        -999.25          0.494       -74.0133      -27.38996        -999.25      0.6087148
      5008.0000          0.684       1823.207        -999.25        -999.25         0.4401       -80.4409      -33.82305        -999.25      0.5168136
      5008.5000         0.6705       1896.613        -999.25        -999.25         0.3977         -84.92      -38.30762        -999.25      0.4527482
      5009.0000         0.6571       1954.781        -999.25        -999.25         0.3701       -91.1788      -44.57191        -999.25      0.3632584
      5009.5000         0.6469       1988.656        -999.25        -999.25         0.3425       -97.7343      -51.13289        -999.25      0.2695301
      5010.0000         0.6404       2280.492        -999.25        -999.25         0.3149      -104.4473      -57.85138        -999.25      0.1735518
      5010.5000         0.6339       2465.254        -999.25        -999.25         0.3023      -111.4344      -64.84396        -999.25     0.07365777
      5011.0000         0.6274       2524.016        -999.25        -999.25          0.299      -113.8579      -67.27293        -999.25     0.03895809
      5011.5000         0.6209       2659.375        -999.25        -999.25         0.2957      -115.8141      -69.23462        -999.25     0.01093401
      5012.0000         0.6187       2750.672        -999.25        -999.25         0.2924      -115.8798       -69.3058        -999.25    0.009917123
      5012.5000         0.6259       2744.234        -999.25        -999.25         0.2891      -114.9496      -68.38108        -999.25     0.02312742
      5013.0000         0.6301       2731.051        -999.25        -999.25         0.2859       -114.453      -67.88997        -999.25      0.0301433
      5013.5000         0.6343       2719.559        -999.25        -999.25         0.2827       -114.235      -67.67744        -999.25     0.03317937
      5014.0000         0.6385       2708.055        -999.25        -999.25         0.2796      -114.5521      -68.00003        -999.25     0.02857099
      5014.5000         0.6427       2695.117        -999.25        -999.25         0.2764      -114.8691      -68.32251        -999.25     0.02396415
      5015.0000         0.6462       2714.453        -999.25        -999.25         0.2733      -115.1862       -68.6451        -999.25     0.01935577
      5015.5000         0.6472       2815.449        -999.25        -999.25         0.2701       -115.504      -68.96837        -999.25     0.01473759
      5016.0000         0.6481       2845.824        -999.25        -999.25          0.267      -115.8228      -69.29266        -999.25     0.01010492
      5016.5000         0.6447       2859.418        -999.25        -999.25         0.2638      -116.1414      -69.61674        -999.25    0.005475072
      5017.0000         0.6402       2864.105        -999.25        -999.25         0.2607      -116.4598      -69.94062        -999.25   0.0008482797
      5017.5000         0.6357       2868.797        -999.25        -999.25         0.2575      -116.7784      -70.26469        -999.25              0
      5018.0000         0.6395       2873.664        -999.25        -999.25         0.2544      -117.0972      -70.58898        -999.25              0
      5018.5000         0.6575        2909.77        -999.25        -999.25         0.2512      -117.3591      -70.85637        -999.25              0
      5019.0000         0.6756       2953.098        -999.25        -999.25         0.2481      -117.5325      -71.03525        -999.25              0
      5019.5000         0.6971       2998.117        -999.25        -999.25         0.2442      -117.7057      -71.21393        -999.25              0
      5020.0000         0.7183       3137.555        -999.25        -999.25         0.2385      -117.8789      -71.39261        -999.25              0
      5020.5000         0.7208         3276.5        -999.25        -999.25         0.2328      -116.9178        -70.437        -999.25              0
      5021.0000         0.6456       3317.957        -999.25        -999.25          0.227      -115.1401      -68.66477        -999.25     0.01907469
      5021.5000         0.5993       3248.609        -999.25        -999.25         0.2213      -113.0526      -66.58275        -999.25     0.04881788
      5022.0000         0.5698       3146.121        -999.25        -999.25         0.2191      -109.5721      -63.10774        -999.25     0.09846088
      5022.5000         0.5415       3083.773        -999.25        -999.25         0.2717      -106.5592      -60.10032        -999.25       0.141424
      5023.0000         0.5172        3029.34        -999.25        -999.25         0.3244      -104.2933       -57.8399        -999.25      0.1737157
      5023.5000         0.5376       3126.301        -999.25        -999.25         0.3769      -102.0256      -55.57768        -999.25      0.2060331
      5024.0000          0.558       3284.195        -999.25        -999.25         0.4346       -97.4939      -51.05146        -999.25      0.2706934
      5024.5000         0.5784       3319.277        -999.25        -999.25         0.4933       -95.9996      -49.56265        -999.25      0.2919621
      5025.0000         0.6018       3082.676        -999.25        -999.25          0.552        -94.526      -48.09453        -999.25      0.3129353
      5025.5000         0.6285       2806.781        -999.25        -999.25         0.5225       -93.5648      -47.13881        -999.25      0.3265885
      5026.0000         0.6539       2530.691        -999.25        -999.25         0.4908       -95.6017      -49.18119        -999.25      0.2974115
      5026.5000         0.6491       2817.539        -999.25        -999.25         0.4591      -102.6902      -56.27518        -999.25      0.1960689
      5027.0000         0.6442       3058.125        -999.25        -999.25         0.4274      -106.0618      -59.65226        -999.25      0.1478249
      5027.5000         0.6394       3127.547        -999.25        -999.25         0.3957       -107.908      -61.50394        -999.25      0.1213723
      5028.0000         0.6346       3196.121        -999.25        -999.25          0.364      -108.9554      -62.55682        -999.25      0.1063311
      5028.5000         0.6292       3223.461        -999.25        -999.25         0.3323      -109.1057       -62.7126        -999.25      0.1041057
      5029.0000         0.6236       3172.617        -999.25        -999.25         0.3005      -108.5514      -62.16378        -999.25      0.1119459
      5029.5000         0.6297       3074.906        -999.25        -999.25         0.2688      -107.9972      -61.61507        -999.25      0.1197847
      5030.0000         0.6796       3102.047        -999.25        -999.25         0.2547      -112.5542      -66.17755        -999.25     0.05460641
      5030.5000         0.7198        3181.23        -999.25        -999.25         0.2553      -113.4525      -67.08133        -999.25      0.0416953
      5031.0000          0.741       3268.531        -999.25        -999.25          0.256      -114.3497      -67.98402        -999.25     0.02879976
