#------------------------------------------------------------------------------
# Created by    : vladimir.rabinovich
# Created on    : 09/19/2023 17:19:42
#------------------------------------------------------------------------------
~Version Information Section
VERS.           2.0     :   CWLS log ASCII Standard - VERSION 2.0
WRAP.           NO      :   One line per depth step
~Well Information Section
#MNEM       .UNIT                                         VALUE :DESCRIPTION
#------------------------------------------------------------------------------
STRT        .FT                                             583 :START DEPTH
STOP        .FT                                            6498 :STOP DEPTH
STEP        .FT                                             0.5 :STEP      
NULL        .                                           -999.25 :NULL      
COMP        .                                        EXXON CORP :COMPANY   
WELL        .                                     ST TR 00692-S :WELL      
FLD         .                                           WILDCAT :FIELD     
LOC         .                                                   :LOCATION  
CNTY        .                      MATAGORDA ISLAND SMALL BLOCK :LOCATION  
STAT        .                                             TEXAS :STATE     
CTRY        .                                     UNITED STATES :COUNTRY   
SRVC        .                                                   :SERVICE COMPANY
DATE        .                             9/13/2023 11:19:17 AM :LOG DATE  
API         .                                    42603301950000 :API NUMBER
UWI         .                                    42603301950000 :UNIQUE WELL ID
XCOORD      .                                  518375.599551337 :SURFACE X 
YCOORD      .                                  10266878.6313095 :SURFACE Y 
LAT         .                                        28.2472954 :LATITUDE  
LON         .                                       -96.4850657 :LONGITUDE 
ELEV        .FT                                              89 :ELEVATION VALUE
ELEV_TYPE   .                                                KB :ELEVATION REFERENCE TYPE
~Curve Information Section
#MNEM       .UNIT                                      API CODE :CURVE DESCRIPTION
#------------------------------------------------------------------------------
DEPT        .FT                                                 :DEPTH     
ASFL        .OHMM                                               :          
CILD        .MMHO                                               :          
GR          .GAPI                                               :          
GR_NORM     .GAPI                                               :GammaRay Normalized
ILD         .OHMM                                               :          
SP          .MV                                                 :          
SP_NORM     .MV                                                 :SP Normalized
VSH_GR      .V/V                                                :Volume of Shale from GR
VSH_SP      .V/V                                                :Volume of Shale from SP
~A        DEPTH           ASFL           CILD             GR        GR_NORM            ILD             SP        SP_NORM         VSH_GR         VSH_SP
# ...
      3365.5000          1.324       1898.474        33.4193       40.27781         0.5316         -74.88      -54.23265      0.1548469     0.04941695
      3366.0000         1.2088       1972.686        31.8725       37.00447         0.5315         -74.08      -53.43571     0.08520151     0.06364809
      3366.5000         1.0936       2046.899        35.7284       45.16114         0.5116         -72.48      -51.83876      0.2587476     0.09216499
      3367.0000         0.9784       2121.111        35.5305       44.74154         0.5016         -71.76      -51.12181        0.24982      0.1049677
      3367.5000         0.9286        2128.56        35.0357       43.69382         0.4915         -70.56      -49.92486      0.2275281      0.1263418
      3368.0000         0.9546       2097.769        34.0064       41.51529         0.4915         -68.96      -48.32791      0.1811763      0.1548587
      3368.5000         0.9807       2057.221        32.9772       39.33698         0.4914         -69.52      -48.89096      0.1348293      0.1448043
      3369.0000         1.0067       2063.214        31.7716       36.78548         0.4913         -70.16      -49.53402     0.08054214      0.1333211
      3369.5000         1.0327       2081.126        31.6726        36.5751         0.4912          -70.8      -50.17707     0.07606604       0.121838
      3370.0000          1.002        2295.79        31.8701       36.99203         0.4911         -71.44      -50.82012     0.08493683       0.110355
      3370.5000         0.9525       2313.701        38.6926       51.42489         0.4911            -72      -51.38317      0.3920189      0.1003005
      3371.0000         0.9029       2440.281        34.7611       43.10643         0.4711         -72.64      -52.02622      0.2150305     0.08881746
      3371.5000         0.8533        2566.86           29.1        31.1288         0.4313         -73.28      -52.66927              0      0.0773344
      3372.0000         0.7894        2693.44        29.0009       30.91823         0.3915         -73.68      -53.07233              0     0.07013702
      3372.5000         0.7795        2820.02        29.1985       31.33535         0.3617         -73.68      -53.07538              0     0.07008253
      3373.0000         0.7457       2946.599        31.9037       37.05761         0.3417         -72.56      -51.95843     0.08633204     0.09002808
      3373.5000         0.7457       3073.178        34.6089       42.77985         0.3218         -71.12      -50.52148      0.2080818      0.1156878
      3374.0000         0.7587       3237.853        36.7127       47.22976         0.3118         -71.76      -51.16454      0.3027608      0.1042047
      3374.5000         0.7717       3339.221        36.2181       46.18245         0.3018         -71.92      -51.32758      0.2804777      0.1012932
      3375.0000         0.7873       3446.548        35.2643       44.16366         0.2918          -72.8      -52.21064      0.2375246     0.08552428
      3375.5000         0.7834       3565.792        34.3106       42.14507         0.2917          -73.6      -53.01369      0.1945759     0.07118416
      3376.0000         0.7814       3625.446        33.3568       40.12629         0.2717          -74.4      -53.81674      0.1516231      0.0568439
      3376.5000         0.7704       3655.306        32.4031       38.10769         0.2717         -75.28      -54.69979      0.1086742     0.04107516
      3377.0000         0.7594       3720.918        31.4493       36.08891         0.2716         -76.08      -55.50285     0.06572139      0.0267349
      3377.5000         0.7485       3697.147        30.4955       34.07011         0.2715         -76.32       -55.7459     0.02276839     0.02239473
      3378.0000         0.7375       3485.508        29.2932       31.52559         0.2715            -74      -53.42895              0      0.0637688
      3378.5000         0.7266       3273.869        30.7766       34.66298          0.305         -71.68        -51.112     0.03538262      0.1051429
      3379.0000         0.7156        3083.58        32.1385       37.54331         0.3384         -69.44      -48.87505     0.09666613      0.1450883
      3379.5000         0.7097       2853.017        33.5004       40.42365         0.3606         -67.12      -46.55811      0.1579501      0.1864624
      3380.0000         0.7177       2622.453        34.8624        43.3042         0.3605         -64.24      -43.68115      0.2192382      0.2378366
      3380.5000         0.8347       2391.889        36.2243       46.18454         0.3605         -64.24       -43.6842      0.2805221      0.2377821
      3381.0000         1.4943       2161.326        37.5862       49.06487         0.3902         -64.64      -44.08726      0.3418056      0.2305847
      3381.5000         1.5002       1930.762        38.9482       51.94544         0.4696         -65.04      -44.49031      0.4030944      0.2233873
      3382.0000         1.6783        1713.43        39.7734       53.69032         0.5688         -65.52      -44.97336      0.4402196      0.2147615
      3382.5000         1.8564       1707.541        39.4422        52.9887         0.5687         -65.84      -45.29641      0.4252915      0.2089927
      3383.0000         1.9788       1463.302        39.3774        52.8507         0.6382         -64.56      -44.01946      0.4223552      0.2317953
      3383.5000         1.9808        1475.29        39.1441       52.35619         0.6381         -63.28      -42.74252      0.4118337      0.2545979
      3384.0000         1.9609       1481.284         38.882       51.80077          0.638         -61.68      -41.14557      0.4000163      0.2831149
      3384.5000         1.6669       1505.188         38.783       51.59041         0.6379         -59.92      -39.38862      0.3955407      0.3144889
      3385.0000         1.3729       1547.004        38.8817       51.79831         0.6379         -50.16      -29.63167      0.3999639      0.4887201
      3385.5000         1.0591       1552.998         40.446       55.10685         0.6378         -40.48      -19.95472      0.4703585      0.6615228
      3386.0000         1.0472       1529.268        42.0102       58.41517         0.6575          -30.4      -9.877775      0.5407484      0.8414683
      3386.5000         0.9823       1511.462        43.5744       61.72349         0.6674          -26.4      -5.880827      0.6111381      0.9128424
      3387.0000         0.9174        1499.65        45.1387       65.03201         0.6673         -22.48      -1.963879      0.6815322      0.9827879
      3387.5000         0.8286       1487.802        46.7029       68.34035         0.6871         -19.36       1.153069      0.7519223              1
      3388.0000         0.8266       1475.955        48.2671        71.6487          0.687         -19.92      0.5900173      0.8223127              1
      3388.5000         0.8393       1446.233        49.8314       74.95722          0.687         -24.32      -3.813034      0.8927069      0.9497672
      3389.0000         0.8564        1416.51        51.3956       78.26553         0.6869         -28.72      -8.216085      0.9630964      0.8711413
      3389.5000         0.8743       1404.663        52.5272       80.65867         0.6868         -33.12      -12.61914              1      0.7925154
      3390.0000         1.3648       1339.189        49.7887       74.86411         0.7165         -37.44      -16.94219      0.8907258      0.7153181
      3390.5000         1.3668       1321.385        47.0501       69.06939         0.7226         -41.84      -21.34524      0.7674338      0.6366921
      3391.0000         1.7382       1315.496        44.3116       63.27486         0.7287         -47.84      -27.34829      0.6441459      0.5294948
      3391.5000         1.7223       1315.567        43.2294       60.98441         0.7348         -47.84      -27.35135       0.595413      0.5294403
