#------------------------------------------------------------------------------
# Created by    : vladimir.rabinovich
# Created on    : 09/19/2023 17:21:28
#------------------------------------------------------------------------------
~Version Information Section
VERS.           2.0     :   CWLS log ASCII Standard - VERSION 2.0
WRAP.           NO      :   One line per depth step
~Well Information Section
#MNEM       .UNIT                                         VALUE :DESCRIPTION
#------------------------------------------------------------------------------
STRT        .FT                                            2437 :START DEPTH
STOP        .FT                                            8654 :STOP DEPTH
STEP        .FT                                             0.5 :STEP      
NULL        .                                           -999.25 :NULL      
COMP        .                                      PELTO OIL CO :COMPANY   
WELL        .                                     ST TR 00163-S :WELL      
FLD         .                                           WILDCAT :FIELD     
LOC         .                                                   :LOCATION  
CNTY        .                             GALVESTON SMALL BLOCK :LOCATION  
STAT        .                                             TEXAS :STATE     
CTRY        .                                     UNITED STATES :COUNTRY   
SRVC        .                                                   :SERVICE COMPANY
DATE        .                             9/13/2023 11:19:17 AM :LOG DATE  
API         .                                    42605301550000 :API NUMBER
UWI         .                                    42605301550000 :UNIQUE WELL ID
XCOORD      .                                  1154226.19631992 :SURFACE X 
YCOORD      .                                  10687289.1653299 :SURFACE Y 
LAT         .                                        29.4396686 :LATITUDE  
LON         .                                       -94.5278571 :LONGITUDE 
ELEV        .FT                                             111 :ELEVATION VALUE
ELEV_TYPE   .                                                KB :ELEVATION REFERENCE TYPE
~Curve Information Section
#MNEM       .UNIT                                      API CODE :CURVE DESCRIPTION
#------------------------------------------------------------------------------
DEPT        .FT                                                 :DEPTH     
CALI        .IN                                                 :          
GR          .GAPI                                               :          
GR_NORM     .GAPI                                               :GammaRay Normalized
ILD         .OHMM                                               :          
ILM         .OHMM                                               :          
NPSS        .%                                                  :Neutron Porosity Sandstone
RHOB        .G/CM3                                              :          
SFL         .OHMM                                               :          
SP          .MV                                                 :          
SP_NORM     .GAPI                                               :SP Normalized
TENS        .LB                                                 :          
VSH_GR      .V/V                                                :Volume of Shale from GR
VSH_SP      .V/V                                                :Volume of Shale from SP
~A        DEPTH           CALI             GR        GR_NORM            ILD            ILM           NPSS           RHOB            SFL             SP        SP_NORM           TENS         VSH_GR         VSH_SP
# ...
      4128.0000             12             71       62.08974         0.7963         0.8295          36.96          2.205         0.8719           72.3      -16.35254            -20      0.6189308      0.7484226
      4128.5000          12.16           71.8       63.14044          0.764         0.8109           36.9          2.201         0.8719           71.2      -18.01101            -20       0.641286      0.7229076
      4129.0000          12.59           72.2       63.66578         0.7296         0.7854          37.32          2.194         0.8719           70.5      -19.06639            -20      0.6524635      0.7066709
      4129.5000          12.87           72.1       63.53445         0.7196         0.7818          37.98          2.187         0.8759           70.1      -19.66947            -20      0.6496692      0.6973928
      4130.0000          12.72           70.9        61.9584         0.7229         0.7818          38.58          2.184         0.8798         69.901      -19.96949            -20      0.6161362       0.692777
      4130.5000        11.7504         70.205       61.04561         0.7364         0.7818          38.28          2.193         0.8879        69.8079      -20.10986            -20      0.5967152      0.6906175
      4131.0000        11.5508         70.415       61.32142         0.7466         0.7818          37.92          2.206         0.8879        69.7188      -20.24419            -20      0.6025833      0.6885509
      4131.5000        12.2425         71.625        62.9106         0.7466         0.7818          36.78          2.221         0.8879        69.8277      -20.08001            -20      0.6363957      0.6910768
      4132.0000        12.8635         72.835       64.49977         0.7501         0.7818          35.82          2.231         0.8798        69.8376      -20.06508            -20      0.6702079      0.6913065
      4132.5000        12.7045         74.045       66.08895         0.7605          0.789           35.4          2.231          0.868        69.8475      -20.05015            -20      0.7040203      0.6915361
      4133.0000        12.4555         75.255       67.67813         0.7675            0.8          36.42          2.224         0.8524        69.7584      -20.18449            -20      0.7378326      0.6894694
      4133.5000        12.2065         76.365       69.13597         0.7746         0.8109           37.8           2.21         0.8371        69.5703      -20.46809            -20      0.7688504      0.6851063
      4134.0000        11.9572         76.375       69.14911            0.8         0.8183          38.64          2.199         0.8333        68.8871      -21.49814            -20        0.76913      0.6692594
      4134.5000        11.7262         76.385       69.16223         0.8073         0.8295          38.88           2.19         0.8447        67.6098      -23.42392            -20      0.7694092       0.639632
      4135.0000        11.6562         74.595       66.81131         0.8146         0.8183          38.58          2.178         0.8759        65.9364      -25.94689            -20      0.7193896      0.6008171
      4135.5000        11.7984         72.505       64.06636         0.8073            0.8          38.34          2.164         0.8919        64.0651      -28.76823            -20      0.6609864      0.5574118
      4136.0000        11.9915         72.615       64.21083         0.7818          0.789          37.68          2.161         0.8838        62.2927      -31.44047            -20      0.6640602      0.5163005
      4136.5000        12.1525         75.425       67.90141         0.7398          0.757          36.18          2.181         0.8838        60.3224      -34.41108            -20      0.7425831      0.4705988
      4137.0000        12.1635         78.535       71.98598         0.6967          0.713           35.4          2.211         0.8959        57.9355      -38.00978            -20      0.8294891      0.4152341
      4137.5000        12.2445         78.945       72.52447         0.6557         0.6743          36.18          2.206         0.9174        55.6454      -41.46255            -20      0.8409461      0.3621147
      4138.0000        12.4155         77.155       70.17352         0.6171         0.6376          39.78          2.151         0.8838        54.0553      -43.85993            -20       0.790926      0.3252319
      4138.5000        12.8465         75.265       67.69126         0.5733         0.6028           43.5          2.091         0.8146        53.9653      -43.99562            -20      0.7381119      0.3231442
      4139.0000        13.2875         73.575       65.47167         0.5186         0.5707          43.62          2.017          0.757        54.9754      -42.47271            -20      0.6908866      0.3465738
      4139.5000        13.1685         72.185       63.64608         0.4685         0.5378          44.34          2.001         0.7196        55.8855      -41.10055            -20      0.6520442      0.3676838
      4140.0000        12.7995         73.295       65.10392         0.4229         0.5046          43.98          1.993         0.7163        54.9955      -42.44241            -20      0.6830621      0.3470399
      4140.5000        12.6594        72.6941       64.31472          0.384          0.473        43.3782          1.986         0.7165        53.4966      -44.70228            -20      0.6662706      0.3122726
      4141.0000        12.7684        69.3726       59.95236         0.3475         0.4434        44.0952         1.9711         0.7168        50.2846      -49.54499            -20      0.5734544      0.2377694
      4141.5000        13.0074        61.9337       50.18233         0.3144         0.4157        45.4123         1.9471         0.7305        46.7743      -54.83744            -20      0.3655816       0.156347
      4142.0000        13.0667        56.0818       42.49662         0.2936         0.3898        46.5493         1.9222         0.7548        44.6644      -58.01852            -20      0.2020558      0.1074073
      4142.5000         13.126        52.3758       37.62927         0.2767         0.3658        47.5063         1.9062         0.7727        43.1545      -60.29499            -20     0.09849516     0.07238482
      4143.0000        13.1654         51.085       35.93397         0.2668         0.3577        47.2034         1.8943         0.7766        42.1446       -61.8176            -20     0.06242492     0.04895994
      4143.5000         13.084        52.2985       37.52775         0.2645         0.3579        45.8804         1.8993         0.7663        41.3347      -63.03868            -20     0.09633515     0.03017414
      4144.0000        12.8225        53.9078       39.64135         0.2695         0.3614        45.1574         1.9204         0.7458        40.8248      -63.80746            -20      0.1413054     0.01834682
      4144.5000        12.9115        55.9113       42.27269         0.2759         0.3733        45.2144         1.9314         0.7191        41.2149       -63.2193            -20      0.1972914     0.02739534
      4145.0000        13.1519        55.0212       41.10366         0.2838         0.3769        45.3914         1.9145         0.7194         41.805      -62.32962            -20      0.1724182     0.04108282
      4145.5000        13.0702        52.6433        37.9806          0.296         0.3857        45.6285         1.9055         0.7366        43.0941      -60.38605            -20      0.1059702     0.07098383
      4146.0000        12.6584        50.8674       35.64819         0.3114          0.393        45.3255         1.8956         0.7506        44.9842      -57.53636            -20     0.05634438      0.1148252
      4146.5000        12.5774         50.187       34.75457         0.3321         0.4042        43.1024         1.8956         0.7684        46.8743      -54.68668            -20     0.03733128      0.1586665
