#------------------------------------------------------------------------------
# Created by    : vladimir.rabinovich
# Created on    : 09/19/2023 17:20:26
#------------------------------------------------------------------------------
~Version Information Section
VERS.           2.0     :   CWLS log ASCII Standard - VERSION 2.0
WRAP.           NO      :   One line per depth step
~Well Information Section
#MNEM       .UNIT                                         VALUE :DESCRIPTION
#------------------------------------------------------------------------------
STRT        .FT                                             344 :START DEPTH
STOP        .FT                                           10034 :STOP DEPTH
STEP        .FT                                             0.5 :STEP      
NULL        .                                           -999.25 :NULL      
COMP        .                                        TEXACO USA :COMPANY   
WELL        .                                     ST TR 00136-S :WELL      
FLD         .                                           WILDCAT :FIELD     
LOC         .                                                   :LOCATION  
CNTY        .                           HIGH ISLAND SMALL BLOCK :LOCATION  
STAT        .                                             TEXAS :STATE     
CTRY        .                                     UNITED STATES :COUNTRY   
SRVC        .                                                   :SERVICE COMPANY
DATE        .                             9/13/2023 11:19:17 AM :LOG DATE  
API         .                                    42606000310000 :API NUMBER
UWI         .                                    42606000310000 :UNIQUE WELL ID
XCOORD      .                                  1183554.44061246 :SURFACE X 
YCOORD      .                                  10706170.1937531 :SURFACE Y 
LAT         .                                          29.49262 :LATITUDE  
LON         .                                       -94.4364494 :LONGITUDE 
ELEV        .FT                                              52 :ELEVATION VALUE
ELEV_TYPE   .                                                KB :ELEVATION REFERENCE TYPE
~Curve Information Section
#MNEM       .UNIT                                      API CODE :CURVE DESCRIPTION
#------------------------------------------------------------------------------
DEPT        .FT                                                 :DEPTH     
ASN         .OHMM                                               :          
CILD        .MMHO                                               :          
LAT         .OHMM                                               :          
LN          .OHMM                                               :          
SP          .MV                                                 :          
SP_NORM     .MV                                                 :SP Normalized
VSH_SP      .V/V                                                :Volume of Shale from SP
~A        DEPTH            ASN           CILD            LAT             LN             SP        SP_NORM         VSH_SP
       344.0000         1.6197        -999.25              0         0.1053        -39.523         10.477              1
       344.5000         1.6526        -999.25         0.0003         0.1315       -43.6468       6.353199              1
       345.0000         1.6913        -999.25         0.0037         0.1736       -46.7646       3.235401              1
       345.5000         1.7389        -999.25         0.0071         0.2158        -49.587      0.5693512              1
       346.0000         1.7826        -999.25         0.0105         0.2672       -52.1044      -1.533611      0.9644259
       346.5000         1.8151        -999.25         0.0123         0.3624       -54.6294      -3.644173      0.8237218
       347.0000         1.8144        -999.25         0.0132         0.4576       -56.1578      -4.758137      0.7494575
       347.5000          1.791        -999.25         0.0141         0.5998       -57.1276      -5.313503      0.7124331
       348.0000         1.7691        -999.25          0.015         0.7653        -57.297      -5.068466      0.7287689
       348.5000         1.7471        -999.25         0.0159         0.9184       -56.8718      -4.228828      0.7847448
       349.0000          1.744        -999.25         0.0182         1.0603       -56.4467      -3.389294      0.8407137
       349.5000         1.7495        -999.25         0.0207         1.2022       -56.0468      -2.574955       0.895003
       350.0000         1.7736        -999.25         0.0233         1.3529       -55.6756      -1.789318      0.9473788
       350.5000         1.8009        -999.25         0.0258         1.5023       -55.3043      -1.003582      0.9997612
       351.0000         1.8292        -999.25         0.0281          1.628       -54.9331     -0.5852776              1
       351.5000         1.8582        -999.25         0.0294         1.7519       -54.6992     -0.3513756              1
       352.0000          1.887        -999.25         0.0307         1.8666       -54.5214     -0.1735764              1
       352.5000         1.9143        -999.25          0.032         1.9736       -54.3435    0.004325867              1
       353.0000         1.9412        -999.25         0.0319         2.0591       -54.1656      0.1822243              1
       353.5000         1.9619        -999.25         0.0291         2.1446       -54.4383    -0.09047699              1
       354.0000         1.9826        -999.25         0.0263         2.2132       -54.7316     -0.3837776              1
       354.5000         2.0216        -999.25         0.0242         2.2682        -55.025     -0.6771774              1
       355.0000         2.1938        -999.25         0.0272         2.3232       -55.5645      -1.216675       0.985555
       355.5000         2.3661        -999.25         0.0302         2.3585       -56.1629      -1.815075      0.9456617
       356.0000         2.5383        -999.25         0.0332         2.3842       -56.7737      -2.425877      0.9049416
       356.5000         2.7105        -999.25         0.0357           2.41       -57.5853      -3.237476      0.8508349
       357.0000         2.8828        -999.25         0.0335         2.4172       -58.3969      -4.049076      0.7967283
       357.5000          3.034        -999.25         0.0312         2.4132       -59.2504      -4.902576      0.7398282
       358.0000         3.0969        -999.25         0.0289         2.4058       -60.1955      -5.847675      0.6768216
       358.5000         3.1601        -999.25         0.0266         2.3964       -61.1406      -6.792774      0.6138151
       359.0000         3.2256        -999.25         0.0288         2.3869       -62.1941      -7.846275      0.5435817
       359.5000          3.284        -999.25         0.0318         2.3796       -63.2517      -8.903877      0.4730749
       360.0000         3.3347        -999.25         0.0348         2.3758       -64.2976      -9.949776      0.4033483
       360.5000         3.3653        -999.25         0.0378         2.3719       -64.9493      -10.60148      0.3599014
       361.0000         3.3842        -999.25         0.0511          2.368        -65.601      -11.25317      0.3164551
       361.5000          3.403        -999.25         0.0668         2.3633       -66.1219      -11.77408      0.2817281
       362.0000         3.3862        -999.25         0.1088         2.3546       -66.3085      -11.96068      0.2692881
       362.5000         3.3691        -999.25         0.1696         2.3458        -66.495      -12.14718      0.2568547
       363.0000         3.3414        -999.25         0.2368         2.3164        -66.434      -12.08617      0.2609217
       363.5000         3.2853        -999.25         0.3564         2.2702       -66.2766      -11.92878      0.2714147
       364.0000         3.2097        -999.25         0.4761         2.2239       -66.1191      -11.77128      0.2819148
       364.5000         3.0647        -999.25         0.7296         2.1777       -65.7002      -11.35238      0.3098414
       365.0000         2.9676        -999.25         1.1225         2.1315       -64.8206      -10.47278      0.3684815
       365.5000         2.9278        -999.25         1.5096          2.112       -62.6379      -8.290077      0.5139949
       366.0000          2.888        -999.25         1.6669         2.0995       -59.5677      -5.219875       0.718675
       366.5000         2.8482        -999.25          1.797          2.087       -56.6357      -2.287876      0.9141416
       367.0000         2.8084        -999.25         1.8847         2.0745       -55.0009     -0.6530762              1
       367.5000         2.7686        -999.25         1.9343          2.062       -54.9365     -0.5886765              1
       368.0000         2.7288        -999.25         1.9779         2.0495       -55.9285      -1.580677      0.9612882
       368.5000         2.6889        -999.25         2.0214         2.0552       -57.1366      -2.788776      0.8807482
       369.0000         2.6491        -999.25         2.0858         2.0664       -58.6088      -4.260975      0.7826017
       369.5000         2.6093        -999.25         2.1665         2.0775       -58.9206      -4.572777      0.7618149
       370.0000         2.5695        -999.25         2.2441         2.0887       -59.2325      -4.884674      0.7410218
       370.5000         2.5297        -999.25         2.3203         2.0998       -59.5856      -5.237778      0.7174815
       371.0000         2.4899        -999.25         2.3884         2.1109       -60.4185      -6.070675       0.661955
       371.5000         2.4501        -999.25         2.4516         2.1238       -61.2983      -6.950478      0.6033015
       372.0000         2.4103        -999.25          2.516         2.1386       -62.5247      -8.176876      0.5215416
       372.5000         2.3705        -999.25         2.5828         2.1533       -63.6991      -9.351276      0.4432482
       373.0000         2.3307        -999.25         2.6496          2.168       -63.2592      -8.911377      0.4725749
       373.5000         2.2908        -999.25         2.7366         2.1827       -62.4014      -8.053577      0.5297615
       374.0000          2.251        -999.25         2.8418         2.1953       -61.7294      -7.381577      0.5745615
       374.5000         2.2112        -999.25          2.863         2.2006       -61.0574      -6.709576      0.6193616
       375.0000         2.1714        -999.25         2.7865         2.2058       -60.3875      -6.039677      0.6640216
       375.5000         2.1316        -999.25         2.7242          2.211       -59.9134      -5.565575      0.6956283
       376.0000         2.0918        -999.25          2.665         2.2071       -59.4393      -5.091476      0.7272349
       376.5000          2.052        -999.25         2.6157         2.1885       -58.9498      -4.601974      0.7598684
       377.0000         2.0122        -999.25         2.5687           2.17       -58.4515      -4.103676      0.7930883
