#------------------------------------------------------------------------------
# Created by    : vladimir.rabinovich
# Created on    : 09/19/2023 17:20:27
#------------------------------------------------------------------------------
~Version Information Section
VERS.           2.0     :   CWLS log ASCII Standard - VERSION 2.0
WRAP.           NO      :   One line per depth step
~Well Information Section
#MNEM       .UNIT                                         VALUE :DESCRIPTION
#------------------------------------------------------------------------------
STRT        .FT                                             304 :START DEPTH
STOP        .FT                                            9519 :STOP DEPTH
STEP        .FT                                             0.5 :STEP      
NULL        .                                           -999.25 :NULL      
COMP        .                                        TEXACO INC :COMPANY   
WELL        .                                     ST TR 00216-S :WELL      
FLD         .                                           WILDCAT :FIELD     
LOC         .                                                   :LOCATION  
CNTY        .                             GALVESTON SMALL BLOCK :LOCATION  
STAT        .                                             TEXAS :STATE     
CTRY        .                                     UNITED STATES :COUNTRY   
SRVC        .                                                   :SERVICE COMPANY
DATE        .                             9/13/2023 11:19:17 AM :LOG DATE  
API         .                                    42605000160000 :API NUMBER
UWI         .                                    42605000160000 :UNIQUE WELL ID
XCOORD      .                                  1087579.10798688 :SURFACE X 
YCOORD      .                                  10638823.7542325 :SURFACE Y 
LAT         .                                         29.303831 :LATITUDE  
LON         .                                       -94.7349593 :LONGITUDE 
ELEV        .FT                                              15 :ELEVATION VALUE
ELEV_TYPE   .                                                KB :ELEVATION REFERENCE TYPE
~Curve Information Section
#MNEM       .UNIT                                      API CODE :CURVE DESCRIPTION
#------------------------------------------------------------------------------
DEPT        .FT                                                 :DEPTH     
ASN         .OHMM                                               :          
LAT         .OHMM                                               :          
LN          .OHMM                                               :          
SP          .MV                                                 :          
SP_NORM     .MV                                                 :SP Normalized
VSH_SP      .V/V                                                :Volume of Shale from SP
~A        DEPTH            ASN            LAT             LN             SP        SP_NORM         VSH_SP
# ...
      8892.0000         0.7831          0.929         1.2905       -36.9166      -3.036819      0.9584323
      8892.5000         0.7821         0.9318         1.2833       -37.1192      -3.239422      0.9542975
      8893.0000         0.7811         0.9391         1.2761       -37.3221      -3.442322      0.9501567
      8893.5000         0.7801         0.9463         1.2709        -37.525      -3.645222      0.9460159
      8894.0000         0.7792         0.9535         1.2705       -37.7276       -3.84782      0.9418812
      8894.5000         0.7782         0.9607         1.2702       -37.9436       -4.06382      0.9374731
      8895.0000         0.7775         0.9679         1.2699       -38.1609       -4.28112      0.9330384
      8895.5000         0.7768         0.9751         1.2695       -38.3783       -4.49852      0.9286016
      8896.0000         0.7761          0.982         1.2692       -38.5956       -4.71582      0.9241669
      8896.5000         0.7753          0.979         1.2689       -38.8129      -4.933121      0.9197322
      8897.0000         0.7746          0.976         1.2685         -39.03      -5.150219      0.9153017
      8897.5000           0.78          0.973         1.2685       -39.2474      -5.367619      0.9108649
      8898.0000         0.7865           0.97         1.2699       -39.4127      -5.532921      0.9074914
      8898.5000          0.793          0.967         1.2714       -39.2971       -5.41732      0.9098506
      8899.0000         0.7995          0.964         1.2728       -39.1816      -5.301819      0.9122078
      8899.5000          0.806          0.961         1.2742        -39.066      -5.186222      0.9145669
      8900.0000         0.8119         0.9651         1.2757       -38.9505      -5.070721      0.9169241
      8900.5000         0.8147         0.9868         1.2771       -38.8349       -4.95512      0.9192833
      8901.0000         0.8175         1.0084         1.2786       -38.7194      -4.839619      0.9216405
      8901.5000         0.8203         1.0302          1.277       -38.6038      -4.724022      0.9239995
      8902.0000          0.823         1.0518         1.2727       -38.4883      -4.608521      0.9263567
      8902.5000         0.8207         1.0735         1.2685       -38.3822      -4.502419      0.9285221
      8903.0000         0.8185         1.0935         1.2642       -38.2766       -4.39682      0.9306771
      8903.5000         0.8162          1.107           1.26       -38.1708      -4.291019      0.9328364
      8904.0000          0.814         1.1205         1.2557       -38.0651      -4.185322      0.9349934
      8904.5000         0.8117         1.1341         1.2514       -37.9593      -4.079521      0.9371526
      8905.0000         0.8095         1.1476         1.2473       -37.8535      -3.973721      0.9393118
      8905.5000         0.8072         1.1611         1.2435       -37.7478      -3.868019       0.941469
      8906.0000          0.805         1.1746         1.2397        -37.642      -3.762218      0.9436282
      8906.5000         0.8027         1.1882         1.2358       -37.5362      -3.656422      0.9457873
      8907.0000         0.8005         1.2017          1.232       -37.4305       -3.55072      0.9479445
      8907.5000         0.8002         1.2076         1.2282       -37.4373      -3.557522      0.9478057
      8908.0000            0.8         1.2015         1.2244       -37.4845      -3.604721      0.9468424
      8908.5000         0.7998         1.1953         1.2206       -37.5317       -3.65192      0.9458792
      8909.0000         0.7996         1.1892         1.2168       -37.5788       -3.69902       0.944918
      8909.5000         0.7994         1.1831          1.213        -37.626       -3.74622      0.9439547
      8910.0000         0.7992         1.1769         1.2121       -37.6731       -3.79332      0.9429935
      8910.5000          0.799           1.17         1.2134       -37.7203      -3.840519      0.9420303
      8911.0000         0.7988         1.1603         1.2147       -37.7675      -3.887722      0.9410669
      8911.5000         0.7985         1.1505         1.2161       -37.8145      -3.934719      0.9401078
      8912.0000          0.798         1.1408         1.2174       -37.8444      -3.964619      0.9394976
      8912.5000         0.7975         1.1311         1.2187       -37.4964      -3.616619      0.9465996
      8913.0000         0.7969         1.1214         1.2201       -37.1484       -3.26862      0.9537016
      8913.5000         0.7964         1.1117         1.2214       -36.7999       -2.92012      0.9608139
      8914.0000         0.7958         1.1019         1.2227        -36.452       -2.57222      0.9679139
      8914.5000         0.7953         1.0922         1.2163        -36.104       -2.22422      0.9750159
      8915.0000         0.7947         1.0874         1.2092       -35.7555      -1.875721      0.9821281
      8915.5000         0.7942         1.0881         1.2021       -35.4075      -1.527721      0.9892302
      8916.0000         0.7906         1.0888          1.195       -35.0743      -1.194519      0.9960302
      8916.5000         0.7827         1.0896         1.1878       -34.8032       -0.92342              1
      8917.0000         0.7748         1.0903         1.1807       -34.5316     -0.6518211              1
      8917.5000         0.7669         1.0911         1.1736       -34.2606     -0.3808212              1
      8918.0000          0.759         1.0918         1.1662       -33.9895     -0.1097183              1
      8918.5000         0.7511         1.0925         1.1586       -33.7184      0.1613808              1
      8919.0000         0.7425         1.0905         1.1511       -33.4468      0.4329796              1
      8919.5000         0.7338         1.0861         1.1435       -33.1758      0.7039795              1
      8920.0000          0.725         1.0818          1.136       -32.9047      0.9750786              1
      8920.5000         0.7163         1.0775         1.1284       -32.6331       1.246681              1
      8921.0000         0.7075         1.0731         1.1208       -32.3857        1.49408              1
      8921.5000         0.7046         1.0688         1.1161       -32.1586        1.72118              1
      8922.0000         0.7054         1.0644         1.1126       -31.9315        1.94828              1
      8922.5000         0.7062         1.0622          1.109       -31.7043        2.17548              1
      8923.0000         0.7069         1.0614         1.1055       -31.4771       2.402679              1
      8923.5000         0.7077         1.0605          1.102         -31.25        2.62978              1
      8924.0000         0.7085         1.0597         1.0985       -31.0228       2.856979              1
      8924.5000         0.7092         1.0589         1.0949       -30.9183       2.961479              1
      8925.0000           0.71          1.058          1.085       -30.9583        2.92148              1
      8925.5000           0.71         1.0572         1.0734       -30.9982        2.88158              1
      8926.0000         0.7061         1.0563         1.0618       -31.0382       2.841579              1
      8926.5000         0.7022         1.0555         1.0502       -31.0782        2.80158              1
      8927.0000         0.6983         1.0634         1.0386       -31.1181       2.761681              1
      8927.5000         0.6944          1.075          1.027       -31.5156        2.36418              1
      8928.0000         0.6905         1.0867         1.0154       -31.9432       1.936581              1
      8928.5000         0.6866         1.0983          1.003       -32.3708        1.50898              1
      8929.0000         0.6827         1.1099         0.9904       -33.3361      0.5436783              1
      8929.5000         0.6788         1.1215         0.9778       -34.4967     -0.6169205              1
