#------------------------------------------------------------------------------
# Created by    : vladimir.rabinovich
# Created on    : 09/19/2023 17:20:26
#------------------------------------------------------------------------------
~Version Information Section
VERS.           2.0     :   CWLS log ASCII Standard - VERSION 2.0
WRAP.           NO      :   One line per depth step
~Well Information Section
#MNEM       .UNIT                                         VALUE :DESCRIPTION
#------------------------------------------------------------------------------
STRT        .FT                                             344 :START DEPTH
STOP        .FT                                           10034 :STOP DEPTH
STEP        .FT                                             0.5 :STEP      
NULL        .                                           -999.25 :NULL      
COMP        .                                        TEXACO USA :COMPANY   
WELL        .                                     ST TR 00136-S :WELL      
FLD         .                                           WILDCAT :FIELD     
LOC         .                                                   :LOCATION  
CNTY        .                           HIGH ISLAND SMALL BLOCK :LOCATION  
STAT        .                                             TEXAS :STATE     
CTRY        .                                     UNITED STATES :COUNTRY   
SRVC        .                                                   :SERVICE COMPANY
DATE        .                             9/13/2023 11:19:17 AM :LOG DATE  
API         .                                    42606000310000 :API NUMBER
UWI         .                                    42606000310000 :UNIQUE WELL ID
XCOORD      .                                  1183554.44061246 :SURFACE X 
YCOORD      .                                  10706170.1937531 :SURFACE Y 
LAT         .                                          29.49262 :LATITUDE  
LON         .                                       -94.4364494 :LONGITUDE 
ELEV        .FT                                              52 :ELEVATION VALUE
ELEV_TYPE   .                                                KB :ELEVATION REFERENCE TYPE
~Curve Information Section
#MNEM       .UNIT                                      API CODE :CURVE DESCRIPTION
#------------------------------------------------------------------------------
DEPT        .FT                                                 :DEPTH     
ASN         .OHMM                                               :          
CILD        .MMHO                                               :          
LAT         .OHMM                                               :          
LN          .OHMM                                               :          
SP          .MV                                                 :          
SP_NORM     .MV                                                 :SP Normalized
VSH_SP      .V/V                                                :Volume of Shale from SP
~A        DEPTH            ASN           CILD            LAT             LN             SP        SP_NORM         VSH_SP
# ...
      7412.5000         1.0617        -999.25          0.254         0.8704       -54.7907      -13.48635      0.8073378
      7413.0000         1.0362        -999.25         0.2426         0.8495        -54.001      -12.69665      0.8186193
      7413.5000         1.0059        -999.25         0.2313         0.8285       -53.2125      -11.90815      0.8298835
      7414.0000         0.9753        -999.25          0.229         0.8076       -52.4731      -11.16875      0.8404464
      7414.5000         0.9345        -999.25           0.23         0.7866       -51.7715      -10.46715      0.8504693
      7415.0000         0.8781        -999.25          0.231         0.7656         -51.07      -9.765652      0.8604907
      7415.5000         0.8062        -999.25          0.232         0.7447       -49.6814      -8.377052      0.8803278
      7416.0000         0.7645        -999.25          0.233         0.7237       -47.8679      -6.563553       0.906235
      7416.5000         0.7384        -999.25          0.234         0.7102       -46.1615      -4.857151      0.9306121
      7417.0000         0.7169        -999.25          0.235          0.699       -44.6224       -3.31805      0.9525993
      7417.5000         0.7044        -999.25          0.234         0.6878       -43.7033      -2.398952      0.9657292
      7418.0000         0.6946        -999.25         0.2318         0.6766       -43.3322      -2.027851      0.9710307
      7418.5000         0.6858        -999.25         0.2297         0.6654       -43.5436       -2.23925      0.9680107
      7419.0000         0.6771        -999.25         0.2275         0.6541       -43.7549      -2.450554      0.9649921
      7419.5000         0.6676        -999.25         0.2253         0.6429       -44.1511      -2.846752      0.9593321
      7420.0000         0.6498        -999.25         0.2231         0.6317       -44.5783      -3.273952      0.9532292
      7420.5000         0.6319        -999.25         0.2209         0.6205       -45.0049      -3.700554       0.947135
      7421.0000         0.6083        -999.25          0.227         0.6094       -45.4321       -4.12775      0.9410321
      7421.5000         0.5759        -999.25         0.2341         0.5981        -48.004      -6.699654      0.9042907
      7422.0000         0.5443        -999.25         0.2412         0.5869       -51.4659      -10.16155       0.854835
      7422.5000         0.5162        -999.25         0.2483         0.5757       -75.1953      -33.89095      0.5158436
      7423.0000         0.4982        -999.25         0.2554         0.5645       -80.7273      -39.42295      0.4368149
      7423.5000         0.4805        -999.25         0.2633         0.5651       -85.9113      -44.60695      0.3627578
      7424.0000          0.463        -999.25         0.3033         0.5695       -95.4406      -54.13625       0.226625
      7424.5000          0.473        -999.25         0.3432         0.5739       -99.4066      -58.10225      0.1699678
      7425.0000         0.4976        -999.25         0.3831         0.5782       -93.5044      -52.20005      0.2542849
      7425.5000         0.5241        -999.25         0.4231         0.5826       -86.9463      -45.64195      0.3479722
      7426.0000         0.5514        -999.25         0.4629         0.5869       -81.1646      -39.86025      0.4305679
      7426.5000         0.5887        -999.25         0.5029         0.5913       -76.2303      -34.92595      0.5010578
      7427.0000         0.6654        -999.25         0.5513         0.5956       -72.7908      -31.48645      0.5501935
      7427.5000         0.6885        -999.25         0.6002            0.6       -69.3556      -28.05125      0.5992678
      7428.0000          0.697        -999.25         0.6491         0.6044       -65.6125      -24.30816      0.6527407
      7428.5000         0.6853        -999.25         0.6962         0.6087       -61.7759      -20.47155      0.7075492
      7429.0000         0.6737        -999.25         0.7064         0.6131       -57.8634      -16.55905      0.7634421
      7429.5000          0.662        -999.25         0.7166         0.6175       -53.9374      -12.63305      0.8195278
      7430.0000         0.6503        -999.25         0.7269         0.6219        -50.886      -9.581654      0.8631192
      7430.5000         0.6387        -999.25         0.7371         0.6263       -47.9661      -6.661751      0.9048321
      7431.0000         0.6354        -999.25         0.7473         0.6307       -46.0812      -4.776852      0.9317592
      7431.5000         0.6326        -999.25         0.7471         0.6351       -44.1963      -2.891953      0.9586864
      7432.0000         0.6301        -999.25           0.74         0.6394       -43.3832      -2.078854      0.9703021
      7432.5000         0.6324        -999.25         0.7329         0.6438       -42.7073       -1.40295      0.9799579
      7433.0000         0.6347        -999.25         0.7259          0.647       -42.5178      -1.213451       0.982665
      7433.5000          0.637        -999.25         0.7188          0.649       -42.3682       -1.06385      0.9848021
      7434.0000         0.6401        -999.25         0.7111          0.651       -42.0187     -0.7143517       0.989795
      7434.5000         0.6437        -999.25          0.702          0.653       -41.8976     -0.5932503       0.991525
      7435.0000         0.6472        -999.25         0.6929         0.6551       -42.4408      -1.136452      0.9837649
      7435.5000         0.6506        -999.25         0.6838         0.6571       -42.9834       -1.67905      0.9760135
      7436.0000         0.6532        -999.25         0.6747         0.6591       -43.5266      -2.222252      0.9682536
      7436.5000         0.6557        -999.25         0.6656         0.6398       -43.7515      -2.447151      0.9650407
      7437.0000         0.6585        -999.25         0.6565         0.6426       -43.8819      -2.577553      0.9631778
      7437.5000         0.6619        -999.25         0.6474         0.6455       -44.0124      -2.708054      0.9613135
      7438.0000         0.6647        -999.25         0.6403         0.6483       -44.1429      -2.838551      0.9594493
      7438.5000         0.6669        -999.25         0.6356         0.6511       -44.2734      -2.969051       0.957585
      7439.0000         0.6695        -999.25         0.6309          0.654       -44.4039      -3.099552      0.9557207
      7439.5000          0.674        -999.25         0.6262         0.6568       -44.5344      -3.230053      0.9538564
      7440.0000         0.6789        -999.25         0.6215         0.6597       -44.5936      -3.289253      0.9530107
      7440.5000         0.6853        -999.25         0.6168         0.6615       -44.3901      -3.085751      0.9559178
      7441.0000         0.6844        -999.25         0.6121         0.6607       -44.1865      -2.882153      0.9588264
      7441.5000         0.6819        -999.25         0.6074         0.6598        -43.983      -2.678654      0.9617335
      7442.0000         0.6804        -999.25         0.6027         0.6589       -43.7795      -2.475151      0.9646407
      7442.5000         0.6842        -999.25          0.601          0.658       -43.5759      -2.271553      0.9675493
      7443.0000          0.688        -999.25         0.6006         0.6572       -43.3724       -2.06805      0.9704564
      7443.5000          0.704        -999.25         0.6003         0.6563       -43.2097      -1.905354      0.9727806
      7444.0000         0.7241        -999.25         0.5999         0.6554       -43.2303      -1.925953      0.9724864
      7444.5000         0.7441        -999.25         0.5996         0.6545        -43.251      -1.946651      0.9721907
      7445.0000         0.7728        -999.25         0.6074         0.6537       -43.2717      -1.967354      0.9718949
      7445.5000         0.8035        -999.25          0.628         0.6528       -43.6264      -2.322052      0.9668278
