#------------------------------------------------------------------------------
# Created by    : vladimir.rabinovich
# Created on    : 09/19/2023 17:21:28
#------------------------------------------------------------------------------
~Version Information Section
VERS.           2.0     :   CWLS log ASCII Standard - VERSION 2.0
WRAP.           NO      :   One line per depth step
~Well Information Section
#MNEM       .UNIT                                         VALUE :DESCRIPTION
#------------------------------------------------------------------------------
STRT        .FT                                            2437 :START DEPTH
STOP        .FT                                            8654 :STOP DEPTH
STEP        .FT                                             0.5 :STEP      
NULL        .                                           -999.25 :NULL      
COMP        .                                      PELTO OIL CO :COMPANY   
WELL        .                                     ST TR 00163-S :WELL      
FLD         .                                           WILDCAT :FIELD     
LOC         .                                                   :LOCATION  
CNTY        .                             GALVESTON SMALL BLOCK :LOCATION  
STAT        .                                             TEXAS :STATE     
CTRY        .                                     UNITED STATES :COUNTRY   
SRVC        .                                                   :SERVICE COMPANY
DATE        .                             9/13/2023 11:19:17 AM :LOG DATE  
API         .                                    42605301550000 :API NUMBER
UWI         .                                    42605301550000 :UNIQUE WELL ID
XCOORD      .                                  1154226.19631992 :SURFACE X 
YCOORD      .                                  10687289.1653299 :SURFACE Y 
LAT         .                                        29.4396686 :LATITUDE  
LON         .                                       -94.5278571 :LONGITUDE 
ELEV        .FT                                             111 :ELEVATION VALUE
ELEV_TYPE   .                                                KB :ELEVATION REFERENCE TYPE
~Curve Information Section
#MNEM       .UNIT                                      API CODE :CURVE DESCRIPTION
#------------------------------------------------------------------------------
DEPT        .FT                                                 :DEPTH     
CALI        .IN                                                 :          
GR          .GAPI                                               :          
GR_NORM     .GAPI                                               :GammaRay Normalized
ILD         .OHMM                                               :          
ILM         .OHMM                                               :          
NPSS        .%                                                  :Neutron Porosity Sandstone
RHOB        .G/CM3                                              :          
SFL         .OHMM                                               :          
SP          .MV                                                 :          
SP_NORM     .GAPI                                               :SP Normalized
TENS        .LB                                                 :          
VSH_GR      .V/V                                                :Volume of Shale from GR
VSH_SP      .V/V                                                :Volume of Shale from SP
~A        DEPTH           CALI             GR        GR_NORM            ILD            ILM           NPSS           RHOB            SFL             SP        SP_NORM           TENS         VSH_GR         VSH_SP
# ...
      7396.0000        10.3261        65.5469       47.29095         0.2488         0.2376        34.8948         2.0844         0.4337        34.7401      -66.92147       -14.2358      0.3040628     0.04397899
      7396.5000        10.2754        69.3696       53.84082         0.2629         0.2522        34.4177         2.1004         0.4159        37.0526      -63.68137       -13.7432      0.4434218      0.0902662
      7397.0000         10.265        75.0805       63.62597         0.2804         0.2665        34.3007         2.1253         0.4158        39.4609      -60.30714       -13.2013      0.6516163      0.1384694
      7397.5000        10.2646        75.1684       63.77658         0.2777         0.2702        35.0236         2.1563         0.4562        41.9597       -56.8062       -12.7087      0.6548209      0.1884828
      7398.0000        10.2643          72.45       59.11883         0.2701         0.2664        35.6268         2.1682         0.5097        41.2473      -57.80096       -12.2161      0.5557198       0.174272
      7398.5000         10.274        69.9344       54.80857         0.2651         0.2555        35.9297         2.1662         0.5482        39.6334      -60.05781       -11.7236      0.4640122      0.1420313
      7399.0000        10.2535         67.619       50.84133         0.2578          0.244        36.7126         2.1481         0.5406          38.02      -62.31395        -11.231      0.3796028      0.1098007
      7399.5000        10.2531        66.0086       48.08204         0.2473         0.2308        37.4355         2.1201         0.5187         36.309      -64.70675       -10.7384      0.3208944     0.07561787
      7400.0000        10.2527        65.2023       46.70052         0.2372         0.2173        37.6787          2.102         0.5093        34.9022      -66.67367       -10.2458      0.2915004     0.04751903
      7400.5000        10.2623        66.9972       49.77592         0.2203         0.2075        37.4417           2.09         0.5138        34.5973       -67.0979        -9.7025      0.3569345     0.04145857
      7401.0000        10.2719        67.4922       50.62406         0.2132         0.2074        36.7247         2.0809         0.4998        34.6923       -66.9623        -9.2075        0.37498     0.04339567
      7401.5000        10.3219        67.9872       51.47221         0.2132         0.2074        35.8277         2.0769         0.4837        34.7874      -66.82655        -8.7124      0.3930257     0.04533495
      7402.0000        10.3921        69.0822       53.34839         0.2201         0.2191        34.9308         2.0758         0.4616        35.3824      -65.99094        -8.2174      0.4329445     0.05727234
      7402.5000        10.4219        70.5772       55.90995         0.2294         0.2358        34.0338         2.0758         0.4385        35.8774      -65.29533        -7.7224      0.4874458     0.06720952
      7403.0000        10.4315        73.7722       61.38433         0.2413         0.2527        33.3165         2.1107         0.4108        38.3723      -61.79987        -7.2274      0.6039218      0.1171448
      7403.5000        10.4411        76.9672       66.85867          0.248         0.2657        33.1398         2.1447         0.4107        43.6673      -54.38425        -6.7323      0.7203971      0.2230822
      7404.0000        10.4406        80.2596       72.49992         0.2502         0.2657        34.6427         2.1746         0.4321        49.4622      -46.26878        -6.2373      0.8404238      0.3390174
      7404.5000        10.4098        82.0368         75.545         0.2502         0.2632        35.3656         2.1876          0.483        49.3572      -46.41317        -5.7423      0.9052127      0.3369547
      7405.0000        10.3588        82.0319       75.53658         0.2501         0.2595        34.1686         2.1795         0.5294        46.7523      -50.05742        -5.2473      0.9050337       0.284894
      7405.5000        10.2876        81.5319       74.67989           0.25         0.2571        33.6317         2.1705         0.5414        43.7474      -54.26167        -4.7027      0.8868062      0.2248333
      7406.0000        10.2669         81.428       74.50187           0.25         0.2535        35.0145         2.1574         0.5149         41.742      -57.06662        -4.2077      0.8830185      0.1847625
      7406.5000        10.2563        81.6211       74.83274         0.2499         0.2511        36.5177         2.1444         0.4894        42.4371      -56.09087        -3.7127      0.8900583      0.1987019
      7407.0000        10.2659        82.7053       76.69041         0.2522         0.2499        38.2006         2.1253         0.4825         44.232      -53.57541        -3.2177      0.9295831      0.2346371
      7407.5000        10.2957        82.9975       77.19108         0.2689          0.258        38.0836         2.1213         0.4735         46.227       -50.7798        -2.7226      0.9402357      0.2745743
      7408.0000        10.4467        82.6955       76.67362         0.2855          0.279        37.1266         2.1372          0.469        48.5224      -47.56362        -2.2276       0.929226      0.3205197
      7408.5000        10.5169        82.0965       75.64729         0.3044         0.3016        36.3496         2.1642         0.4821        51.7995      -42.97308        -1.7326       0.907389      0.3860989
      7409.0000        10.5871        81.4975       74.62095         0.3099         0.3244        36.7125         2.1901         0.5072        55.5566      -37.71053        -1.2376      0.8855521      0.4612781
      7409.5000        10.7886        83.2744       77.66552         0.3084         0.3199        37.8557         2.1971         0.5331        56.5418      -36.32863        -0.7425      0.9503302      0.4810196
      7410.0000        10.9194        84.3586       79.52319         0.3056         0.3084        38.7587          2.179         0.5553        54.0616      -39.79831        -0.2475       0.989855      0.4314528
      7410.5000        10.9189        81.5812       74.76437         0.2774         0.2918        39.4216          2.143         0.5654         49.097      -46.74614            0.3      0.8886037       0.332198
      7411.0000        10.9285        77.9921       68.61476         0.2541         0.2722        39.9646         2.1159         0.5731        44.0923       -53.7501            0.8      0.7577609      0.2321414
      7411.5000        10.9381        75.1872       63.80879         0.2338         0.2528        40.2676         2.0899         0.5703        41.5874      -57.25436         1.2999      0.6555062      0.1820806
      7412.0000        10.9376        74.3822        62.4295         0.2222         0.2482        39.9106         2.0828         0.5498        39.3824      -60.33875         1.7999      0.6261597      0.1380179
      7412.5000        10.9068        74.4772       62.59228         0.2252         0.2481        39.2536         2.0928          0.511        39.3774      -60.34314         2.2999      0.6296229      0.1379551
      7413.0000        10.9063        77.3725       67.55312         0.2304         0.2621        38.0567         2.1097         0.4767        41.7723      -56.98766         2.7999      0.7351727      0.1858905
      7413.5000        10.9462        81.6509        74.8838         0.2379         0.2834        37.3397         2.1457         0.4592        47.2675      -49.29178         3.2998      0.8911448      0.2958317
      7414.0000        11.0062        87.6856       85.22373         0.2479          0.305        36.6228         2.1796         0.4787        56.0024      -37.06031         3.7998              1      0.4705669
      7414.5000        11.0657         92.726       93.86002         0.2608         0.3236        36.0258         2.2116         0.5105        62.8249       -27.5062        -5.7497              1      0.6070544
