#------------------------------------------------------------------------------
# Created by    : vladimir.rabinovich
# Created on    : 09/19/2023 17:20:26
#------------------------------------------------------------------------------
~Version Information Section
VERS.           2.0     :   CWLS log ASCII Standard - VERSION 2.0
WRAP.           NO      :   One line per depth step
~Well Information Section
#MNEM       .UNIT                                         VALUE :DESCRIPTION
#------------------------------------------------------------------------------
STRT        .FT                                             344 :START DEPTH
STOP        .FT                                           10034 :STOP DEPTH
STEP        .FT                                             0.5 :STEP      
NULL        .                                           -999.25 :NULL      
COMP        .                                        TEXACO USA :COMPANY   
WELL        .                                     ST TR 00136-S :WELL      
FLD         .                                           WILDCAT :FIELD     
LOC         .                                                   :LOCATION  
CNTY        .                           HIGH ISLAND SMALL BLOCK :LOCATION  
STAT        .                                             TEXAS :STATE     
CTRY        .                                     UNITED STATES :COUNTRY   
SRVC        .                                                   :SERVICE COMPANY
DATE        .                             9/13/2023 11:19:17 AM :LOG DATE  
API         .                                    42606000310000 :API NUMBER
UWI         .                                    42606000310000 :UNIQUE WELL ID
XCOORD      .                                  1183554.44061246 :SURFACE X 
YCOORD      .                                  10706170.1937531 :SURFACE Y 
LAT         .                                          29.49262 :LATITUDE  
LON         .                                       -94.4364494 :LONGITUDE 
ELEV        .FT                                              52 :ELEVATION VALUE
ELEV_TYPE   .                                                KB :ELEVATION REFERENCE TYPE
~Curve Information Section
#MNEM       .UNIT                                      API CODE :CURVE DESCRIPTION
#------------------------------------------------------------------------------
DEPT        .FT                                                 :DEPTH     
ASN         .OHMM                                               :          
CILD        .MMHO                                               :          
LAT         .OHMM                                               :          
LN          .OHMM                                               :          
SP          .MV                                                 :          
SP_NORM     .MV                                                 :SP Normalized
VSH_SP      .V/V                                                :Volume of Shale from SP
~A        DEPTH            ASN           CILD            LAT             LN             SP        SP_NORM         VSH_SP
# ...
      2923.5000         0.4723        -999.25         0.4191         0.3808       -98.7662       -38.8894      0.1357912
      2924.0000         0.4533        -999.25         0.3925          0.379       -99.1033       -39.2221      0.1283979
      2924.5000         0.4344        -999.25         0.3658         0.3773       -99.4403      -39.55469      0.1210069
      2925.0000         0.4155        -999.25         0.3554         0.3755       -99.6445      -39.75449      0.1165669
      2925.5000         0.4002        -999.25         0.3487         0.3737       -99.7238      -39.82939      0.1149025
      2926.0000         0.3889        -999.25          0.342          0.372       -99.8029      -39.90409      0.1132425
      2926.5000         0.3775        -999.25         0.3353         0.3702        -99.882      -39.97878      0.1115826
      2927.0000         0.3747        -999.25         0.3286         0.3685       -99.9889      -40.08128       0.109305
      2927.5000         0.3741        -999.25         0.3246         0.3667      -100.1011      -40.18907      0.1069095
      2928.0000         0.3744        -999.25         0.3269          0.365      -100.2131      -40.29667      0.1045185
      2928.5000         0.3766        -999.25         0.3292         0.3644      -100.3252      -40.40437      0.1021251
      2929.0000         0.3787        -999.25         0.3315         0.3648      -100.4661      -40.54087     0.09909185
      2929.5000         0.3809        -999.25         0.3338         0.3653      -100.6078      -40.67817     0.09604077
      2930.0000          0.383        -999.25         0.3361         0.3658      -100.7495      -40.81546     0.09298985
      2930.5000         0.3854        -999.25         0.3403         0.3662      -100.8912      -40.95275     0.08993886
      2931.0000         0.3924        -999.25         0.3457         0.3667      -100.6682      -40.72535     0.09499224
      2931.5000         0.3995        -999.25         0.3511         0.3672      -100.3989      -40.45165      0.1010744
      2932.0000         0.4065        -999.25         0.3565         0.3677      -100.1294      -40.17775      0.1071611
      2932.5000         0.4136        -999.25         0.3619         0.3681       -99.8599      -39.90385      0.1132478
      2933.0000         0.4206        -999.25         0.3634         0.3686       -99.2479      -39.28744      0.1269457
      2933.5000         0.4294        -999.25         0.3612         0.3691       -98.4318      -38.46694      0.1451792
      2934.0000         0.4388        -999.25          0.359         0.3703       -97.6156      -37.64634      0.1634148
      2934.5000         0.4481        -999.25         0.3569         0.3722       -97.1246      -37.15094      0.1744236
      2935.0000         0.4575        -999.25         0.3471         0.3741       -96.7109      -36.73283       0.183715
      2935.5000         0.4668        -999.25         0.3361         0.3761       -96.4537      -36.47122      0.1895284
      2936.0000         0.4745        -999.25          0.325          0.378       -96.4545      -36.46762      0.1896084
      2936.5000         0.4816        -999.25         0.3139         0.3799       -96.4552      -36.46392      0.1896906
      2937.0000         0.4882        -999.25         0.3029         0.3818       -96.5601      -36.56441      0.1874575
      2937.5000         0.4888        -999.25         0.2918         0.3838       -96.6721      -36.67201      0.1850665
      2938.0000         0.4893        -999.25         0.3142         0.3857       -96.7842      -36.77971      0.1826731
      2938.5000         0.4987        -999.25         0.3393         0.3876        -96.861      -36.85211      0.1810643
      2939.0000         0.5136        -999.25         0.3639         0.3895       -96.3691      -36.35581      0.1920931
      2939.5000         0.5998        -999.25         0.3854         0.3915       -95.8771       -35.8594      0.2031245
      2940.0000          0.716        -999.25         0.4069         0.3934       -92.1263      -32.10419      0.2865734
      2940.5000         0.7785        -999.25         0.4284         0.3953       -82.1427       -22.1162       0.508529
      2941.0000         0.8353        -999.25         0.4499         0.3955       -79.4261       -19.3952      0.5689957
      2941.5000         0.8909        -999.25         0.4714         0.3953       -78.4908      -18.45549      0.5898781
      2942.0000         0.9203        -999.25         0.4738         0.4055       -77.5549      -17.51519      0.6107736
      2942.5000          0.967        -999.25         0.4725          0.423       -76.7534      -16.70929      0.6286826
      2943.0000         1.0169        -999.25         0.4712         0.4405       -76.7091      -16.66058      0.6297649
      2943.5000         1.0766        -999.25         0.4698         0.4546       -77.7051      -17.65218      0.6077294
      2944.0000          1.133        -999.25         0.4685         0.4618       -79.3154      -19.25807      0.5720428
      2944.5000         1.1836        -999.25         0.4671         0.4689       -80.9612      -20.89947      0.5355674
      2945.0000         1.2218        -999.25         0.4651         0.4761       -82.6373      -22.57117      0.4984185
      2945.5000         1.2515        -999.25         0.4623         0.4833       -84.4078      -24.33727      0.4591719
      2946.0000         1.2811        -999.25         0.4596         0.4829       -86.1796      -26.10466      0.4198964
      2946.5000         1.2347        -999.25         0.4569         0.4726        -87.873      -27.79366      0.3823631
      2947.0000         1.1815        -999.25         0.4542         0.4624       -88.3705      -28.28675      0.3714055
      2947.5000         1.1287        -999.25         0.4515         0.4522       -86.1329      -26.04475      0.4212278
      2948.0000         1.0944        -999.25         0.4472         0.4425       -84.6918      -24.59925        0.45335
      2948.5000          1.074        -999.25         0.4427         0.4359       -83.2505      -23.15355      0.4854767
      2949.0000         1.0765        -999.25         0.4381         0.4293       -84.2224      -24.12104      0.4639769
      2949.5000         1.0841        -999.25         0.4311         0.4227       -85.4949      -25.38914      0.4357968
      2950.0000         1.0749        -999.25         0.4221         0.4161       -86.7675      -26.65734      0.4076147
      2950.5000         1.0359        -999.25         0.4014         0.4095       -88.5043      -28.38974       0.369117
      2951.0000         0.9595        -999.25         0.3795         0.4029       -92.7694      -32.65043      0.2744348
      2951.5000         0.7309        -999.25         0.3577         0.4019       -95.5326      -35.40923      0.2131282
      2952.0000         0.6777        -999.25         0.3358         0.4092       -97.4358      -37.30803      0.1709328
      2952.5000         0.6381        -999.25          0.314         0.4166       -99.3401      -39.20792      0.1287128
      2953.0000         0.5984        -999.25         0.2922         0.4239       -99.7307      -39.59412      0.1201307
      2953.5000         0.5583        -999.25          0.278         0.4312       -99.9829      -39.84192       0.114624
      2954.0000         0.5285        -999.25         0.2641         0.4385       -100.235      -40.08961      0.1091197
      2954.5000         0.5136        -999.25         0.2501         0.4458      -100.4872      -40.33741      0.1036132
      2955.0000         0.5043        -999.25         0.2362         0.4441      -100.7394      -40.58521     0.09810647
      2955.5000         0.4968        -999.25         0.2223          0.438      -100.8462       -40.6876     0.09583104
      2956.0000         0.4893        -999.25         0.2176          0.432      -100.3428       -40.1798      0.1071156
      2956.5000         0.4816        -999.25         0.2413         0.4259       -99.8395       -39.6721      0.1183979
