#------------------------------------------------------------------------------
# Created by    : vladimir.rabinovich
# Created on    : 09/19/2023 17:19:42
#------------------------------------------------------------------------------
~Version Information Section
VERS.           2.0     :   CWLS log ASCII Standard - VERSION 2.0
WRAP.           NO      :   One line per depth step
~Well Information Section
#MNEM       .UNIT                                         VALUE :DESCRIPTION
#------------------------------------------------------------------------------
STRT        .FT                                             583 :START DEPTH
STOP        .FT                                            6498 :STOP DEPTH
STEP        .FT                                             0.5 :STEP      
NULL        .                                           -999.25 :NULL      
COMP        .                                        EXXON CORP :COMPANY   
WELL        .                                     ST TR 00692-S :WELL      
FLD         .                                           WILDCAT :FIELD     
LOC         .                                                   :LOCATION  
CNTY        .                      MATAGORDA ISLAND SMALL BLOCK :LOCATION  
STAT        .                                             TEXAS :STATE     
CTRY        .                                     UNITED STATES :COUNTRY   
SRVC        .                                                   :SERVICE COMPANY
DATE        .                             9/13/2023 11:19:17 AM :LOG DATE  
API         .                                    42603301950000 :API NUMBER
UWI         .                                    42603301950000 :UNIQUE WELL ID
XCOORD      .                                  518375.599551337 :SURFACE X 
YCOORD      .                                  10266878.6313095 :SURFACE Y 
LAT         .                                        28.2472954 :LATITUDE  
LON         .                                       -96.4850657 :LONGITUDE 
ELEV        .FT                                              89 :ELEVATION VALUE
ELEV_TYPE   .                                                KB :ELEVATION REFERENCE TYPE
~Curve Information Section
#MNEM       .UNIT                                      API CODE :CURVE DESCRIPTION
#------------------------------------------------------------------------------
DEPT        .FT                                                 :DEPTH     
ASFL        .OHMM                                               :          
CILD        .MMHO                                               :          
GR          .GAPI                                               :          
GR_NORM     .GAPI                                               :GammaRay Normalized
ILD         .OHMM                                               :          
SP          .MV                                                 :          
SP_NORM     .MV                                                 :SP Normalized
VSH_GR      .V/V                                                :Volume of Shale from GR
VSH_SP      .V/V                                                :Volume of Shale from SP
~A        DEPTH           ASFL           CILD             GR        GR_NORM            ILD             SP        SP_NORM         VSH_GR         VSH_SP
# ...
      4902.5000         0.9714       1113.585        57.1354       81.30107         0.9085         -15.68       3.380096              1              1
      4903.0000         0.9797       1101.736         57.135       81.29389         0.9085         -15.76       3.304123              1              1
      4903.5000          0.988       1089.887        57.1348       81.28703         0.9168         -15.76       3.308147              1              1
      4904.0000         0.9993       1078.038        57.2329       81.45174         0.9252            -16       3.072172              1              1
      4904.5000         0.9993       1060.235        57.4873       81.88921         0.9335         -16.08       2.996199              1              1
      4905.0000         1.0012        1054.34        57.7416       82.32653         0.9419         -16.24       2.840223              1              1
      4905.5000         1.0075       1036.537         57.996         82.764         0.9503          -16.4        2.68425              1              1
      4906.0000         1.0138       1030.642        58.2503       83.20132         0.9586         -16.56       2.528275              1              1
      4906.5000         1.0201       1018.793        58.1194       82.96636          0.967         -16.72       2.372299              1              1
      4907.0000         1.0265       1012.898        57.7243       82.27031         0.9753         -16.72       2.376326              1              1
      4907.5000         1.0328       1012.955        55.2636       77.96936         0.9871         -16.88        2.22035      0.9567949              1
      4908.0000         1.0391       1013.014        53.1823       74.33055         0.9969         -16.88       2.224375      0.8793734              1
      4908.5000         1.0454       1013.071        54.3665        76.3907          0.977         -16.88       2.228401      0.9232064              1
      4909.0000         1.0517       1036.973        55.0379       77.55597         0.9638         -17.04       2.072424      0.9479994              1
      4909.5000         1.0487       1054.891        55.7094       78.72136         0.9506          -17.2       1.916449      0.9727949              1
      4910.0000         1.0302       1060.903        56.3808       79.88661         0.9375         -17.28       1.840475      0.9975875              1
      4910.5000         1.0118       1072.868        57.0523       81.05201         0.9243         -17.44         1.6845              1              1
      4911.0000         0.9933       1096.739        57.7237       82.21725         0.9111         -17.52       1.608524              1              1
      4911.5000         0.9748       1120.611        58.1155       82.89455         0.8979         -17.68       1.452551              1              1
      4912.0000         0.9564       1168.297        58.0166       82.71543         0.8847         -17.76       1.376575              1              1
      4912.5000         0.9379       1180.261        57.6213       82.01904         0.8715         -17.92         1.2206              1              1
      4913.0000         0.9195        1198.18        56.9299       80.80589         0.8584            -18       1.144627              1              1
      4913.5000          0.901       1204.191         55.899       79.00025         0.8472         -18.16      0.9886513      0.9787288              1
      4914.0000         0.8779       1216.185        54.8682       77.19479         0.8471         -18.32      0.8326759      0.9403146              1
      4914.5000         0.8779       1178.199        53.8373       75.38913         0.8855         -19.28     -0.1232986      0.9018964              1
      4915.0000         0.8759       1140.214        52.8064        73.5835         0.9238         -20.08     -0.9192734      0.8634787              1
      4915.5000         0.9254       1102.228        51.7755       71.77785         0.9621         -21.28       -2.11525      0.8250607      0.9838369
      4916.0000         0.9749       1064.243         51.103       70.59769         1.0004         -22.48      -3.311222      0.7999508       0.966504
      4916.5000         1.0244       1026.257        51.7936       71.79645         1.0387          -24.4      -5.227198      0.8254563      0.9387363
      4917.0000          1.074       988.2714        53.0549       73.99117          1.077            -26      -6.823174      0.8721526      0.9156062
      4917.5000         1.1235       950.2857        54.0633       75.74456         1.1154          -27.2      -8.019148      0.9094588      0.8982732
      4918.0000          1.173       912.3003        53.5693       74.87592         1.1537          -27.6      -8.415123      0.8909771      0.8925344
      4918.5000         1.2225       874.3149        51.6608       71.53867         1.1838          -28.8      -9.611097      0.8199718      0.8752015
      4919.0000         1.2369       823.8423        49.7523       68.20141         1.1639         -27.76      -8.567072      0.7489662      0.8903323
      4919.5000         1.1921       817.8888        47.8438       64.86417         1.1231         -26.56      -7.363047      0.6779612       0.907782
      4920.0000         1.1474       782.2563         45.374       60.54734         1.0823         -25.44      -6.239021      0.5861137      0.9240721
      4920.5000         1.1026       954.9612        45.7487       61.19477         1.0415         -24.24      -5.034996      0.5998888      0.9415218
      4921.0000         1.0578       1032.413        45.8672       61.39509         1.0007         -23.04      -3.830973      0.6041508      0.9589714
      4921.5000          1.013       1133.677        48.0549        65.2066         0.9599         -21.84      -2.626945      0.6852467      0.9764211
      4922.0000         0.9682       1205.175        50.2425        69.0179         0.9191         -20.64       -1.42292      0.7663383      0.9938707
      4922.5000         0.9235       1276.673        52.4302       72.82941         0.8784         -19.92     -0.6988964      0.8474343              1
      4923.0000         0.8787        1330.31        53.9602       75.49311         0.8376         -19.68     -0.4548702      0.9041088              1
      4923.5000         0.8339       1413.714        53.2688       74.27998         0.7968         -19.92     -0.6908455      0.8782974              1
      4924.0000         0.7823       1443.567        52.9971       73.79929         0.7463         -20.24      -1.006821      0.8680699      0.9999012
      4924.5000         0.7902       1443.596        52.7253       73.31843         0.7363         -20.48      -1.242794      0.8578389      0.9964812
      4925.0000         0.8326       1425.794        52.4535       72.83757         0.7362          -20.8      -1.558769      0.8476079      0.9919019
      4925.5000         0.8749       1400.649        52.1818        72.3569         0.7461         -21.12      -1.874746      0.8373808      0.9873225
      4926.0000         0.9173       1375.504        51.8847        71.8319         0.7857         -21.28       -2.03072      0.8262107       0.985062
      4926.5000          0.931       1350.359        51.7931       71.66555         0.7856         -21.28      -2.026695      0.8226713      0.9851204
      4927.0000         0.9075       1325.214        51.7854       71.64558         0.7855         -21.28      -2.022671      0.8222465      0.9851787
      4927.5000         0.8839       1307.017        51.8839         71.811         0.7937         -20.96      -1.698643      0.8257659      0.9898747
      4928.0000         0.8604       1313.028        53.8053       75.15776         0.7953         -20.72      -1.454618      0.8969736      0.9934113
      4928.5000         0.8368       1360.283        57.4109       81.44381         0.7953          -20.4      -1.130594              1      0.9981073
