#------------------------------------------------------------------------------
# Created by    : vladimir.rabinovich
# Created on    : 09/19/2023 17:19:42
#------------------------------------------------------------------------------
~Version Information Section
VERS.           2.0     :   CWLS log ASCII Standard - VERSION 2.0
WRAP.           NO      :   One line per depth step
~Well Information Section
#MNEM       .UNIT                                         VALUE :DESCRIPTION
#------------------------------------------------------------------------------
STRT        .FT                                             583 :START DEPTH
STOP        .FT                                            6498 :STOP DEPTH
STEP        .FT                                             0.5 :STEP      
NULL        .                                           -999.25 :NULL      
COMP        .                                        EXXON CORP :COMPANY   
WELL        .                                     ST TR 00692-S :WELL      
FLD         .                                           WILDCAT :FIELD     
LOC         .                                                   :LOCATION  
CNTY        .                      MATAGORDA ISLAND SMALL BLOCK :LOCATION  
STAT        .                                             TEXAS :STATE     
CTRY        .                                     UNITED STATES :COUNTRY   
SRVC        .                                                   :SERVICE COMPANY
DATE        .                             9/13/2023 11:19:17 AM :LOG DATE  
API         .                                    42603301950000 :API NUMBER
UWI         .                                    42603301950000 :UNIQUE WELL ID
XCOORD      .                                  518375.599551337 :SURFACE X 
YCOORD      .                                  10266878.6313095 :SURFACE Y 
LAT         .                                        28.2472954 :LATITUDE  
LON         .                                       -96.4850657 :LONGITUDE 
ELEV        .FT                                              89 :ELEVATION VALUE
ELEV_TYPE   .                                                KB :ELEVATION REFERENCE TYPE
~Curve Information Section
#MNEM       .UNIT                                      API CODE :CURVE DESCRIPTION
#------------------------------------------------------------------------------
DEPT        .FT                                                 :DEPTH     
ASFL        .OHMM                                               :          
CILD        .MMHO                                               :          
GR          .GAPI                                               :          
GR_NORM     .GAPI                                               :GammaRay Normalized
ILD         .OHMM                                               :          
SP          .MV                                                 :          
SP_NORM     .MV                                                 :SP Normalized
VSH_GR      .V/V                                                :Volume of Shale from GR
VSH_SP      .V/V                                                :Volume of Shale from SP
~A        DEPTH           ASFL           CILD             GR        GR_NORM            ILD             SP        SP_NORM         VSH_GR         VSH_SP
# ...
       636.0000        -999.25        -999.25        40.0789       53.26589        -999.25        -999.25        -999.25      0.4311892        -999.25
       636.5000        -999.25        -999.25        39.0587       51.64378        -999.25        -999.25        -999.25      0.3966762        -999.25
       637.0000        -999.25        -999.25        38.0385       50.02169        -999.25        -999.25        -999.25      0.3621636        -999.25
       637.5000        -999.25        -999.25        37.0182       48.39942        -999.25        -999.25        -999.25      0.3276473        -999.25
       638.0000        -999.25        -999.25         35.998       46.77731        -999.25        -999.25        -999.25      0.2931342        -999.25
       638.5000        -999.25        -999.25        34.4711       44.37384        -999.25        -999.25        -999.25      0.2419967        -999.25
       639.0000        -999.25        -999.25        39.1535       51.54556        -999.25        -999.25     -0.2387473      0.3945864              1
       639.5000        -999.25        -999.25        43.8359        58.7173        -999.25        -999.25      -0.114797      0.5471766              1
       640.0000        -999.25        -999.25        48.5077       65.87267         2.2263          21.32       2.817416      0.6994184              1
       640.5000        -999.25        -999.25         54.933       75.73208         2.3055             17       1.320227      0.9091932              1
       641.0000        -999.25        -999.25         54.933       75.68318         2.3846          12.68     -0.7032216      0.9081528              1
       641.5000        -999.25        -999.25         53.898       74.03825         2.4637          11.92       3.501217      0.8731543              1
       642.0000        -999.25        -999.25        52.8629       72.39317         2.5428           6.96     -0.2185867      0.8381525              1
       642.5000        -999.25        -999.25        51.8279       70.74825          2.622            6.2      0.4404305      0.8031542              1
       643.0000        -999.25       641.1061        50.2864       68.32225         2.7011           5.08        2.39226      0.7515373              1
       643.5000        -999.25       571.2121        50.1876       68.12102         2.7802           4.12       2.933761      0.7472557              1
       644.0000        -999.25       501.3181        50.1874       68.07182         2.8594              3        2.62213      0.7462088              1
       644.5000        -999.25       402.7599        50.2549       68.12704         2.9614           2.32    -0.08963871      0.7473838              1
       645.0000        -999.25       394.8155        50.2862       68.12643         2.9217           1.24      -1.169639      0.7473708              1
       645.5000        -999.25          353.1        51.2925       69.62933           2.86           0.76      -1.649639      0.7793474              1
       646.0000        -999.25       361.0425        52.2989       71.13239         2.8422           0.56      -1.849639      0.8113275              1
       646.5000        -999.25       386.4003        53.3504       72.70499         2.7752           0.56      -1.849639      0.8447871              1
       647.0000        -999.25        406.715        53.1527       72.35126         2.7081           0.76      -1.649639      0.8372608              1
       647.5000        -999.25       402.7409        50.4922       68.19969          2.641           0.76      -1.649639      0.7489296              1
       648.0000         2.0128       396.2785        47.8317       64.04811          2.574           0.76      -1.649639      0.6605981              1
       648.5000         1.9728       390.8149        44.6505       59.09357         2.5069           0.88      -1.529639      0.5551825              1
       649.0000         1.9328        390.813        44.3539       58.58733         2.4398           1.04      -1.369639      0.5444113              1
       649.5000         1.8893       398.7536        45.9084        60.9356         2.3728           1.16      -1.249639      0.5943744              1
       650.0000         1.7462       422.9168        47.4629       63.28387         2.2863           1.32      -1.089639      0.6443376              1
       650.5000         1.7329         447.08        49.0174       65.63213         2.2367           1.44     -0.9696386      0.6943005              1
       651.0000         1.7204       471.2432        51.1747       68.90997          2.122            1.6     -0.8096386      0.7640418              1
       651.5000         1.7145        494.069        50.3838       67.64147          2.024           1.72     -0.6896386      0.7370526              1
       652.0000         1.7125       494.0671        49.6673       66.48769          2.024           1.92     -0.4896387      0.7125041              1
       652.5000         1.7085       496.0987        48.9508        65.3339         2.0157           1.72     -0.6896386      0.6879553              1
       653.0000         1.7085       498.1303        48.2343       64.18012         2.0075           1.32      -1.089639      0.6634068              1
       653.5000         1.7085        500.162        47.7141       63.32906         1.9994           0.96      -1.449639      0.6452991              1
       654.0000         1.7065       502.1936        47.8129       63.43255         1.9913           0.56      -1.849639      0.6475011              1
       654.5000         1.7168       504.2252        48.9978       65.21088         1.9832           0.16      -2.249639      0.6853378      0.9881124
       655.0000          1.727       506.2569        50.1827       66.98919         1.9753          -0.24      -2.649639      0.7231742      0.9690648
       655.5000         1.7372       508.2885        51.3675       68.76736         1.9674          -0.72      -3.129639      0.7610076      0.9462077
       656.0000         1.7463       509.9236        52.5524       70.54568         1.9611          -0.72      -3.129639      0.7988442      0.9462077
       656.5000         1.7562       509.9217        53.7373       72.32398         1.9611          -0.64      -3.049639      0.8366805      0.9500172
       657.0000         1.8136       492.9681        54.8316       73.96261         2.0285          -0.72      -3.129639      0.8715448      0.9462077
       657.5000         1.8754       476.0145        54.3373       73.15148         1.9688          -1.12      -3.529639      0.8542868      0.9271601
       658.0000         1.8992       459.0609        51.0058       67.96516         1.9688          -1.52      -3.929639      0.7439396      0.9081125
       658.5000         1.9391       422.5166        47.6744       62.77901         2.0681          -1.92      -4.329638      0.6335961      0.8890648
       659.0000         2.0644       406.2363        44.3429       57.59273         2.2012          -2.32      -4.729639      0.5232495      0.8700172
       659.5000         2.1897       389.9561        41.0115       52.40659         2.3342          -2.68      -5.089639      0.4129062      0.8528743
       660.0000          2.315       373.6758        38.4193       48.36033         2.4673          -3.08      -5.489638      0.3268156      0.8338267
       660.5000         2.4404       357.3956        38.6169       48.61617         2.6003          -3.48      -5.889639       0.332259      0.8147791
       661.0000         2.5151       341.1153        41.1028       52.40073         2.7334          -3.72      -6.129639      0.4127814      0.8033506
       661.5000         2.5251       323.1873        43.5887       56.18527         2.8664          -3.24      -5.649639      0.4933037      0.8262077
       662.0000         2.5151       319.2132        44.7462       57.92136         3.0018          -2.76      -5.169639      0.5302416      0.8490648
