#------------------------------------------------------------------------------
# Created by    : vladimir.rabinovich
# Created on    : 09/19/2023 17:21:28
#------------------------------------------------------------------------------
~Version Information Section
VERS.           2.0     :   CWLS log ASCII Standard - VERSION 2.0
WRAP.           NO      :   One line per depth step
~Well Information Section
#MNEM       .UNIT                                         VALUE :DESCRIPTION
#------------------------------------------------------------------------------
STRT        .FT                                            2437 :START DEPTH
STOP        .FT                                            8654 :STOP DEPTH
STEP        .FT                                             0.5 :STEP      
NULL        .                                           -999.25 :NULL      
COMP        .                                      PELTO OIL CO :COMPANY   
WELL        .                                     ST TR 00163-S :WELL      
FLD         .                                           WILDCAT :FIELD     
LOC         .                                                   :LOCATION  
CNTY        .                             GALVESTON SMALL BLOCK :LOCATION  
STAT        .                                             TEXAS :STATE     
CTRY        .                                     UNITED STATES :COUNTRY   
SRVC        .                                                   :SERVICE COMPANY
DATE        .                             9/13/2023 11:19:17 AM :LOG DATE  
API         .                                    42605301550000 :API NUMBER
UWI         .                                    42605301550000 :UNIQUE WELL ID
XCOORD      .                                  1154226.19631992 :SURFACE X 
YCOORD      .                                  10687289.1653299 :SURFACE Y 
LAT         .                                        29.4396686 :LATITUDE  
LON         .                                       -94.5278571 :LONGITUDE 
ELEV        .FT                                             111 :ELEVATION VALUE
ELEV_TYPE   .                                                KB :ELEVATION REFERENCE TYPE
~Curve Information Section
#MNEM       .UNIT                                      API CODE :CURVE DESCRIPTION
#------------------------------------------------------------------------------
DEPT        .FT                                                 :DEPTH     
CALI        .IN                                                 :          
GR          .GAPI                                               :          
GR_NORM     .GAPI                                               :GammaRay Normalized
ILD         .OHMM                                               :          
ILM         .OHMM                                               :          
NPSS        .%                                                  :Neutron Porosity Sandstone
RHOB        .G/CM3                                              :          
SFL         .OHMM                                               :          
SP          .MV                                                 :          
SP_NORM     .GAPI                                               :SP Normalized
TENS        .LB                                                 :          
VSH_GR      .V/V                                                :Volume of Shale from GR
VSH_SP      .V/V                                                :Volume of Shale from SP
~A        DEPTH           CALI             GR        GR_NORM            ILD            ILM           NPSS           RHOB            SFL             SP        SP_NORM           TENS         VSH_GR         VSH_SP
# ...
      4945.0000        11.2474        66.2887       57.34793          0.472           0.52        34.8034         2.1167         0.9213        48.2567      -52.09621         9.5477      0.5180412      0.2557684
      4945.5000        11.1546             70       61.92979         0.5396          0.573        33.4354         2.2105         0.9839        49.4551      -50.28391        10.5528      0.6155274      0.2816584
      4946.0000        11.1443        70.1992       62.17572          0.581         0.6056        33.0219         2.2394         0.9887        49.2606      -50.57168        11.5578      0.6207599      0.2775474
      4946.5000        11.1237             70       61.92979         0.6085         0.6258        35.5966         2.2124         0.9796         48.269      -52.06122        12.5628      0.6155274      0.2562683
      4947.0000        11.3093        68.2474       59.76608         0.5918         0.6199        39.5615         2.1643         0.9524        47.2764      -53.55228        13.5678      0.5694911      0.2349675
      4947.5000        11.9588        64.2268       54.80238         0.5157         0.5499        42.9901         2.1104         0.9259        45.9835      -55.49608        14.5729      0.4638805      0.2071988
      4948.0000        12.6785        60.2062       49.83868         0.4511         0.4813        44.7394         2.0684         0.8959        44.5897      -57.59203        15.5779      0.3582697      0.1772567
      4948.5000        13.3355        55.9184        44.5451         0.3945         0.4268        46.7273         2.0103         0.8563        43.1944      -59.69023        16.5829      0.2456404      0.1472825
      4949.0000        14.1667        54.2857       42.52942         0.3424         0.3804        48.2928         1.9762         0.7927        41.9975      -61.48931        17.5879      0.2027536      0.1215813
      4949.5000        14.7451        53.3673       41.39559         0.2999         0.3519        49.1958         1.9341         0.7296        40.7994      -63.29019         18.593      0.1786296      0.0958544
      4950.0000        15.0495        50.7143       38.12028         0.2588         0.3287        48.8988          1.912         0.7097        39.4845      -65.26717         19.598      0.1089421     0.06761181
      4950.5000         14.598        47.5563       34.22152         0.2372         0.3112        47.2139         1.9121         0.7196        38.9724      -66.03378        18.5222     0.02598978     0.05666024
      4951.0000        13.7822        47.0789       33.63213         0.2339            0.3        45.7618         1.9313          0.733         38.875      -66.17516        16.0591     0.01344965     0.05464063
      4951.5000        13.1287        48.7539       35.70004         0.2361         0.2986        44.1296         1.9675         0.7398        38.8807      -66.16108        13.5961     0.05744756     0.05484172
      4952.0000        13.1188        51.4651        39.0472         0.2339         0.3041        43.7577         1.9837         0.7432        38.8863      -66.14716         11.133      0.1286637     0.05504052
      4952.5000        13.1188        53.7202       41.83127         0.2361         0.3112        43.8059         1.9779         0.7364        39.3033      -65.51296           8.67      0.1878994     0.06410054
      4953.0000        13.1485         55.261       43.73349         0.2394         0.3198         43.194         1.9721         0.7364        39.5144      -65.18922         6.2069      0.2283722     0.06872547
      4953.5000        13.3069        57.0059       45.88769         0.2427         0.3257        40.6019         1.9753         0.7196        39.8279      -64.71107         3.7438      0.2742062     0.07555618
      4954.0000        13.7624         57.118       46.02608         0.2484         0.3302        40.2288         1.9805         0.7097        40.0378      -64.38912         1.0345      0.2771508      0.0801554
      4954.5000        14.3333        56.4138        45.1567         0.2589         0.3378         40.517         1.9627            0.7        40.0427      -64.37625        -1.4286      0.2586532     0.08033927
      4955.0000         14.598        55.8116       44.41325         0.2723         0.3472        41.1052         1.9369         0.6838        40.4456      -63.76333        -3.8916       0.242835     0.08909531
      4955.5000        14.8922        54.5971       42.91386         0.2891         0.3634        41.4534         1.9081         0.6712        40.5498      -63.60074        -6.3547      0.2109332     0.09141802
      4956.0000         14.549        51.7509       39.40004         0.3198         0.4037        41.3816         1.8533         0.6466        40.6538      -63.43846        -8.8177       0.136171     0.09373627
      4956.5000        13.3861        50.1283       37.39682         0.3552         0.4535        38.4294         1.8035         0.6435        40.7578      -63.27617       -11.2808     0.09354945     0.09605467
      4957.0000        12.2253        50.1384       37.40929         0.4075         0.5092        36.9174         1.8087         0.7097         41.458      -62.21501       -13.9901     0.09381477      0.1112141
      4957.5000        10.6679        50.4546       37.79967         0.5069         0.6085        34.8653         1.8879            0.8        42.4549      -60.70651       -16.4532      0.1021206      0.1327642
      4958.0000        10.2506        48.4119       35.27781         0.6287         0.7229        33.2333         2.0211         0.9578        43.5501      -59.04981       -18.9163      0.0484641      0.1564313
      4958.5000        10.2414         44.371       30.28904          0.757         0.8719        31.6614         2.1693         1.0812        44.6442      -57.39476       -21.3793              0      0.1800749
      4959.0000        10.2424        43.2293       28.87954         0.9174         1.0232        31.4096         2.2315         1.1372        45.0436      -56.78711       -23.8424              0      0.1887556
      4959.5000        10.2944        42.9564       28.54263         1.1012         1.1743        31.6978         2.2307         1.1961         45.046        -56.778       -26.3054              0      0.1888857
      4960.0000        10.3464        42.7803       28.32522         1.3231         1.2465        31.9859         2.2209         1.2696        44.6523       -57.3661       -28.7685              0      0.1804842
      4960.5000        10.4291        41.6314       26.90683         1.3726         1.1372        32.4671         2.2289          1.411        44.3541      -57.81021       -28.8177              0      0.1741398
      4961.0000        10.8791        40.6606       25.70831         1.3415         1.0374        32.7189         2.2437         1.3477        43.5589      -59.00365       -26.8473              0      0.1570906
      4961.5000        12.3457        40.4589        25.4593         1.1165         0.9442        32.7307         2.2605         1.2465        42.7653      -60.19467       -24.8768              0      0.1400761
      4962.0000        14.3901        40.6437       25.68744          0.868         0.8146        32.5026         2.2713         1.1851        41.9733      -61.38329       -22.9064              0      0.1230959
      4962.5000        15.7129        40.5383       25.55732         0.6935            0.7        32.5744         2.2801         1.1797        41.1828      -62.56963        -20.936              0      0.1061481
      4963.0000        15.3861        41.2099       26.38646         0.5838         0.5973        33.2462         2.2799         1.1743        39.6956       -64.8064       -18.9655              0     0.07419423
      4963.5000         15.297        42.3709       27.81979         0.5046         0.5329         34.038         2.2587              1        38.9864      -65.87016       -16.9951              0     0.05899767
