#------------------------------------------------------------------------------
# Created by    : vladimir.rabinovich
# Created on    : 09/19/2023 17:20:27
#------------------------------------------------------------------------------
~Version Information Section
VERS.           2.0     :   CWLS log ASCII Standard - VERSION 2.0
WRAP.           NO      :   One line per depth step
~Well Information Section
#MNEM       .UNIT                                         VALUE :DESCRIPTION
#------------------------------------------------------------------------------
STRT        .FT                                             304 :START DEPTH
STOP        .FT                                            9519 :STOP DEPTH
STEP        .FT                                             0.5 :STEP      
NULL        .                                           -999.25 :NULL      
COMP        .                                        TEXACO INC :COMPANY   
WELL        .                                     ST TR 00216-S :WELL      
FLD         .                                           WILDCAT :FIELD     
LOC         .                                                   :LOCATION  
CNTY        .                             GALVESTON SMALL BLOCK :LOCATION  
STAT        .                                             TEXAS :STATE     
CTRY        .                                     UNITED STATES :COUNTRY   
SRVC        .                                                   :SERVICE COMPANY
DATE        .                             9/13/2023 11:19:17 AM :LOG DATE  
API         .                                    42605000160000 :API NUMBER
UWI         .                                    42605000160000 :UNIQUE WELL ID
XCOORD      .                                  1087579.10798688 :SURFACE X 
YCOORD      .                                  10638823.7542325 :SURFACE Y 
LAT         .                                         29.303831 :LATITUDE  
LON         .                                       -94.7349593 :LONGITUDE 
ELEV        .FT                                              15 :ELEVATION VALUE
ELEV_TYPE   .                                                KB :ELEVATION REFERENCE TYPE
~Curve Information Section
#MNEM       .UNIT                                      API CODE :CURVE DESCRIPTION
#------------------------------------------------------------------------------
DEPT        .FT                                                 :DEPTH     
ASN         .OHMM                                               :          
LAT         .OHMM                                               :          
LN          .OHMM                                               :          
SP          .MV                                                 :          
SP_NORM     .MV                                                 :SP Normalized
VSH_SP      .V/V                                                :Volume of Shale from SP
~A        DEPTH            ASN            LAT             LN             SP        SP_NORM         VSH_SP
# ...
      4598.0000         0.2528         0.4816         0.3151       -82.4833      -35.98875      0.2859439
      4598.5000         0.2565         0.4475          0.314       -83.3062      -36.81795      0.2690215
      4599.0000         0.2714         0.4242         0.3165       -84.0077      -37.52575      0.2545766
      4599.5000         0.2864         0.4206         0.3236       -80.2212      -33.74555      0.3317235
      4600.0000         0.3014         0.4286         0.3307       -74.7028      -28.23344      0.4442154
      4600.5000         0.3164         0.4365         0.3379       -61.7555      -15.29245      0.7083174
      4601.0000         0.3357         0.4445          0.345       -55.3999      -8.943142       0.837895
      4601.5000         0.3572         0.4524         0.3522       -51.9905      -5.540043      0.9073461
      4602.0000         0.3788         0.4604         0.3593        -51.284       -4.83984      0.9216359
      4602.5000         0.3934         0.4683         0.3664       -50.8752      -4.437336      0.9298503
      4603.0000         0.3947         0.4762         0.3736       -50.8763      -4.444736      0.9296992
      4603.5000          0.396         0.4842         0.3804       -51.3187      -4.893433      0.9205422
      4604.0000         0.3973         0.4931          0.387       -51.5192      -5.100231      0.9163218
      4604.5000         0.4001         0.5046         0.3936       -51.0518       -4.63913      0.9257321
      4605.0000         0.4113          0.516         0.4002       -50.2792      -3.872829      0.9413708
      4605.5000         0.4225         0.5274         0.4068       -49.1656      -2.765526      0.9639689
      4606.0000         0.4337         0.5389         0.4134       -48.0521      -1.658325      0.9865648
      4606.5000         0.4448         0.5503           0.42       -46.9385     -0.5510216              1
      4607.0000         0.4561         0.5618         0.4266       -46.2397      0.1414795              1
      4607.5000           0.47         0.5732         0.4324       -45.9288      0.4460793              1
      4608.0000         0.4839         0.5847         0.4315       -45.6176      0.7509804              1
      4608.5000         0.4979         0.5961         0.4306       -45.3068       1.055481              1
      4609.0000         0.5118         0.5985         0.4298       -45.8026      0.5533829              1
      4609.5000         0.5242         0.5968         0.4289       -46.3659    -0.01621246              1
      4610.0000         0.5242         0.5951          0.428       -46.9298     -0.5864105              1
      4610.5000         0.5242         0.5933         0.4271       -47.3434       -1.00631      0.9998713
      4611.0000         0.5241         0.5916         0.4262       -47.6912      -1.360409      0.9926447
      4611.5000         0.5241         0.5899         0.4254       -47.0795     -0.7550049              1
      4612.0000         0.5241         0.5882         0.4253       -46.0184      0.2997971              1
      4612.5000         0.5241         0.5864          0.426       -44.9584       1.353497              1
      4613.0000         0.5241         0.5847         0.4268       -44.4883       1.817299              1
      4613.5000         0.5214          0.583         0.4275       -44.0743       2.225002              1
      4614.0000         0.5176          0.571         0.4282       -44.7202       1.572803              1
      4614.5000         0.5138         0.5574          0.429       -45.7834      0.5033035              1
      4615.0000           0.51         0.5438         0.4297       -47.9471      -1.666698      0.9863939
      4615.5000         0.5062         0.5302         0.4305        -51.114      -4.839893      0.9216349
      4616.0000         0.5024         0.5166         0.4312        -54.082      -7.814194      0.8609348
      4616.5000         0.4987         0.5029         0.4312       -56.6287      -10.36719      0.8088328
      4617.0000         0.4949         0.4893         0.4312       -57.5948      -11.33959       0.788988
      4617.5000         0.4911         0.4885         0.4311       -58.5613      -12.31239       0.769135
      4618.0000         0.4817         0.4903          0.431       -59.4601      -13.21748      0.7506636
      4618.5000         0.4655         0.4921          0.431       -59.8396      -13.60328      0.7427902
      4619.0000         0.4556          0.494         0.4309       -60.2188      -13.98878      0.7349228
      4619.5000         0.4472         0.4958         0.4308       -58.8477      -12.62398       0.762776
      4620.0000         0.4388         0.4957         0.4305       -57.2839      -11.06648      0.7945617
      4620.5000          0.429         0.4952         0.4278       -49.9142      -3.703075      0.9448352
      4621.0000         0.4191         0.4947          0.425       -46.7626     -0.5577736              1
      4621.5000         0.4092         0.4941         0.4223       -45.4775      0.7210274              1
      4622.0000         0.3993         0.4936         0.4195       -45.1273        1.06493              1
      4622.5000         0.3894         0.4931         0.4168       -44.7773       1.408627              1
      4623.0000         0.3796         0.4925          0.414       -44.4554       1.724232              1
      4623.5000         0.3697         0.4995         0.4113       -44.4816        1.69173              1
      4624.0000         0.3598         0.5176         0.4084       -44.5078       1.659233              1
      4624.5000         0.3503         0.5356         0.4055       -44.5339       1.626835              1
      4625.0000         0.3483         0.5537         0.4025       -44.5601       1.594337              1
      4625.5000         0.3463         0.5718         0.3947       -44.5863        1.56184              1
      4626.0000         0.3443         0.5899         0.3861       -44.7784       1.363441              1
      4626.5000         0.3424          0.608         0.3775       -45.0549       1.080643              1
      4627.0000         0.3404         0.6261         0.3689       -45.3314      0.7978439              1
      4627.5000         0.3384         0.6357         0.3603       -45.6081      0.5148468              1
      4628.0000         0.3371         0.6434         0.3517       -45.8846       0.232048              1
      4628.5000         0.3362          0.651         0.3431       -46.1613     -0.0509491              1
      4629.0000         0.3354         0.6587         0.3346       -46.4377     -0.3336449              1
      4629.5000         0.3345         0.6664          0.326       -47.1768      -1.079044      0.9983869
      4630.0000         0.3336         0.6741         0.3181       -48.0133      -1.921844      0.9811869
      4630.5000         0.3327         0.6816         0.3104       -48.8498      -2.764645      0.9639869
      4631.0000         0.3305         0.6721         0.3027       -49.6869      -3.608044      0.9467746
      4631.5000         0.3232         0.6626          0.295       -50.5616       -4.48904      0.9287951
      4632.0000         0.3158         0.6531         0.2873       -51.4364       -5.37014      0.9108135
      4632.5000         0.3085         0.6437         0.2797       -52.3117      -6.251736      0.8928217
      4633.0000         0.3011         0.6342          0.272       -56.3179      -10.26424      0.8109339
      4633.5000         0.2938         0.6247         0.2643       -66.8959      -20.84853       0.594928
      4634.0000         0.2864         0.6152         0.2566       -74.7443      -28.70323      0.4346279
      4634.5000         0.2764         0.6012         0.2489       -77.7516      -31.71683      0.3731259
      4635.0000         0.2641         0.5667         0.2412        -80.042      -34.01353      0.3262545
      4635.5000         0.2518         0.5322         0.2335        -81.891      -35.86882      0.2883914
