#------------------------------------------------------------------------------
# Created by    : vladimir.rabinovich
# Created on    : 09/19/2023 17:20:26
#------------------------------------------------------------------------------
~Version Information Section
VERS.           2.0     :   CWLS log ASCII Standard - VERSION 2.0
WRAP.           NO      :   One line per depth step
~Well Information Section
#MNEM       .UNIT                                         VALUE :DESCRIPTION
#------------------------------------------------------------------------------
STRT        .FT                                             500 :START DEPTH
STOP        .FT                                            8974 :STOP DEPTH
STEP        .FT                                             0.5 :STEP      
NULL        .                                           -999.25 :NULL      
COMP        .                                    G M A OFFSHORE :COMPANY   
WELL        .                                     ST TR 00112-S :WELL      
FLD         .                                           WILDCAT :FIELD     
LOC         .                                                   :LOCATION  
CNTY        .                           HIGH ISLAND SMALL BLOCK :LOCATION  
STAT        .                                             TEXAS :STATE     
CTRY        .                                     UNITED STATES :COUNTRY   
SRVC        .                                                   :SERVICE COMPANY
DATE        .                             9/13/2023 11:19:17 AM :LOG DATE  
API         .                                    42606300040000 :API NUMBER
UWI         .                                    42606300040000 :UNIQUE WELL ID
XCOORD      .                                   1218436.6654802 :SURFACE X 
YCOORD      .                                  10720928.6649768 :SURFACE Y 
LAT         .                                        29.5343489 :LATITUDE  
LON         .                                        -94.327329 :LONGITUDE 
ELEV        .FT                                              63 :ELEVATION VALUE
ELEV_TYPE   .                                                KB :ELEVATION REFERENCE TYPE
~Curve Information Section
#MNEM       .UNIT                                      API CODE :CURVE DESCRIPTION
#------------------------------------------------------------------------------
DEPT        .FT                                                 :DEPTH     
ASN         .OHMM                                               :          
CILD        .MMHO                                               :          
GR          .GAPI                                               :          
GR_NORM     .GAPI                                               :GammaRay Normalized
ILD         .OHMM                                               :          
SP          .MV                                                 :          
SP_NORM     .MV                                                 :SP Normalized
VSH_GR      .V/V                                                :Volume of Shale from GR
VSH_SP      .V/V                                                :Volume of Shale from SP
~A        DEPTH            ASN           CILD             GR        GR_NORM            ILD             SP        SP_NORM         VSH_GR         VSH_SP
# ...
      8397.0000         0.5726       142.7458        -999.25        -999.25         0.2999      -125.8578      -73.97682        -999.25     0.01364237
      8397.5000         0.5564       113.5302        -999.25        -999.25         0.3009      -125.9696      -74.07851        -999.25     0.01228658
      8398.0000         0.5401       355.1919        -999.25        -999.25          0.302      -125.8732        -73.972        -999.25     0.01370667
      8398.5000         0.5239        613.123        -999.25        -999.25         0.3031      -125.7767      -73.86539        -999.25     0.01512807
      8399.0000         0.5076       839.3457        -999.25        -999.25         0.3041      -125.6803      -73.75888        -999.25     0.01654826
      8399.5000         0.4932       837.4854        -999.25        -999.25         0.3017      -126.3195      -74.38798        -999.25    0.008160299
      8400.0000         0.4797       825.9785        -999.25        -999.25         0.2957      -127.5829      -75.64127        -999.25              0
      8400.5000         0.4691        814.458        -999.25        -999.25         0.2898      -129.0715      -77.11976        -999.25              0
      8401.0000          0.496       802.9375        -999.25        -999.25         0.2839      -128.2529      -76.29105        -999.25              0
      8401.5000         0.5112       785.5898        -999.25        -999.25         0.2779      -127.4352      -75.46324        -999.25              0
      8402.0000         0.5265       760.0938        -999.25        -999.25          0.272      -126.6176      -74.63553        -999.25    0.004859619
      8402.5000         0.5418       811.1348        -999.25        -999.25          0.266      -125.7998      -73.80762        -999.25     0.01589844
      8403.0000         0.5571        987.917        -999.25        -999.25         0.2601      -125.6545      -73.65222        -999.25     0.01797038
      8403.5000         0.5724       1215.986        -999.25        -999.25         0.2541      -125.5413      -73.52891        -999.25     0.01961456
      8404.0000         0.5856       1287.414        -999.25        -999.25         0.2482      -125.4279       -73.4054        -999.25     0.02126129
      8404.5000         0.5948       1456.359        -999.25        -999.25         0.2423      -125.3145      -73.28189        -999.25     0.02290812
      8405.0000         0.6041       1700.799        -999.25        -999.25         0.2352      -125.4111      -73.36839        -999.25     0.02175486
      8405.5000         0.6133       1945.238        -999.25        -999.25         0.2266      -125.5975      -73.54468        -999.25      0.0194043
      8406.0000         0.6229       2043.252        -999.25        -999.25         0.2179      -125.7837      -73.72076        -999.25     0.01705648
      8406.5000         0.6419        2130.75        -999.25        -999.25         0.2093      -125.9702      -73.89716        -999.25     0.01470459
      8407.0000         0.6403       2202.871        -999.25        -999.25         0.2007      -126.1566      -74.07346        -999.25     0.01235392
      8407.5000         0.6326       2258.426        -999.25        -999.25         0.1895      -125.8802      -73.78694        -999.25     0.01617411
      8408.0000         0.6198       2283.773        -999.25        -999.25         0.1683       -124.342      -72.23863        -999.25     0.03681824
      8408.5000         0.6069       2307.953        -999.25        -999.25         0.1671      -121.5909      -69.47742        -999.25     0.07363444
      8409.0000         0.5941       2322.461        -999.25        -999.25         0.2454      -118.7388      -66.61522        -999.25      0.1117971
      8409.5000         0.5812       2272.313        -999.25        -999.25         0.3187      -114.0514      -61.91771        -999.25      0.1744305
      8410.0000          0.566       2188.387        -999.25        -999.25          0.392       -105.312       -53.1682        -999.25      0.2910907
      8410.5000         0.5325       1641.178        -999.25        -999.25         0.4641        -87.295      -35.14109        -999.25      0.5314521
      8411.0000          0.507        1569.65        -999.25        -999.25         0.5148       -80.6564      -28.49239        -999.25      0.6201015
      8411.5000          0.641       1476.994        -999.25        -999.25         0.5655       -74.0253      -21.85149        -999.25      0.7086468
      8412.0000         0.7563        1392.67        -999.25        -999.25         0.6162       -65.8241      -13.65528        -999.25      0.8179296
      8412.5000         0.7907       1308.346        -999.25        -999.25         0.6669       -58.9313      -6.767479        -999.25       0.909767
      8413.0000         0.8042       1224.023        -999.25        -999.25         0.7171       -55.0737      -2.914871        -999.25       0.961135
      8413.5000         0.8166         1139.6        -999.25        -999.25         0.7671       -52.0983     0.05553436        -999.25              1
      8414.0000          0.829       1155.176        -999.25        -999.25         0.8093       -51.7526      0.3962402        -999.25              1
      8414.5000         0.8414       1209.836        -999.25        -999.25         0.8271       -54.3448      -2.200951        -999.25       0.970654
      8415.0000         0.8598       1259.836        -999.25        -999.25          0.845       -57.4286      -5.289745        -999.25      0.9294701
      8415.5000         0.8782       1311.223        -999.25        -999.25         0.8628       -61.4059      -9.272038        -999.25      0.8763728
      8416.0000         0.9005       1240.293        -999.25        -999.25         0.8807       -66.8109      -14.68203        -999.25      0.8042396
      8416.5000         0.9335       1167.922        -999.25        -999.25         0.8976       -67.4689      -15.34503        -999.25      0.7953996
      8417.0000         0.9763        1124.77        -999.25        -999.25         0.9139       -61.3087      -9.189819        -999.25      0.8774691
      8417.5000         1.0397       1092.627        -999.25        -999.25         0.9303       -59.3051      -7.191212        -999.25      0.9041172
      8418.0000         1.0892       1063.014        -999.25        -999.25         0.9466       -58.4949      -6.386005        -999.25      0.9148533
      8418.5000         1.1339       1027.746        -999.25        -999.25         0.9629       -58.6797      -6.575794        -999.25      0.9123228
      8419.0000         1.1529       1025.936        -999.25        -999.25         0.9435       -57.1819      -5.082989        -999.25      0.9322268
      8419.5000         1.1171       1091.387        -999.25        -999.25         0.9096       -55.5671      -3.473183        -999.25      0.9536909
      8420.0000         1.0806       1166.584        -999.25        -999.25         0.8757       -53.9505      -1.861576        -999.25       0.975179
      8420.5000         1.0403       1225.113        -999.25        -999.25         0.8418       -52.6216     -0.5376701        -999.25      0.9928311
      8421.0000              1       1274.121        -999.25        -999.25         0.8079        -51.517      0.5619392        -999.25              1
      8421.5000         0.9687       1312.266        -999.25        -999.25         0.7741       -50.4106       1.663345        -999.25              1
      8422.0000         0.9438        1337.76        -999.25        -999.25         0.7751       -49.3042       2.764751        -999.25              1
      8422.5000         0.9506       1351.203        -999.25        -999.25         0.7864       -48.4996       3.564358        -999.25              1
      8423.0000         1.0486       1353.584        -999.25        -999.25         0.7978       -47.8837       4.175262        -999.25              1
