#------------------------------------------------------------------------------
# Created by    : vladimir.rabinovich
# Created on    : 09/19/2023 17:21:28
#------------------------------------------------------------------------------
~Version Information Section
VERS.           2.0     :   CWLS log ASCII Standard - VERSION 2.0
WRAP.           NO      :   One line per depth step
~Well Information Section
#MNEM       .UNIT                                         VALUE :DESCRIPTION
#------------------------------------------------------------------------------
STRT        .FT                                            2437 :START DEPTH
STOP        .FT                                            8654 :STOP DEPTH
STEP        .FT                                             0.5 :STEP      
NULL        .                                           -999.25 :NULL      
COMP        .                                      PELTO OIL CO :COMPANY   
WELL        .                                     ST TR 00163-S :WELL      
FLD         .                                           WILDCAT :FIELD     
LOC         .                                                   :LOCATION  
CNTY        .                             GALVESTON SMALL BLOCK :LOCATION  
STAT        .                                             TEXAS :STATE     
CTRY        .                                     UNITED STATES :COUNTRY   
SRVC        .                                                   :SERVICE COMPANY
DATE        .                             9/13/2023 11:19:17 AM :LOG DATE  
API         .                                    42605301550000 :API NUMBER
UWI         .                                    42605301550000 :UNIQUE WELL ID
XCOORD      .                                  1154226.19631992 :SURFACE X 
YCOORD      .                                  10687289.1653299 :SURFACE Y 
LAT         .                                        29.4396686 :LATITUDE  
LON         .                                       -94.5278571 :LONGITUDE 
ELEV        .FT                                             111 :ELEVATION VALUE
ELEV_TYPE   .                                                KB :ELEVATION REFERENCE TYPE
~Curve Information Section
#MNEM       .UNIT                                      API CODE :CURVE DESCRIPTION
#------------------------------------------------------------------------------
DEPT        .FT                                                 :DEPTH     
CALI        .IN                                                 :          
GR          .GAPI                                               :          
GR_NORM     .GAPI                                               :GammaRay Normalized
ILD         .OHMM                                               :          
ILM         .OHMM                                               :          
NPSS        .%                                                  :Neutron Porosity Sandstone
RHOB        .G/CM3                                              :          
SFL         .OHMM                                               :          
SP          .MV                                                 :          
SP_NORM     .GAPI                                               :SP Normalized
TENS        .LB                                                 :          
VSH_GR      .V/V                                                :Volume of Shale from GR
VSH_SP      .V/V                                                :Volume of Shale from SP
~A        DEPTH           CALI             GR        GR_NORM            ILD            ILM           NPSS           RHOB            SFL             SP        SP_NORM           TENS         VSH_GR         VSH_SP
# ...
      8213.0000         11.449        86.2547       74.38345         0.6183           0.69        33.2909          2.204         0.8447        70.8762      -14.57687       -12.7861      0.8804988       0.791759
      8213.5000        11.7551        85.9598       74.05101         0.6333         0.7163        34.4852          2.183         0.7605        71.8506       -13.2306       -13.2836      0.8734257      0.8109913
      8214.0000        11.6224        85.3665       73.38704         0.6518         0.7263        36.3373          2.185          0.757        72.4361      -12.42881       -13.7811      0.8592987      0.8224455
      8214.5000        11.0714        85.2697       73.27471         0.6707          0.733        35.8549          2.215         0.8371        73.6072      -10.80718       -14.2786      0.8569087      0.8456118
      8215.0000        10.8911        85.1728       73.16229         0.6901         0.7398        35.0757          2.251         0.9336        75.3647      -8.364581       -14.7761      0.8545169       0.880506
      8215.5000        11.1735        83.9811       71.83342         0.7065         0.7466        35.6104          2.271         0.9818        77.8071      -4.963126       -15.2736       0.826243      0.9290982
      8216.0000        11.5918        82.6886       70.39254         0.7163         0.7535        36.2654          2.265         0.9552        79.1779      -3.061902       -15.7711      0.7955859      0.9562585
      8216.5000        11.5918        81.9925       69.61434          0.713         0.7535        37.2825          2.251         0.9166        79.6708      -2.389748       -16.2687      0.7790285      0.9658607
      8217.0000        10.8416        84.5851       72.48208          0.713         0.7535        38.5992          2.235         0.8759        79.6755       -2.40107       -16.7662      0.8400442       0.965699
      8217.5000        10.5644        87.3797       75.57117         0.6967         0.7535        38.4162          2.221         0.8447        79.4847      -2.686096       -17.2637      0.9057695      0.9616272
      8218.0000        10.4554        87.1838       75.33748         0.6902         0.7535        37.0335           2.22         0.8447        79.0002      -3.382304       -17.7612      0.9007974      0.9516814
      8218.5000        10.3366        84.2925        72.1089          0.687          0.757        34.9987          2.251         0.8719          77.83      -5.038481       -18.2587      0.8321043      0.9280217
      8219.0000        10.0495         83.196       70.87454         0.6711         0.7675        33.5687          2.289         0.8919        76.9525      -6.284886       -18.7562      0.8058413      0.9102159
      8219.5000             10        84.9963       72.85884         0.6556         0.7782        32.6752          2.315         0.8409          76.76      -6.572284        -9.2537      0.8480604      0.9061102
      8220.0000         9.8725        87.3982        75.5116         0.6405         0.7711        32.4362          2.324          0.764        76.4692      -6.997319        50.2488      0.9045022      0.9000383
      8220.5000         9.7658         88.505       76.72536         0.6142         0.7535        31.7261         2.3219         0.8798        75.5967      -8.236717        40.5854      0.9303268      0.8823326
      8221.0000         9.7679         87.215       75.27599         0.5944          0.713        31.1973         2.3278         1.0767        73.9426      -10.57037         11.561       0.899489      0.8489947
      8221.5000           9.77         83.325       70.93774         0.5699         0.6743        31.2625         2.3317         1.1434         72.187      -13.04611       -17.4634      0.8071861       0.813627
      8222.0000         9.8214         81.035       68.37728         0.5516         0.6376        32.5163         2.3156         0.9954        70.7231      -15.11347        -6.4878      0.7527081      0.7840933
      8222.5000        10.0806         81.945       69.37236         0.5388         0.6056         33.413         2.2965         0.8879        69.9455      -16.22001        -5.4146        0.77388      0.7682855
      8223.0000        10.2321         86.055       73.92301         0.5338         0.5972        33.8946         2.2854         0.8485        69.8564      -16.36266         -4.439      0.8707024      0.7662477
      8223.5000        10.3341         88.865        77.0292         0.5363         0.6028         33.841         2.2853         0.8485        70.7549      -15.12266        -3.4634      0.9367914       0.783962
      8224.0000        10.3964         88.975        77.1354         0.5439         0.6258        33.6092         2.2832         0.8447        71.8521      -13.60449        -2.4878       0.939051      0.8056502
      8224.5000        10.3493         87.985       76.01937         0.5568         0.6435        33.1398         2.2851         0.8371        73.1492      -11.80644        -1.4146      0.9153058      0.8313365
      8225.0000         9.8844         88.595       76.68113         0.5699         0.6618        32.6704          2.296         0.8371        73.4591       -11.3905         49.561      0.9293857      0.8372786
      8225.5000         9.8369         89.505       77.67622         0.5916         0.6712        32.1416         2.3129         0.8524        73.4725      -11.38963        10.5366      0.9505578      0.8372909
      8226.0000         9.8791         89.715       77.89352         0.6056         0.6681        31.9698         2.3278         0.8798        73.9817      -10.69466         1.5122      0.9551812      0.8472191
      8226.5000         9.9816        90.3218       78.55172         0.6228         0.6649         32.332         2.3257         0.9251         74.492      -9.998146         2.5854      0.9691855      0.8571693
      8227.0000          9.994        90.8267       79.09669         0.6376         0.6649        33.0506         2.3086         0.9293        74.8045      -9.578547          3.561      0.9807806      0.8631636
      8227.5000         9.9865        90.1436       78.32167         0.6526         0.6649        33.9479         2.2905         0.8959        74.7197       -9.71517         4.5366      0.9642909      0.8612118
      8228.0000          9.989         89.155        77.2072         0.6405         0.6649        34.3101         2.2834         0.8798        74.7344        -9.7125         5.5122      0.9405787        0.86125
      8228.5000         9.9611         89.565       77.64673         0.6316         0.6649        34.6723         2.2843         0.8798        75.2474      -9.012201         6.5854      0.9499304      0.8712543
      8229.0000         9.9836        90.7673        78.9666         0.5972         0.6557        34.4411         2.2882         0.8798        76.2604      -7.611902          7.561      0.9780127      0.8912585
      8229.5000        10.0262        91.6683       79.95168         0.5594         0.6287        33.9717         2.2891          0.864        76.8758       -6.76824         8.5366      0.9989718      0.9033108
      8230.0000        10.0288        93.2624       81.70687         0.5239         0.5834        33.9775          2.286         0.8485         75.893      -8.162077         9.5122              1      0.8833989
      8230.5000        10.0588        96.0309       84.76697         0.4866         0.5364        33.9202          2.278         0.8147         74.392      -10.28138             10              1      0.8531232
      8231.0000        10.0469        94.0361       82.53449         0.4566         0.4889        33.9192         2.2521         0.7821        68.6896      -18.28264             10              1      0.7388194
      8231.5000         9.8435        89.5618       77.54702         0.4285         0.4324        33.7991         2.2181         0.7609        62.5364      -26.91502             10      0.9478089      0.6154997
