#------------------------------------------------------------------------------
# Created by    : vladimir.rabinovich
# Created on    : 09/19/2023 17:20:27
#------------------------------------------------------------------------------
~Version Information Section
VERS.           2.0     :   CWLS log ASCII Standard - VERSION 2.0
WRAP.           NO      :   One line per depth step
~Well Information Section
#MNEM       .UNIT                                         VALUE :DESCRIPTION
#------------------------------------------------------------------------------
STRT        .FT                                             304 :START DEPTH
STOP        .FT                                            9519 :STOP DEPTH
STEP        .FT                                             0.5 :STEP      
NULL        .                                           -999.25 :NULL      
COMP        .                                        TEXACO INC :COMPANY   
WELL        .                                     ST TR 00216-S :WELL      
FLD         .                                           WILDCAT :FIELD     
LOC         .                                                   :LOCATION  
CNTY        .                             GALVESTON SMALL BLOCK :LOCATION  
STAT        .                                             TEXAS :STATE     
CTRY        .                                     UNITED STATES :COUNTRY   
SRVC        .                                                   :SERVICE COMPANY
DATE        .                             9/13/2023 11:19:17 AM :LOG DATE  
API         .                                    42605000160000 :API NUMBER
UWI         .                                    42605000160000 :UNIQUE WELL ID
XCOORD      .                                  1087579.10798688 :SURFACE X 
YCOORD      .                                  10638823.7542325 :SURFACE Y 
LAT         .                                         29.303831 :LATITUDE  
LON         .                                       -94.7349593 :LONGITUDE 
ELEV        .FT                                              15 :ELEVATION VALUE
ELEV_TYPE   .                                                KB :ELEVATION REFERENCE TYPE
~Curve Information Section
#MNEM       .UNIT                                      API CODE :CURVE DESCRIPTION
#------------------------------------------------------------------------------
DEPT        .FT                                                 :DEPTH     
ASN         .OHMM                                               :          
LAT         .OHMM                                               :          
LN          .OHMM                                               :          
SP          .MV                                                 :          
SP_NORM     .MV                                                 :SP Normalized
VSH_SP      .V/V                                                :Volume of Shale from SP
~A        DEPTH            ASN            LAT             LN             SP        SP_NORM         VSH_SP
# ...
       912.0000         1.9687         4.8679         3.1607       -70.0378      -22.20631      0.2145812
       912.5000          1.951         4.8207         3.1681       -70.6599      -22.82129       0.191804
       913.0000         1.9345         4.7736         3.1753        -71.282      -23.43629      0.1690264
       913.5000         1.9193         4.7264         3.1826       -71.6974      -23.84458      0.1539044
       914.0000         1.9042         4.6831         3.1899       -71.5975      -23.73758      0.1578676
       914.5000          1.889         4.6454         3.1972       -71.4976      -23.63056       0.161831
       915.0000         1.8739         4.6078         3.2045       -71.3977      -23.52356      0.1657942
       915.5000         1.8587         4.5701         3.2066       -71.1605      -23.27925      0.1748426
       916.0000          1.847         4.5324         3.1983       -70.9065      -23.01815      0.1845131
       916.5000         1.8375         4.4948           3.19       -70.6526      -22.75714        0.19418
       917.0000          1.828         4.4571         3.1817       -70.3987      -22.49613      0.2038471
       917.5000         1.8185         4.4194         3.1734       -70.1448      -22.23512       0.213514
       918.0000          1.809         4.3818         3.1651       -69.8909      -21.97412      0.2231808
       918.5000         1.7995         4.3441         3.1521       -69.6963      -21.77241      0.2306516
       919.0000         1.7914         4.3064         3.1282       -69.6298       -21.6988      0.2333778
       919.5000         1.7833         4.3079         3.1044        -69.698      -21.75989      0.2311151
       920.0000         1.7778         4.3099         3.0805       -70.0538      -22.10859      0.2182004
       920.5000         1.7773         4.3119         3.0566       -70.4097      -22.45738      0.2052823
       921.0000         1.7768         4.3139         3.0328       -70.6288      -22.66937      0.1974306
       921.5000          1.781         4.3159         3.0102       -70.5319      -22.56536      0.2012828
       922.0000         1.7893         4.3141         2.9882       -70.4349      -22.46126      0.2051386
       922.5000         1.7976         4.2874         2.9662        -70.338      -22.35725      0.2089907
       923.0000         1.8071         4.2608         2.9442       -70.2393      -22.25145      0.2129093
       923.5000         1.8189         4.2342         2.9222       -70.1254      -22.13044      0.2173913
       924.0000         1.8307         4.2075          2.905       -70.0116      -22.00953      0.2218694
       924.5000         1.8426         4.1797         2.8887       -70.2185      -22.20932      0.2144696
       925.0000         1.8598         4.1427         2.8702       -70.5549      -22.53862      0.2022735
       925.5000         1.8817         4.1056         2.8438       -70.8912      -22.86781      0.1900813
       926.0000         1.9037         4.0686         2.8175       -71.2133       -23.1828      0.1784147
       926.5000         1.9257         4.0475         2.8039       -71.3938      -23.35619      0.1719928
       927.0000         1.9334         4.0329         2.7933       -71.4902      -23.44548      0.1686858
       927.5000         1.9192         4.0183         2.8877       -70.6326      -22.58078      0.2007118
       928.0000         1.9038         4.0002         3.0078       -69.0975      -21.03858      0.2578304
       928.5000         1.8885         3.9732         3.1044       -67.5627      -19.49667      0.3149383
       929.0000         1.8771         3.9463         3.1956        -66.028      -17.95486      0.3720422
       929.5000         1.8661         3.9088         3.2869       -63.7433      -15.66305       0.456924
       930.0000         1.8552         3.8664         3.3781       -61.4825      -13.39514      0.5409207
       930.5000         1.8442         3.8239         3.4964       -60.1511      -12.05664      0.5904949
       931.0000         1.8332         3.3283         3.6505       -58.8417      -10.74013      0.6392544
       931.5000          1.825         3.0834         3.8047       -57.7672      -9.658524       0.679314
       932.0000         1.8242         2.9066         3.9538       -57.9792      -9.863415      0.6717254
       932.5000         1.8268           2.82         4.0176       -58.3256      -10.20271      0.6591589
       933.0000         1.8335         2.7334         4.0815        -58.672        -10.542      0.6465924
       933.5000         1.8402          2.686         4.1453       -59.0184      -10.88129      0.6340261
       934.0000         1.8469         2.6856         4.2092       -59.3647      -11.22049      0.6214634
       934.5000         1.8536         2.6852         4.1981       -59.7111      -11.55978       0.608897
       935.0000         1.8541          2.749         4.1486       -60.0574      -11.89897      0.5963344
       935.5000         1.8535         2.8986         4.0992       -60.6424      -12.47686       0.574931
       936.0000         1.8585         3.0481         4.0497       -61.5028      -13.33016      0.5433275
       936.5000         1.8806          3.194         4.0002       -62.3632      -14.18345       0.511724
       937.0000         1.9026         3.3063         3.9508       -63.2235      -15.03664      0.4801243
       937.5000         1.9241         3.4187         3.8754       -64.0839      -15.88994      0.4485208
       938.0000         1.9372          3.531          3.794       -64.9442      -16.74313      0.4169211
       938.5000         1.9225         3.6433         3.7127       -65.8046      -17.59643      0.3853175
       939.0000         1.8946         3.7557         3.6314       -66.6649      -18.44962      0.3537178
       939.5000         1.9128         3.8546         3.5501       -67.5253      -19.30291      0.3221144
       940.0000         1.9563         3.9241         3.4687       -68.2321       -20.0026      0.2961999
       940.5000         2.1352         3.9937         3.3897       -68.8097      -20.57309      0.2750706
       941.0000         2.1741         4.0632         3.3242       -69.3872      -21.14349       0.253945
       941.5000          2.076         4.1328         3.2588       -69.9647      -21.71388      0.2328193
       942.0000         1.9768         4.2023         3.1933       -70.5422      -22.28427      0.2116937
       942.5000         1.9462         4.2719         3.1279       -71.1198      -22.85476      0.1905643
       943.0000         1.9154         4.4343         3.0624       -71.6973      -23.42516      0.1694384
       943.5000         1.8774            4.6         2.9969       -72.0393      -23.76005      0.1570351
       944.0000         1.8395         4.7169         2.9419       -72.3495      -24.06315      0.1458093
       944.5000         1.8015         4.7769         2.8916       -72.6597      -24.36624      0.1345838
       945.0000         1.7696         4.8368         2.8414       -72.9698      -24.66923      0.1233618
       945.5000         1.7397         4.8968         2.7896       -73.2693      -24.96162      0.1125324
       946.0000         1.7098         4.9334         2.7361       -73.5376      -25.22281      0.1028588
       946.5000         1.6799         4.9636         2.6826       -73.8733      -25.55141     0.09068864
       947.0000          1.645         4.9938         2.6296        -74.245        -25.916     0.07718503
       947.5000         1.6094         5.0239          2.591       -74.6166      -26.28049     0.06368538
       948.0000         1.5748         4.9517         2.5524       -74.9883      -26.64508     0.05018206
       948.5000         1.5608         4.8712         2.5137        -75.317      -26.96668     0.03827102
       949.0000         1.5468         4.7906         2.4751       -75.4976      -27.14017     0.03184552
       949.5000         1.5329           4.71         2.4365       -75.6781      -27.31357      0.0254234
