#------------------------------------------------------------------------------
# Created by    : vladimir.rabinovich
# Created on    : 09/19/2023 17:20:27
#------------------------------------------------------------------------------
~Version Information Section
VERS.           2.0     :   CWLS log ASCII Standard - VERSION 2.0
WRAP.           NO      :   One line per depth step
~Well Information Section
#MNEM       .UNIT                                         VALUE :DESCRIPTION
#------------------------------------------------------------------------------
STRT        .FT                                             304 :START DEPTH
STOP        .FT                                            9519 :STOP DEPTH
STEP        .FT                                             0.5 :STEP      
NULL        .                                           -999.25 :NULL      
COMP        .                                        TEXACO INC :COMPANY   
WELL        .                                     ST TR 00216-S :WELL      
FLD         .                                           WILDCAT :FIELD     
LOC         .                                                   :LOCATION  
CNTY        .                             GALVESTON SMALL BLOCK :LOCATION  
STAT        .                                             TEXAS :STATE     
CTRY        .                                     UNITED STATES :COUNTRY   
SRVC        .                                                   :SERVICE COMPANY
DATE        .                             9/13/2023 11:19:17 AM :LOG DATE  
API         .                                    42605000160000 :API NUMBER
UWI         .                                    42605000160000 :UNIQUE WELL ID
XCOORD      .                                  1087579.10798688 :SURFACE X 
YCOORD      .                                  10638823.7542325 :SURFACE Y 
LAT         .                                         29.303831 :LATITUDE  
LON         .                                       -94.7349593 :LONGITUDE 
ELEV        .FT                                              15 :ELEVATION VALUE
ELEV_TYPE   .                                                KB :ELEVATION REFERENCE TYPE
~Curve Information Section
#MNEM       .UNIT                                      API CODE :CURVE DESCRIPTION
#------------------------------------------------------------------------------
DEPT        .FT                                                 :DEPTH     
ASN         .OHMM                                               :          
LAT         .OHMM                                               :          
LN          .OHMM                                               :          
SP          .MV                                                 :          
SP_NORM     .MV                                                 :SP Normalized
VSH_SP      .V/V                                                :Volume of Shale from SP
~A        DEPTH            ASN            LAT             LN             SP        SP_NORM         VSH_SP
# ...
      6422.0000         0.6478          1.027         0.7328       -42.1756       1.619743              1
      6422.5000         0.6689         1.0339         0.7649       -42.2645       1.532764              1
      6423.0000           0.69         1.0408         0.7971       -42.3535       1.445683              1
      6423.5000         0.7111         1.0477         0.8293       -42.5769       1.224205              1
      6424.0000         0.7322         1.0547         0.8615       -42.8379      0.9651299              1
      6424.5000         0.7533           1.08         0.8936       -44.2988     -0.4938545              1
      6425.0000         0.7744         1.1089         0.9258        -46.439       -2.63213      0.9666913
      6425.5000         0.7951         1.1378         0.9421       -47.6113      -3.802513      0.9428058
      6426.0000         0.8153         1.1667         0.9365       -48.6528      -4.842091        0.92159
      6426.5000         0.8355         1.1956         0.9309       -49.5692      -5.756569      0.9029272
      6427.0000         0.8557         1.2101         0.9253       -50.4843      -6.669746      0.8842909
      6427.5000         0.8662         1.2005         0.9197        -51.132      -7.315525      0.8711118
      6428.0000         0.8626         1.1909         0.9141        -51.655      -7.836605      0.8604774
      6428.5000          0.859         1.1812         0.9086       -52.1779      -8.357582      0.8498453
      6429.0000         0.8553         1.1716          0.903       -52.6521      -8.829865      0.8402069
      6429.5000         0.8369         1.1619          0.892       -52.6079      -8.783741      0.8411481
      6430.0000         0.8184         1.1512         0.8745       -52.5637      -8.737621      0.8420894
      6430.5000         0.7999         1.1365          0.857       -52.5195      -8.691502      0.8430306
      6431.0000         0.7815         1.1219         0.8395       -52.1609      -8.330978      0.8503882
      6431.5000         0.7646         1.1072         0.8221       -51.5286      -7.696758      0.8633314
      6432.0000         0.7494         1.0925         0.8046       -50.8958      -7.062038       0.876285
      6432.5000         0.7343         1.0779         0.7883       -50.2635      -6.427818      0.8892282
      6433.0000         0.7191         1.0658         0.7758       -49.6312      -5.793594      0.9021716
      6433.5000         0.7039         1.0615         0.7632       -48.9989      -5.159374      0.9151148
      6434.0000         0.6895         1.0572         0.7506       -48.3661      -4.524654      0.9280683
      6434.5000         0.6786         1.0529          0.738       -47.7994      -3.956032      0.9396728
      6435.0000         0.6678         1.0486         0.7255       -47.6254      -3.780113       0.943263
      6435.5000         0.6569         1.0443         0.7129       -47.4514      -3.604191      0.9468532
      6436.0000          0.646         1.0401         0.7116       -47.2775      -3.428368      0.9504415
      6436.5000         0.6351         1.0386         0.7122       -47.3166      -3.465549      0.9496827
      6437.0000         0.6369         1.0579         0.7128       -47.6652      -3.812225      0.9426076
      6437.5000         0.6436         1.0773         0.7133       -48.0137      -4.158806      0.9355346
      6438.0000         0.6504         1.0966         0.7145       -48.4348      -4.577984      0.9269799
      6438.5000         0.6572         1.1159         0.7163          -48.9      -5.041267      0.9175252
      6439.0000          0.664         1.1353         0.7181       -49.2156      -5.354942      0.9111236
      6439.5000         0.6708         1.1546         0.7199       -49.0184      -5.155819      0.9151874
      6440.0000         0.6737         1.1739         0.7217       -48.8212      -4.956703       0.919251
      6440.5000         0.6633         1.1933         0.7236        -48.624       -4.75758      0.9233147
      6441.0000         0.6529         1.2101         0.7102       -48.4268       -4.55846      0.9273784
      6441.5000         0.6426         1.2058         0.6955       -48.2705      -4.400238      0.9306074
      6442.0000         0.6322         1.2016         0.6808       -48.4272      -4.555016      0.9274487
      6442.5000         0.6212         1.1973         0.6662       -48.5839      -4.709797      0.9242899
      6443.0000         0.6076          1.193          0.661       -49.0203      -5.144276      0.9154229
      6443.5000         0.6153         1.1888         0.6751       -49.4763      -5.598354      0.9061561
      6444.0000         0.6413         1.1857         0.6893       -49.6016      -5.721733      0.9036381
      6444.5000         0.6673         1.1846         0.7034       -49.0818      -5.200012      0.9142855
      6445.0000         0.6933         1.1835         0.7176       -48.5622       -4.67849      0.9249288
      6445.5000         0.7168         1.1824         0.7324       -48.1118       -4.22617      0.9341598
      6446.0000         0.7274         1.1813         0.7501       -47.7053      -3.817749      0.9424949
      6446.5000          0.738         1.1802         0.7678       -47.2987      -3.409225      0.9508321
      6447.0000         0.7486         1.1791         0.7854        -46.948       -3.05661      0.9580284
      6447.5000         0.7592          1.178         0.8031       -46.7393      -2.845985      0.9623268
      6448.0000         0.7698         1.1791         0.8208       -46.8129      -2.917664       0.960864
      6448.5000         0.7737         1.1869         0.8369       -46.9147      -3.017544      0.9588256
      6449.0000         0.7746         1.1946         0.8273       -47.1809      -3.281822      0.9534322
      6449.5000         0.7756         1.2024         0.8177       -47.4594      -3.558403      0.9477877
      6450.0000         0.7722         1.2102         0.8081       -47.5965      -3.693581       0.945029
      6450.5000         0.7595         1.2179         0.7985       -47.5426       -3.63776      0.9461682
      6451.0000         0.7468         1.2257         0.7888       -47.1625      -3.255737      0.9539645
      6451.5000         0.7341         1.2247         0.7792       -46.7823      -2.873615       0.961763
      6452.0000         0.7214         1.2082         0.7656       -46.4022      -2.491596      0.9695593
      6452.5000         0.7087         1.1917         0.7515       -46.0338      -2.121273      0.9771169
      6453.0000          0.696         1.1752         0.7373       -45.8761      -1.961655      0.9803744
      6453.5000         0.6833         1.1587         0.7234       -45.7183      -1.801933       0.983634
      6454.0000         0.6806         1.1422          0.713       -45.6735      -1.755211      0.9845876
      6454.5000         0.6778         1.1257         0.7026       -45.8943      -1.974091      0.9801206
      6455.0000         0.6751         1.1139         0.6922       -46.1152      -2.193069      0.9756516
      6455.5000         0.6724         1.1094         0.6895        -46.336      -2.411949      0.9711847
      6456.0000         0.6696         1.1048         0.6878       -46.5568      -2.630829      0.9667178
      6456.5000         0.6713         1.1003         0.6861       -46.8587      -2.930809      0.9605957
      6457.0000          0.676         1.0957         0.6844       -47.1661      -3.236286      0.9543615
      6457.5000         0.6806         1.0912         0.6826       -47.4737      -3.541965      0.9481232
      6458.0000         0.6852         1.0867         0.6809        -47.425      -3.491344      0.9491562
      6458.5000          0.693         1.0821         0.6932       -47.0872      -3.151623      0.9560893
      6459.0000         0.7095         1.0776         0.7111       -46.7491      -2.811604      0.9630285
      6459.5000          0.726          1.073         0.7289       -46.2479      -2.308479      0.9732963
