#------------------------------------------------------------------------------
# Created by    : vladimir.rabinovich
# Created on    : 09/19/2023 17:21:28
#------------------------------------------------------------------------------
~Version Information Section
VERS.           2.0     :   CWLS log ASCII Standard - VERSION 2.0
WRAP.           NO      :   One line per depth step
~Well Information Section
#MNEM       .UNIT                                         VALUE :DESCRIPTION
#------------------------------------------------------------------------------
STRT        .FT                                            2437 :START DEPTH
STOP        .FT                                            8654 :STOP DEPTH
STEP        .FT                                             0.5 :STEP      
NULL        .                                           -999.25 :NULL      
COMP        .                                      PELTO OIL CO :COMPANY   
WELL        .                                     ST TR 00163-S :WELL      
FLD         .                                           WILDCAT :FIELD     
LOC         .                                                   :LOCATION  
CNTY        .                             GALVESTON SMALL BLOCK :LOCATION  
STAT        .                                             TEXAS :STATE     
CTRY        .                                     UNITED STATES :COUNTRY   
SRVC        .                                                   :SERVICE COMPANY
DATE        .                             9/13/2023 11:19:17 AM :LOG DATE  
API         .                                    42605301550000 :API NUMBER
UWI         .                                    42605301550000 :UNIQUE WELL ID
XCOORD      .                                  1154226.19631992 :SURFACE X 
YCOORD      .                                  10687289.1653299 :SURFACE Y 
LAT         .                                        29.4396686 :LATITUDE  
LON         .                                       -94.5278571 :LONGITUDE 
ELEV        .FT                                             111 :ELEVATION VALUE
ELEV_TYPE   .                                                KB :ELEVATION REFERENCE TYPE
~Curve Information Section
#MNEM       .UNIT                                      API CODE :CURVE DESCRIPTION
#------------------------------------------------------------------------------
DEPT        .FT                                                 :DEPTH     
CALI        .IN                                                 :          
GR          .GAPI                                               :          
GR_NORM     .GAPI                                               :GammaRay Normalized
ILD         .OHMM                                               :          
ILM         .OHMM                                               :          
NPSS        .%                                                  :Neutron Porosity Sandstone
RHOB        .G/CM3                                              :          
SFL         .OHMM                                               :          
SP          .MV                                                 :          
SP_NORM     .GAPI                                               :SP Normalized
TENS        .LB                                                 :          
VSH_GR      .V/V                                                :Volume of Shale from GR
VSH_SP      .V/V                                                :Volume of Shale from SP
~A        DEPTH           CALI             GR        GR_NORM            ILD            ILM           NPSS           RHOB            SFL             SP        SP_NORM           TENS         VSH_GR         VSH_SP
# ...
      3710.0000         10.899        79.6889       76.57256            0.9         0.9774        39.3624          2.144         0.9041        81.8059      -2.020567        -9.7975      0.9270758      0.9689143
      3710.5000         10.899        80.6931       77.80827         0.9083              1          39.72          2.145            0.9           82.7     -0.6725445            -10      0.9533675      0.9896532
      3711.0000         10.899        79.6944       76.57127         0.9209         1.0234          39.78          2.144         0.8959           83.3      0.2320801            -10      0.9270482              1
      3711.5000        10.9192        78.3717       74.93427         0.9293         1.0425           39.6          2.142         0.9083           83.6      0.6843808            -10      0.8922184              1
      3712.0000        10.9394        77.7633       74.17912         0.9293         1.0521          39.18          2.143         0.9596           83.8      0.9859262            -10      0.8761516              1
      3712.5000        10.9394        78.7812       75.43176         0.9293         1.0473          39.12          2.145         1.0281           83.5      0.5336139            -10      0.9028033              1
      3713.0000        10.9192         80.099       77.05463         0.9293         1.0329          39.18          2.138         1.0234             83     -0.2202322            -10      0.9373325      0.9966118
      3713.5000         10.899        80.6931       77.78406         0.9293          1.014          39.48          2.128         1.0046           82.2      -1.426391            -10      0.9528523      0.9780555
      3714.0000        10.8788         80.099       77.04656         0.9209         0.9954          39.36          2.125         0.9684             81      -3.235617            -10      0.9371609      0.9502213
      3714.5000        10.8586        78.1792       74.67239         0.8838         0.9818          38.28           2.14         0.9864        79.5091      -5.483432            -10      0.8866467      0.9156395
      3715.0000        10.8384        77.0694       73.29824         0.8371         0.9379          37.56          2.143         1.0281        77.5479      -8.440326            -10      0.8574094      0.8701488
      3715.5000        10.8182        77.1733       73.42247         0.7927         0.8838          39.66          2.099         1.0473        75.7864      -11.09612            -10      0.8600525      0.8292904
      3716.0000        10.8182        78.1846       74.66696         0.7065         0.8295          40.62          2.047         0.9684        74.4204      -13.15563            -10      0.8865311      0.7976058
      3716.5000        10.8283        78.6902       75.28712         0.6435         0.7818           40.8          2.019         0.8959          73.35      -14.76947            -10      0.8997259      0.7727774
      3717.0000        10.8283         77.987       74.41492         0.5807         0.7296          41.22          2.028         0.8919        71.6953      -17.26425            -10      0.8811686      0.7343962
      3717.5000        10.8182        76.7823       72.92361         0.5289         0.6435          37.92          2.067         0.9422         69.051      -21.25103            -10      0.8494386      0.6730611
      3718.0000        10.8384        72.9689       68.21167         0.4821         0.6113          37.62          2.032         0.9552        65.8741      -26.04082            -10      0.7491845       0.599372
      3718.5000        10.8485        66.9145       60.73307          0.467         0.5594          40.38          1.992         0.8959        64.5844       -27.9853            -10      0.5900652       0.569457
      3719.0000        10.8485        64.5804       57.84742          0.467          0.549          43.26          1.964         0.8295        66.0852      -25.72255            -10      0.5286685      0.6042685
      3719.5000        10.8182        64.8906       58.22635          0.467         0.5646          44.04          1.961         0.7675        69.5859      -20.44457            -10      0.5367308      0.6854682
      3720.0000        10.7879        68.8731       63.13898         0.4843          0.578           45.3          1.961         0.7263        73.4925      -14.55462            -10      0.6412548      0.7760828
      3720.5000        10.7678        72.8963       68.10186         0.5363         0.6346          45.36          1.989         0.7465        77.2816      -8.841819            -10      0.7468481       0.863972
      3721.0000        10.7479        76.0939       72.04549         0.5889         0.7062          44.64          2.013         0.7672        79.4175      -5.621535            -10      0.8307551      0.9135149
      3721.5000         10.738        81.0891       78.20836         0.6464         0.7427          43.26           2.04         0.7886           81.1       -3.08485            -10        0.96188      0.9525408
      3722.0000        10.7585        87.2277       85.78283         0.7092         0.7776             42          2.063         0.8067           82.5     -0.9740784            -10              1      0.9850142
      3722.5000        10.7687           91.8       91.42361         0.7774         0.8251          41.28         2.0819         0.8289           83.6      0.6843808            -10              1              1
      3723.0000         10.779           92.4       92.16032           0.81         0.8403          41.04         2.0948         0.8403           84.5       2.041306            -10              1              1
      3723.5000        10.7792             92       91.66245         0.8211         0.8557          40.92         2.1017         0.8557             85       2.795152            -10              1              1
      3724.0000        10.8196             90       89.18928         0.8285         0.8715          41.58         2.1046         0.8795             85       2.795152            -10              1              1
      3724.5000        10.8999         89.505       88.57412         0.8399         0.8836           42.3         2.1035         0.9041             85       2.795152            -10              1              1
      3725.0000          10.98        89.4059       88.44775         0.8515            0.9           43.2         2.0995         0.9293           84.6       2.192073            -10              1              1
      3725.5000        11.2019        89.2079       88.19926         0.8593         0.9166           43.5         2.0926         0.9596           84.4       1.890539            -10              1              1
      3726.0000        11.3227        88.3168       87.09511         0.8713         0.9293           43.2         2.0816         0.9864           84.2       1.588994            -10              1              1
      3726.5000        11.4332        86.5347       84.89095         0.8834         0.9293          42.84         2.0717              1           83.7      0.8351478            -10              1              1
      3727.0000        11.4932        85.4455       83.54223         0.9125         0.9379          42.84         2.0599         0.9909             83     -0.2202322            -10              1      0.9966118
      3727.5000        11.5329        85.1485       83.17152         0.9083         0.9166          43.44           2.04         0.9818             82      -1.727925            -10              1      0.9734166
      3728.0000        11.5826        85.1485       83.16747         0.8875         0.8875          43.86          2.001         0.9818           80.7      -3.687929            -10              1      0.9432626
      3728.5000        11.7024        84.9505         82.919         0.8669         0.8589          43.98          1.962          0.964        79.8058      -5.036101            -10              1      0.9225215
