#------------------------------------------------------------------------------
# Created by    : vladimir.rabinovich
# Created on    : 09/19/2023 17:19:42
#------------------------------------------------------------------------------
~Version Information Section
VERS.           2.0     :   CWLS log ASCII Standard - VERSION 2.0
WRAP.           NO      :   One line per depth step
~Well Information Section
#MNEM       .UNIT                                         VALUE :DESCRIPTION
#------------------------------------------------------------------------------
STRT        .FT                                             583 :START DEPTH
STOP        .FT                                            6498 :STOP DEPTH
STEP        .FT                                             0.5 :STEP      
NULL        .                                           -999.25 :NULL      
COMP        .                                        EXXON CORP :COMPANY   
WELL        .                                     ST TR 00692-S :WELL      
FLD         .                                           WILDCAT :FIELD     
LOC         .                                                   :LOCATION  
CNTY        .                      MATAGORDA ISLAND SMALL BLOCK :LOCATION  
STAT        .                                             TEXAS :STATE     
CTRY        .                                     UNITED STATES :COUNTRY   
SRVC        .                                                   :SERVICE COMPANY
DATE        .                             9/13/2023 11:19:17 AM :LOG DATE  
API         .                                    42603301950000 :API NUMBER
UWI         .                                    42603301950000 :UNIQUE WELL ID
XCOORD      .                                  518375.599551337 :SURFACE X 
YCOORD      .                                  10266878.6313095 :SURFACE Y 
LAT         .                                        28.2472954 :LATITUDE  
LON         .                                       -96.4850657 :LONGITUDE 
ELEV        .FT                                              89 :ELEVATION VALUE
ELEV_TYPE   .                                                KB :ELEVATION REFERENCE TYPE
~Curve Information Section
#MNEM       .UNIT                                      API CODE :CURVE DESCRIPTION
#------------------------------------------------------------------------------
DEPT        .FT                                                 :DEPTH     
ASFL        .OHMM                                               :          
CILD        .MMHO                                               :          
GR          .GAPI                                               :          
GR_NORM     .GAPI                                               :GammaRay Normalized
ILD         .OHMM                                               :          
SP          .MV                                                 :          
SP_NORM     .MV                                                 :SP Normalized
VSH_GR      .V/V                                                :Volume of Shale from GR
VSH_SP      .V/V                                                :Volume of Shale from SP
~A        DEPTH           ASFL           CILD             GR        GR_NORM            ILD             SP        SP_NORM         VSH_GR         VSH_SP
# ...
      1802.0000         0.8199       1146.438        61.5775       72.00424         0.8723          -5.12      -2.545392      0.8298775      0.9582326
      1802.5000         0.8136       1157.507        60.8342       70.85731         0.8639          -4.64      -2.061775      0.8054746      0.9713033
      1803.0000         0.8072       1168.577        60.0909       69.71037         0.8557          -4.12      -1.538159      0.7810716      0.9854552
      1803.5000         0.8009       1179.647        59.3476       68.56341         0.8477           -3.6      -1.014542      0.7566683       0.999607
      1804.0000         0.7926       1190.716        58.6043       67.41648         0.8398          -3.08     -0.4909251      0.7322655              1
      1804.5000         0.7946       1199.007         57.861       66.26955          0.834           -2.6   -0.007308245      0.7078627              1
      1805.0000         0.7946       1208.867        57.1177        65.1226         0.8272          -2.48      0.1163085      0.6834596              1
      1805.5000         0.8046       1222.701        56.3745       63.97585         0.8179          -2.52      0.0799253      0.6590605              1
      1806.0000          0.809       1236.535        55.8622       63.18513         0.8087          -2.52     0.08354235      0.6422368              1
      1806.5000         0.8135       1260.303        55.7619       63.02974         0.7935          -2.52     0.08715916      0.6389306              1
      1807.0000         0.8179       1278.113        58.4734       67.21037         0.7824          -2.52     0.09077597      0.7278801              1
      1807.5000         0.8226        1291.95        61.1849       71.39098          0.774          -1.68      0.9343928      0.8168293              1
      1808.0000         0.8166       1293.867        63.8963       75.57143         0.7729          -0.84        1.77801       0.905775              1
      1808.5000         0.8006       1293.797        65.8496       78.58286         0.7729              0       2.621626      0.9698482              1
      1809.0000         0.7847       1315.583        65.7499       78.42838         0.7601            0.8       3.425243      0.9665613              1
      1809.5000         0.7687       1297.666        64.7335       76.86032         0.7706           1.64        4.26886      0.9331983              1
      1810.0000         0.7527       1277.762        63.7176       75.29303         0.7826           2.48       5.112477      0.8998517              1
      1810.5000         0.7313       1244.404        62.7018       73.72588         0.8036           3.32       5.956094       0.866508              1
      1811.0000         0.7372       1211.047        61.5789       71.99356         0.8257           4.12        6.75971      0.8296502              1
      1811.5000         0.7604       1177.689        61.7757       72.29633         0.8491              5       7.643327      0.8360921              1
      1812.0000         0.7836       1144.331          63.87       75.52516         0.8739           5.68       8.326944      0.9047907              1
      1812.5000         0.8068       1110.974        65.9642       78.75388         0.9001              6       8.650561      0.9734867              1
      1813.0000         0.8526       1072.578        68.0585       81.98273         0.9323           6.08       8.734178              1              1
      1813.5000         0.8526       1084.464        70.3784       85.55945         0.9221           6.16       8.817795              1              1
      1814.0000         0.8526       1103.421        68.9416       83.34309         0.9063           6.16       8.821411              1              1
      1814.5000         0.8526         1108.2        67.5047       81.12657         0.9024           6.16       8.825028              1              1
      1815.0000         0.7923       1165.309        66.0678        78.9107         0.8581           6.08       8.748645      0.9768234              1
      1815.5000         0.7768       1222.418        64.1303       75.92294         0.8181           5.96       8.632262       0.913254              1
      1816.0000         0.7613       1279.527        64.7243       76.83891         0.7815           5.68       8.355879      0.9327428              1
      1816.5000         0.7458       1336.635        66.6113       79.74879         0.7481           5.36       8.039495      0.9946552              1
      1817.0000         0.7303       1393.744        68.4982       82.65855         0.7175           4.96       7.643112              1              1
      1817.5000         0.7149       1450.853        69.5677       84.30779         0.6892           4.56       7.246729              1              1
      1818.0000         0.6994       1507.962        67.9115        81.7538         0.6631           4.36       7.050346              1              1
      1818.5000         0.6839       1565.071        66.2554       79.19999         0.6389           4.16       6.853963      0.9829785              1
      1819.0000         0.6684         1620.4        64.5992         76.646         0.6171           3.96        6.65758      0.9286382              1
      1819.5000         0.6521       1654.134        63.1216       74.36745         0.6045           3.88       6.581197      0.8801584              1
      1820.0000         0.6481       1654.104        63.4173       74.82345         0.6046           3.68       6.384813      0.8898606              1
      1820.5000         0.6343       1655.868        66.0213       78.83897         0.6039           3.32        6.02843      0.9752973              1
      1821.0000         0.6282       1656.086        67.8867       81.71558         0.6038           3.28       5.992047              1              1
      1821.5000         0.6302       1634.239         69.159       83.67754         0.6119           3.28       5.995664              1              1
      1822.0000         0.6302       1628.289         68.268       82.30356         0.6141           3.28       5.999281              1              1
      1822.5000         0.6321       1610.411        64.7962       76.94979          0.621           3.28       6.002897      0.9351019              1
      1823.0000         0.6341       1598.497         62.823       73.90696         0.6256           2.96       5.686515      0.8703609              1
      1823.5000         0.6361       1588.571         63.859       75.50458         0.6295            1.6       4.330132      0.9043527              1
      1824.0000          0.644       1584.609         64.895       77.10214         0.6311           1.08       3.813748      0.9383435              1
      1824.5000          0.648       1570.707        65.9309       78.69958         0.6367            0.2       2.937365      0.9723314              1
      1825.0000         0.6499       1566.745        66.9669       80.29717         0.6383           -0.8       1.940982              1              1
      1825.5000         0.6519       1562.783        68.0029       81.89477         0.6399          -1.28       1.464599              1              1
      1826.0000         0.6539       1562.798        69.0388        83.4922         0.6399          -2.48      0.2682154              1              1
      1826.5000         0.6539       1560.824        70.0748       85.08978         0.6407          -3.08     -0.3281677              1              1
      1827.0000         0.6538       1560.839        71.1108       86.68737         0.6407          -3.48      -0.724551              1              1
      1827.5000         0.6518       1560.853        71.8348       87.80383         0.6407          -3.56     -0.8009341              1              1
      1828.0000         0.6518       1560.868        71.7359       87.65131         0.6407          -3.56     -0.7973173              1              1
