#------------------------------------------------------------------------------
# Created by    : vladimir.rabinovich
# Created on    : 09/19/2023 17:20:26
#------------------------------------------------------------------------------
~Version Information Section
VERS.           2.0     :   CWLS log ASCII Standard - VERSION 2.0
WRAP.           NO      :   One line per depth step
~Well Information Section
#MNEM       .UNIT                                         VALUE :DESCRIPTION
#------------------------------------------------------------------------------
STRT        .FT                                             344 :START DEPTH
STOP        .FT                                           10034 :STOP DEPTH
STEP        .FT                                             0.5 :STEP      
NULL        .                                           -999.25 :NULL      
COMP        .                                        TEXACO USA :COMPANY   
WELL        .                                     ST TR 00136-S :WELL      
FLD         .                                           WILDCAT :FIELD     
LOC         .                                                   :LOCATION  
CNTY        .                           HIGH ISLAND SMALL BLOCK :LOCATION  
STAT        .                                             TEXAS :STATE     
CTRY        .                                     UNITED STATES :COUNTRY   
SRVC        .                                                   :SERVICE COMPANY
DATE        .                             9/13/2023 11:19:17 AM :LOG DATE  
API         .                                    42606000310000 :API NUMBER
UWI         .                                    42606000310000 :UNIQUE WELL ID
XCOORD      .                                  1183554.44061246 :SURFACE X 
YCOORD      .                                  10706170.1937531 :SURFACE Y 
LAT         .                                          29.49262 :LATITUDE  
LON         .                                       -94.4364494 :LONGITUDE 
ELEV        .FT                                              52 :ELEVATION VALUE
ELEV_TYPE   .                                                KB :ELEVATION REFERENCE TYPE
~Curve Information Section
#MNEM       .UNIT                                      API CODE :CURVE DESCRIPTION
#------------------------------------------------------------------------------
DEPT        .FT                                                 :DEPTH     
ASN         .OHMM                                               :          
CILD        .MMHO                                               :          
LAT         .OHMM                                               :          
LN          .OHMM                                               :          
SP          .MV                                                 :          
SP_NORM     .MV                                                 :SP Normalized
VSH_SP      .V/V                                                :Volume of Shale from SP
~A        DEPTH            ASN           CILD            LAT             LN             SP        SP_NORM         VSH_SP
# ...
      4196.5000         0.7465        -999.25         0.5697         0.4169       -84.3101      -43.00575      0.3856322
      4197.0000          0.711        -999.25         0.5551          0.412       -85.4791      -44.17476      0.3689321
      4197.5000         0.6532        -999.25         0.5404         0.4071       -86.6472      -45.34285      0.3522449
      4198.0000         0.5901        -999.25         0.5097         0.4021       -88.3165      -47.01215      0.3283979
      4198.5000          0.547        -999.25          0.472         0.3972       -90.4232      -49.11885      0.2983021
      4199.0000         0.5172        -999.25         0.4375         0.3931       -92.8435      -51.53915      0.2637264
      4199.5000         0.4908        -999.25         0.4074         0.3893       -95.4539      -54.14956      0.2264349
      4200.0000         0.4736        -999.25         0.3772         0.3854       -98.2058      -56.90145      0.1871221
      4200.5000         0.4564        -999.25          0.347         0.3816      -100.6677      -59.36335      0.1519521
      4201.0000         0.4516        -999.25         0.3419         0.3777       -101.481      -60.17665      0.1403335
      4201.5000         0.4867        -999.25         0.3407         0.3739      -101.5442      -60.23985      0.1394307
      4202.0000         0.5228        -999.25         0.3394           0.37      -101.5732      -60.26885      0.1390164
      4202.5000         0.5758        -999.25         0.3382         0.3662      -101.2092      -59.90485      0.1442164
      4203.0000         0.6104        -999.25          0.337         0.3624      -100.8453      -59.54095       0.149415
      4203.5000         0.6121        -999.25         0.3371         0.3585      -100.4817      -59.17735      0.1546093
      4204.0000         0.6137        -999.25         0.3401         0.3547      -100.1727      -58.86835      0.1590236
      4204.5000         0.6154        -999.25          0.343         0.3515      -100.1141      -58.80975      0.1598607
      4205.0000          0.617        -999.25          0.346         0.3503      -100.0555      -58.75115      0.1606979
      4205.5000         0.6846        -999.25          0.349         0.3491      -102.0594      -60.75505      0.1320706
      4206.0000         0.8098        -999.25         0.3519         0.3479      -103.9637      -62.65935      0.1048664
      4206.5000         0.8307        -999.25         0.3549         0.3467      -105.7241      -64.41975      0.0797178
      4207.0000         0.8476        -999.25         0.3579         0.3455      -107.4857      -66.18135     0.05455213
      4207.5000         0.8333        -999.25         0.3576         0.3443      -107.7014      -66.39705     0.05147073
      4208.0000         0.8083        -999.25          0.357         0.3432      -107.8561      -66.55176      0.0492606
      4208.5000         0.7833        -999.25         0.3564          0.342      -107.9553      -66.65096      0.0478435
      4209.0000         0.7583        -999.25         0.3558         0.3408      -107.3992      -66.09485     0.05578788
      4209.5000         0.7284        -999.25         0.3551         0.3396       -106.843      -65.53865     0.06373356
      4210.0000         0.6982        -999.25         0.3545         0.3384      -106.2875      -64.98315     0.07166922
      4210.5000         0.6653        -999.25         0.3539         0.3372      -106.1652      -64.86086     0.07341635
      4211.0000         0.6113        -999.25         0.3533          0.336       -106.043      -64.73865     0.07516218
      4211.5000         0.5767        -999.25         0.3527         0.3358      -106.4701      -65.16576     0.06906062
      4212.0000         0.5767        -999.25         0.3521         0.3357      -107.0895      -65.78516     0.06021205
      4212.5000         0.5767        -999.25         0.3504         0.3356      -107.7095      -66.40515     0.05135498
      4213.0000         0.5767        -999.25          0.347         0.3355      -108.3649      -67.06055     0.04199219
      4213.5000         0.5703        -999.25         0.3437         0.3354      -109.1433      -67.83896     0.03087202
      4214.0000          0.558        -999.25         0.3404         0.3353      -109.9213      -68.61696     0.01975773
      4214.5000         0.5456        -999.25         0.3371         0.3352      -110.6997      -69.39536    0.008637782
      4215.0000         0.5301        -999.25         0.3337          0.335      -110.1904      -68.88605     0.01591361
      4215.5000         0.5124        -999.25         0.3304         0.3349      -108.2738      -66.96945     0.04329354
      4216.0000         0.4947        -999.25         0.3271         0.3348      -105.9738      -64.66945     0.07615073
      4216.5000           0.48        -999.25         0.3237         0.3347      -103.6737      -62.36935      0.1090093
      4217.0000         0.4667        -999.25         0.3204         0.3346       -102.739      -61.43465      0.1223621
      4217.5000         0.4534        -999.25         0.3171         0.3345       -102.198      -60.89365      0.1300907
      4218.0000         0.4437        -999.25         0.3145         0.3344      -101.8762      -60.57185      0.1346879
      4218.5000         0.4342        -999.25          0.312         0.3343      -101.5541      -60.24975      0.1392893
      4219.0000         0.4502        -999.25         0.3095         0.3342      -101.2582      -59.95385      0.1435164
      4219.5000         0.4791        -999.25          0.307         0.3341      -101.0131      -59.70875      0.1470178
      4220.0000         0.5007        -999.25         0.3045          0.334      -100.7681      -59.46375      0.1505179
      4220.5000          0.488        -999.25          0.302         0.3339      -100.3766      -59.07225      0.1561107
      4221.0000         0.4681        -999.25         0.2995         0.3338       -99.8138      -58.50945      0.1641507
      4221.5000         0.4483        -999.25          0.297         0.3336       -99.2507      -57.94635      0.1721949
      4222.0000         0.4326        -999.25         0.2945         0.3335       -98.6881      -57.38375      0.1802321
      4222.5000         0.4184        -999.25          0.292         0.3334       -98.0826      -56.77826      0.1888821
      4223.0000         0.4265        -999.25         0.2895         0.3359        -97.244      -55.93966      0.2008621
      4223.5000         0.4265        -999.25         0.2875         0.3398        -96.406      -55.10165      0.2128336
      4224.0000         0.4265        -999.25         0.2855         0.3436       -95.5792      -54.27485       0.224645
      4224.5000         0.4222        -999.25         0.2835         0.3475       -94.8816      -53.57725      0.2346107
      4225.0000         0.4145        -999.25         0.2815         0.3514       -94.1985      -52.89415      0.2443692
      4225.5000         0.4068        -999.25         0.2796         0.3553       -93.9033      -52.59895      0.2485864
      4226.0000         0.3991        -999.25         0.2776         0.3591       -94.3673      -53.06295      0.2419578
      4226.5000         0.3973        -999.25         0.2756          0.363       -95.3453      -54.04095      0.2279864
      4227.0000         0.3991        -999.25         0.2737         0.3669       -96.3234      -55.01905      0.2140135
      4227.5000          0.401        -999.25         0.2717         0.3719       -97.3014      -55.99705      0.2000421
      4228.0000         0.4028        -999.25         0.2697         0.3776       -98.2794      -56.97506      0.1860706
      4228.5000         0.4126        -999.25         0.2693         0.3834       -98.5104      -57.20605      0.1827707
      4229.0000         0.4254        -999.25         0.2727         0.3891       -97.7123      -56.40796      0.1941721
      4229.5000         0.4383        -999.25         0.2761         0.3949       -96.9142      -55.60985      0.2055735
