#------------------------------------------------------------------------------
# Created by    : vladimir.rabinovich
# Created on    : 09/19/2023 17:20:26
#------------------------------------------------------------------------------
~Version Information Section
VERS.           2.0     :   CWLS log ASCII Standard - VERSION 2.0
WRAP.           NO      :   One line per depth step
~Well Information Section
#MNEM       .UNIT                                         VALUE :DESCRIPTION
#------------------------------------------------------------------------------
STRT        .FT                                             500 :START DEPTH
STOP        .FT                                            8974 :STOP DEPTH
STEP        .FT                                             0.5 :STEP      
NULL        .                                           -999.25 :NULL      
COMP        .                                    G M A OFFSHORE :COMPANY   
WELL        .                                     ST TR 00112-S :WELL      
FLD         .                                           WILDCAT :FIELD     
LOC         .                                                   :LOCATION  
CNTY        .                           HIGH ISLAND SMALL BLOCK :LOCATION  
STAT        .                                             TEXAS :STATE     
CTRY        .                                     UNITED STATES :COUNTRY   
SRVC        .                                                   :SERVICE COMPANY
DATE        .                             9/13/2023 11:19:17 AM :LOG DATE  
API         .                                    42606300040000 :API NUMBER
UWI         .                                    42606300040000 :UNIQUE WELL ID
XCOORD      .                                   1218436.6654802 :SURFACE X 
YCOORD      .                                  10720928.6649768 :SURFACE Y 
LAT         .                                        29.5343489 :LATITUDE  
LON         .                                        -94.327329 :LONGITUDE 
ELEV        .FT                                              63 :ELEVATION VALUE
ELEV_TYPE   .                                                KB :ELEVATION REFERENCE TYPE
~Curve Information Section
#MNEM       .UNIT                                      API CODE :CURVE DESCRIPTION
#------------------------------------------------------------------------------
DEPT        .FT                                                 :DEPTH     
ASN         .OHMM                                               :          
CILD        .MMHO                                               :          
GR          .GAPI                                               :          
GR_NORM     .GAPI                                               :GammaRay Normalized
ILD         .OHMM                                               :          
SP          .MV                                                 :          
SP_NORM     .MV                                                 :SP Normalized
VSH_GR      .V/V                                                :Volume of Shale from GR
VSH_SP      .V/V                                                :Volume of Shale from SP
~A        DEPTH            ASN           CILD             GR        GR_NORM            ILD             SP        SP_NORM         VSH_GR         VSH_SP
# ...
      7257.5000         1.2249       935.5938        -999.25        -999.25          1.194        -53.402      -5.475819        -999.25      0.9269891
      7258.0000         1.1657       958.7715        -999.25        -999.25         1.1531       -51.3235      -3.388279        -999.25       0.954823
      7258.5000         1.1066       986.6348        -999.25        -999.25         1.1122       -49.2449      -1.300632        -999.25      0.9826582
      7259.0000         1.0581       1023.195        -999.25        -999.25         1.0713       -47.7098      0.2435074        -999.25              1
      7259.5000         1.0287       1074.885        -999.25        -999.25         1.0305       -46.2583       1.704052        -999.25              1
      7260.0000              1       1111.619        -999.25        -999.25         0.9906          -45.3       2.671394        -999.25              1
      7260.5000         0.9727        1138.66        -999.25        -999.25         0.9586       -44.8776       3.102833        -999.25              1
      7261.0000         0.9417       1165.402        -999.25        -999.25         0.9267       -44.4556       3.533878        -999.25              1
      7261.5000         0.9085        1188.18        -999.25        -999.25         0.8947       -44.0332       3.965321        -999.25              1
      7262.0000          0.879       1210.959        -999.25        -999.25         0.8631       -43.7794       4.228161        -999.25              1
      7262.5000         0.8825         1226.1        -999.25        -999.25         0.8752       -43.6155       4.401104        -999.25              1
      7263.0000         0.9111       1231.445        -999.25        -999.25         0.8874       -43.4517       4.573948        -999.25              1
      7263.5000         0.9657       1208.816        -999.25        -999.25         0.8995        -43.288       4.746689        -999.25              1
      7264.0000         1.0122        1179.01        -999.25        -999.25         0.9108       -43.1242       4.919533        -999.25              1
      7264.5000         1.0423       1135.795        -999.25        -999.25         0.9208       -42.9604       5.092373        -999.25              1
      7265.0000         1.0681       1104.691        -999.25        -999.25         0.9307       -42.7958       5.266018        -999.25              1
      7265.5000         1.0877       1088.541        -999.25        -999.25         0.9406       -42.6299       5.440956        -999.25              1
      7266.0000         1.0923       1068.205        -999.25        -999.25         0.9618       -43.4913         4.5886        -999.25              1
      7266.5000         1.0871        1182.35        -999.25        -999.25         1.0102       -45.1753       2.913643        -999.25              1
      7267.0000         1.0618        1287.82        -999.25        -999.25         0.9582       -48.3964     -0.2984161        -999.25      0.9960211
      7267.5000         1.0364       1379.334        -999.25        -999.25         0.8909       -52.3302      -4.223175        -999.25       0.943691
      7268.0000         1.0111       1494.275        -999.25        -999.25         0.8153       -56.9078      -8.791729        -999.25       0.882777
      7268.5000         0.9878       1609.318        -999.25        -999.25         0.7398       -60.4807      -12.35559        -999.25      0.8352588
      7269.0000         0.9646       1722.863        -999.25        -999.25         0.6642       -65.6909      -17.55675        -999.25        0.76591
      7269.5000          0.954       1769.867        -999.25        -999.25         0.6075         -70.41      -22.26681        -999.25      0.7031092
      7270.0000         0.9469       1875.188        -999.25        -999.25         0.5712       -74.2136      -26.06136        -999.25      0.6525152
      7270.5000         0.9538         1967.4        -999.25        -999.25         0.5349       -79.3904      -31.22912        -999.25      0.5836117
      7271.0000         0.9647       1995.867        -999.25        -999.25         0.5103       -80.0027      -31.83238        -999.25      0.5755683
      7271.5000         0.9756       1995.684        -999.25        -999.25         0.5363       -80.4716      -32.29224        -999.25      0.5694368
      7272.0000         0.9877       1992.324        -999.25        -999.25         0.5623       -80.7614      -32.57299        -999.25      0.5656934
      7272.5000         0.9882       1905.893        -999.25        -999.25         0.5883       -81.0513      -32.85385        -999.25      0.5619487
      7273.0000          0.978       1681.592        -999.25        -999.25          0.632       -81.0629       -32.8564        -999.25      0.5619146
      7273.5000         0.9501       1466.363        -999.25        -999.25         0.6765        -80.884      -32.66847        -999.25      0.5644204
      7274.0000         0.9191       1404.557        -999.25        -999.25          0.721        -78.032      -29.80742        -999.25      0.6025677
      7274.5000          0.894       1371.459        -999.25        -999.25         0.7655       -72.5984      -24.36478        -999.25      0.6751363
      7275.0000         0.8833       1341.129        -999.25        -999.25         0.8101       -66.4427      -18.20004        -999.25      0.7573327
      7275.5000         0.9109        1320.07        -999.25        -999.25         0.8546       -60.1531       -11.9014        -999.25      0.8413147
      7276.0000         0.9413       1299.234        -999.25        -999.25         0.8991       -55.3299      -7.069153        -999.25      0.9057446
      7276.5000         0.9359       1294.025        -999.25        -999.25         0.9333        -50.782      -2.512215        -999.25      0.9665038
      7277.0000         0.9289       1321.516        -999.25        -999.25         0.9445       -46.7794       1.499428        -999.25              1
      7277.5000         0.9198       1341.078        -999.25        -999.25         0.9557       -45.3651       2.922771        -999.25              1
      7278.0000         0.9107       1360.643        -999.25        -999.25         0.9669         -45.48       2.816914        -999.25              1
      7278.5000         0.9069       1380.207        -999.25        -999.25         0.9781       -46.0154       2.290558        -999.25              1
      7279.0000         0.9094       1401.117        -999.25        -999.25         0.9837       -46.5691       1.745899        -999.25              1
      7279.5000         0.9259       1370.463        -999.25        -999.25         0.9861       -47.2446       1.079441        -999.25              1
      7280.0000         0.9424        1310.25        -999.25        -999.25         0.9885         -47.92      0.4130859        -999.25              1
      7280.5000          0.972       1250.586        -999.25        -999.25         0.9909       -48.4969     -0.1547737        -999.25      0.9979364
      7281.0000         1.0035       1209.713        -999.25        -999.25         0.9933       -47.3227       1.028465        -999.25              1
      7281.5000         1.0358       1168.842        -999.25        -999.25         0.9958       -46.1485       2.211712        -999.25              1
      7282.0000         1.0639       1133.303        -999.25        -999.25         0.9982       -45.3637        3.00555        -999.25              1
      7282.5000         1.0545       1102.199        -999.25        -999.25         1.0147        -45.032       3.346294        -999.25              1
      7283.0000         1.0408       1075.656        -999.25        -999.25         1.0367       -44.7008       3.686535        -999.25              1
      7283.5000         1.0313       1059.295        -999.25        -999.25         1.0587       -44.3691       4.027279        -999.25              1
