#------------------------------------------------------------------------------
# Created by    : vladimir.rabinovich
# Created on    : 09/19/2023 17:20:27
#------------------------------------------------------------------------------
~Version Information Section
VERS.           2.0     :   CWLS log ASCII Standard - VERSION 2.0
WRAP.           NO      :   One line per depth step
~Well Information Section
#MNEM       .UNIT                                         VALUE :DESCRIPTION
#------------------------------------------------------------------------------
STRT        .FT                                             304 :START DEPTH
STOP        .FT                                            9519 :STOP DEPTH
STEP        .FT                                             0.5 :STEP      
NULL        .                                           -999.25 :NULL      
COMP        .                                        TEXACO INC :COMPANY   
WELL        .                                     ST TR 00216-S :WELL      
FLD         .                                           WILDCAT :FIELD     
LOC         .                                                   :LOCATION  
CNTY        .                             GALVESTON SMALL BLOCK :LOCATION  
STAT        .                                             TEXAS :STATE     
CTRY        .                                     UNITED STATES :COUNTRY   
SRVC        .                                                   :SERVICE COMPANY
DATE        .                             9/13/2023 11:19:17 AM :LOG DATE  
API         .                                    42605000160000 :API NUMBER
UWI         .                                    42605000160000 :UNIQUE WELL ID
XCOORD      .                                  1087579.10798688 :SURFACE X 
YCOORD      .                                  10638823.7542325 :SURFACE Y 
LAT         .                                         29.303831 :LATITUDE  
LON         .                                       -94.7349593 :LONGITUDE 
ELEV        .FT                                              15 :ELEVATION VALUE
ELEV_TYPE   .                                                KB :ELEVATION REFERENCE TYPE
~Curve Information Section
#MNEM       .UNIT                                      API CODE :CURVE DESCRIPTION
#------------------------------------------------------------------------------
DEPT        .FT                                                 :DEPTH     
ASN         .OHMM                                               :          
LAT         .OHMM                                               :          
LN          .OHMM                                               :          
SP          .MV                                                 :          
SP_NORM     .MV                                                 :SP Normalized
VSH_SP      .V/V                                                :Volume of Shale from SP
~A        DEPTH            ASN            LAT             LN             SP        SP_NORM         VSH_SP
# ...
      8284.0000         0.3622         0.1011         0.3643       -94.5558       -56.5236     0.02590173
      8284.5000         0.3564         0.1272         0.3613       -93.2461      -55.22088     0.04875652
      8285.0000         0.3554         0.1532         0.3621       -89.8301      -51.81186      0.1085639
      8285.5000         0.3745         0.1793         0.3628       -86.4097      -48.39843      0.1684486
      8286.0000         0.3935         0.2053         0.3626       -81.7523        -43.748       0.250035
      8286.5000         0.4276         0.2314         0.3621       -76.5697      -38.57239      0.3408353
      8287.0000         0.4687         0.2574         0.3616       -71.3438      -33.35347      0.4323953
      8287.5000         0.5071          0.273         0.3612        -66.734      -28.75064      0.5131466
      8288.0000         0.5189         0.2881         0.3607        -64.082      -26.10562      0.5595506
      8288.5000         0.5306         0.3032         0.3602       -63.4266       -25.4572      0.5709264
      8289.0000         0.5423         0.3184         0.3791       -65.6316      -27.66917      0.5321198
      8289.5000         0.5591         0.3336         0.3979       -67.8409      -29.88544      0.4932378
      8290.0000         0.5761         0.3487         0.4167       -70.0459      -32.09742      0.4544312
      8290.5000         0.5932         0.3606         0.4356       -73.0973       -35.1558      0.4007754
      8291.0000         0.6106         0.3582         0.4545       -67.2635      -29.32898      0.5030004
      8291.5000         0.6341         0.3558         0.4724       -65.0326      -27.10506      0.5420166
      8292.0000         0.6576         0.3534         0.4871       -63.2855      -25.36494       0.572545
      8292.5000         0.6769         0.3509         0.5019       -61.5189      -23.60532      0.6034155
      8293.0000         0.6783         0.3485         0.5166       -59.7523      -21.84569      0.6342861
      8293.5000         0.6798         0.3461         0.5313       -57.9835      -20.08387      0.6651953
      8294.0000         0.6813         0.3437          0.546       -55.3488      -17.45615      0.7112957
      8294.5000         0.6828         0.3467         0.5607       -51.5161      -13.63042      0.7784136
      8295.0000         0.6719         0.3514         0.5755       -47.9699       -10.0912      0.8405053
      8295.5000         0.6609         0.3562         0.5902       -44.7709      -6.899178      0.8965057
      8296.0000         0.6523         0.3609         0.6015       -42.2838      -4.419052      0.9400166
      8296.5000         0.6638         0.3656         0.6015       -41.6653      -3.807529      0.9507451
      8297.0000         0.6753         0.3703         0.6015       -41.0457      -3.194908      0.9614928
      8297.5000         0.6867         0.3751         0.6015       -40.4271      -2.583286       0.972223
      8298.0000         0.6982         0.3798         0.6015       -39.8076       -1.97076      0.9829691
      8298.5000         0.7139         0.3845         0.6015        -39.189      -1.359138      0.9936993
      8299.0000         0.7308         0.3892         0.6015       -38.5705     -0.7476158              1
      8299.5000         0.7477          0.383         0.6015       -39.9833      -2.167393      0.9795194
      8300.0000         0.7645          0.373         0.6015       -39.8955      -2.086575      0.9809373
      8300.5000         0.7716          0.363         0.6015        -42.577      -4.775051       0.933771
      8301.0000         0.7664          0.353         0.6035       -45.7239      -7.928928      0.8784398
      8301.5000         0.7612          0.343         0.6076       -47.3564      -9.568405      0.8496771
      8302.0000          0.756         0.3272         0.6116       -48.6676      -10.88658      0.8265512
      8302.5000         0.7508         0.3037         0.6157       -49.8237      -12.04966      0.8061463
      8303.0000         0.7456         0.2803         0.6198       -51.2617      -13.49464      0.7807959
      8303.5000         0.7405         0.2568         0.6239       -53.6874      -15.92731      0.7381173
      8304.0000         0.7353         0.2333          0.628       -55.9777      -18.22459      0.6978142
      8304.5000         0.7301         0.2154         0.6321       -57.7631      -20.01697       0.666369
      8305.0000         0.7249         0.2042         0.6361       -58.4674      -20.72824      0.6538904
      8305.5000         0.7197         0.1931         0.6402       -58.9099      -21.17772      0.6460049
      8306.0000         0.7137         0.1896         0.6361       -59.3651       -21.6399      0.6378965
      8306.5000         0.7015         0.1945          0.623       -61.1002      -23.38198      0.6073337
      8307.0000         0.6892         0.1995         0.6099       -62.8354      -25.12415      0.5767692
      8307.5000          0.677         0.2044         0.5969       -64.5334      -26.82913      0.5468574
      8308.0000         0.6648         0.2093         0.5838       -65.3005      -27.60321       0.533277
      8308.5000         0.6525         0.2142         0.5707       -62.3196      -24.62929      0.5854511
      8309.0000         0.6403         0.2191          0.563       -58.7531      -21.06977      0.6478989
      8309.5000         0.6657         0.2241         0.5651       -55.1822      -17.50584      0.7104238
      8310.0000         0.7094          0.229         0.5672       -51.6157      -13.94632      0.7728716
      8310.5000         0.7531         0.2339         0.5694       -49.1243      -11.46189       0.816458
      8311.0000         0.7738           0.24         0.5715       -46.7816      -9.126175      0.8574355
      8311.5000         0.7883          0.263         0.5737       -44.4389      -6.790451      0.8984131
      8312.0000         0.8028          0.286         0.5758       -42.9637      -5.322227      0.9241714
      8312.5000         0.8173          0.309         0.5779       -42.2852      -4.650703      0.9359525
      8313.0000         0.8318         0.3319         0.5801       -41.6066      -3.979084      0.9477354
      8313.5000         0.8332         0.3549         0.5844       -40.9292      -3.308659      0.9594972
      8314.0000         0.8273         0.3779         0.5935       -40.5347      -2.921135      0.9662959
      8314.5000         0.8213         0.3964         0.6025       -40.6732      -3.066612      0.9637436
      8315.0000         0.8154         0.4124         0.6115       -40.8117       -3.21209      0.9611914
      8315.5000          0.808         0.4283         0.6205         -40.95      -3.357372      0.9586426
      8316.0000         0.7964         0.4443         0.6296       -41.0884       -3.50275      0.9560921
      8316.5000         0.7849         0.4603         0.6386       -40.8123      -3.233627      0.9608136
      8317.0000         0.7734         0.4636         0.6476       -40.2134      -2.641705      0.9711981
      8317.5000         0.7619         0.4663         0.6566       -39.6136      -2.048882      0.9815986
      8318.0000         0.7503          0.469         0.6656       -39.0148      -1.457058      0.9919814
      8318.5000         0.7495         0.4718         0.6747        -38.416     -0.8652344              1
      8319.0000          0.755         0.4745         0.6779       -37.5473   -0.003509521              1
      8319.5000         0.7605         0.4772         0.6766       -36.4973       1.039513              1
      8320.0000         0.7683         0.4799         0.6752       -35.4482       2.081635              1
      8320.5000         0.7784         0.4898         0.6738       -34.3982       3.124657              1
      8321.0000         0.7884         0.5072         0.6724       -33.3907       4.125179              1
      8321.5000         0.7985         0.5246          0.671       -33.6169       3.892002              1
