#------------------------------------------------------------------------------
# Created by    : vladimir.rabinovich
# Created on    : 09/19/2023 17:19:42
#------------------------------------------------------------------------------
~Version Information Section
VERS.           2.0     :   CWLS log ASCII Standard - VERSION 2.0
WRAP.           NO      :   One line per depth step
~Well Information Section
#MNEM       .UNIT                                         VALUE :DESCRIPTION
#------------------------------------------------------------------------------
STRT        .FT                                             583 :START DEPTH
STOP        .FT                                            6498 :STOP DEPTH
STEP        .FT                                             0.5 :STEP      
NULL        .                                           -999.25 :NULL      
COMP        .                                        EXXON CORP :COMPANY   
WELL        .                                     ST TR 00692-S :WELL      
FLD         .                                           WILDCAT :FIELD     
LOC         .                                                   :LOCATION  
CNTY        .                      MATAGORDA ISLAND SMALL BLOCK :LOCATION  
STAT        .                                             TEXAS :STATE     
CTRY        .                                     UNITED STATES :COUNTRY   
SRVC        .                                                   :SERVICE COMPANY
DATE        .                             9/13/2023 11:19:17 AM :LOG DATE  
API         .                                    42603301950000 :API NUMBER
UWI         .                                    42603301950000 :UNIQUE WELL ID
XCOORD      .                                  518375.599551337 :SURFACE X 
YCOORD      .                                  10266878.6313095 :SURFACE Y 
LAT         .                                        28.2472954 :LATITUDE  
LON         .                                       -96.4850657 :LONGITUDE 
ELEV        .FT                                              89 :ELEVATION VALUE
ELEV_TYPE   .                                                KB :ELEVATION REFERENCE TYPE
~Curve Information Section
#MNEM       .UNIT                                      API CODE :CURVE DESCRIPTION
#------------------------------------------------------------------------------
DEPT        .FT                                                 :DEPTH     
ASFL        .OHMM                                               :          
CILD        .MMHO                                               :          
GR          .GAPI                                               :          
GR_NORM     .GAPI                                               :GammaRay Normalized
ILD         .OHMM                                               :          
SP          .MV                                                 :          
SP_NORM     .MV                                                 :SP Normalized
VSH_GR      .V/V                                                :Volume of Shale from GR
VSH_SP      .V/V                                                :Volume of Shale from SP
~A        DEPTH           ASFL           CILD             GR        GR_NORM            ILD             SP        SP_NORM         VSH_GR         VSH_SP
# ...
      4531.5000         0.8015       3216.132        34.3845       46.47905         0.3846         -79.76      -63.68658      0.2867883     0.02052224
      4532.0000         0.8258       3148.167        34.7806       47.12566         0.3341            -80      -63.92255      0.3005459     0.01683521
      4532.5000         0.8501       3080.202        35.1768       45.71534         0.3242            -80      -63.91852      0.2705391      0.0168981
      4533.0000         0.8624       3012.237         35.573        46.4034         0.3241         -80.16       -64.0745      0.2851787     0.01446092
      4533.5000         0.8565       2990.074        35.9691       47.09127          0.334         -80.16      -64.07048      0.2998142     0.01452374
      4534.0000         0.8188       3031.785        36.3613       47.77233         0.3339            -80      -63.90645      0.3143049     0.01708674
      4534.5000         0.8247       3097.357        35.8682       46.90836         0.3339         -79.84      -63.74242      0.2959226     0.01964974
      4535.0000         0.8321       3162.927        34.8486       45.12553         0.3239         -79.68       -63.5784        0.25799     0.02221256
      4535.5000         0.8394       3228.499        33.8291       43.34288         0.3239         -79.52      -63.41437      0.2200612     0.02477551
      4536.0000         0.8465        3294.07        32.8095       41.56005         0.3238         -79.36      -63.25035      0.1821288     0.02733833
      4536.5000         0.8445       3389.091          31.79        39.7774         0.3138          -79.2      -63.08632         0.1442     0.02990127
      4537.0000         0.8366       3335.519        30.6388        37.7649         0.3138         -79.04      -62.92229      0.1013808     0.03246415
      4537.5000         0.8203       3283.444        31.3523       39.00671         0.3137         -78.88      -62.75827      0.1278023     0.03502703
      4538.0000         0.8041       3231.369        32.0658       40.24851         0.3137         -78.72      -62.59425      0.1542237     0.03758991
      4538.5000         0.7879       3179.293        32.7793       41.49032         0.3136         -78.56      -62.43022      0.1806452     0.04015285
      4539.0000          0.773       3127.218        33.4928       42.73212         0.3136          -78.4       -62.2662      0.2070665     0.04271567
      4539.5000          0.781       3075.143        34.2064       43.97411         0.3135         -78.24      -62.10217      0.2334917     0.04527867
      4540.0000         0.9615       3020.235        34.7877        44.9852         0.3333         -78.08      -61.93815      0.2550041     0.04784143
      4540.5000         0.9228       3073.836        29.5563       35.85186         0.3333         -77.92      -61.77412     0.06067795     0.05040443
      4541.0000          0.884       3115.532        29.3591       35.50431         0.3332         -77.76       -61.6101     0.05328312     0.05296725
      4541.5000         0.8453       3169.133        28.9649       34.81293         0.3332         -77.76      -61.60607     0.03857308     0.05303013
      4542.0000         0.8065       3318.721        28.2744       33.60446         0.3229          -77.6      -61.44204     0.01286089     0.05559307
      4542.5000         0.7678       3402.333         29.657       36.01398         0.3126         -78.16      -61.99802     0.06412733     0.04690588
      4543.0000         0.7154       3485.946        30.7454       37.91008         0.3023         -78.48        -62.314      0.1044698     0.04196882
      4543.5000         0.7134       3569.558        31.8338       39.80616          0.292         -78.72      -62.54997      0.1448119     0.03828168
      4544.0000         0.6938        3653.17         32.521       41.00208         0.2833         -78.96      -62.78594       0.170257     0.03459466
      4544.5000         0.6678       3716.929        32.3241       40.65504         0.2932         -79.28      -63.10192      0.1628731     0.02965754
      4545.0000         0.6678       3651.155        31.8307       39.79054         0.2832         -79.52      -63.33789      0.1444795     0.02597046
      4545.5000          0.686        3585.38        29.5612       35.82636         0.2931         -79.84      -63.65386     0.06013538     0.02103341
      4546.0000         0.7043       3519.605        29.8576       36.34024         0.2931         -80.08      -63.88985     0.07106895     0.01734614
      4546.5000         0.7226       3453.831        30.8311       38.03581          0.293         -80.32      -64.12582      0.1071449     0.01365912
      4547.0000         0.7372       3388.056        31.8047       39.73155         0.3029         -80.32       -64.1218      0.1432245     0.01372194
      4547.5000         0.7253       3359.964        32.7783       41.42728         0.3028         -80.56      -64.35777      0.1793039     0.01003492
      4548.0000         0.7194       3392.267        33.7518       43.12283         0.3028         -80.16      -63.95375      0.2153794     0.01634771
      4548.5000         0.7135        3424.57        34.7254       44.81857         0.3027            -80      -63.78972       0.251459     0.01891065
      4549.0000         0.7077       3449.338        35.6989       46.51413         0.3027         -79.84      -63.62569      0.2875347     0.02147365
      4549.5000         0.7018       3437.448        36.6725       48.20988         0.3126         -79.76      -63.54167      0.3236146     0.02278638
      4550.0000         0.7054       3413.552        37.2652       49.24087         0.3125         -79.52      -63.29764      0.3455504     0.02659941
      4550.5000         0.7264       3389.656        35.7624       46.61476         0.3125         -79.76      -63.53362      0.2896757      0.0229122
      4551.0000         0.7474       3360.185        34.2597       43.98881         0.3025            -80      -63.76959      0.2338044     0.01922512
      4551.5000         0.7685         3360.2        32.7569       41.36269         0.3024         -80.32      -64.08556      0.1779295     0.01428807
      4552.0000         0.7895       3373.695        31.2542       38.73674         0.3024         -80.64      -64.40154      0.1220583    0.009350896
      4552.5000         0.8045       3390.036        28.4824       33.89595         0.3023         -80.88      -64.63751     0.01906285    0.005663872
      4553.0000         0.8045       3390.051        29.2724       35.27127         0.3023          -81.2      -64.95349     0.04832483   0.0007266998
      4553.5000         0.8038       3205.556        29.8386       36.25599         0.3122         -81.52      -65.26946     0.06927644              0
      4554.0000          0.803       3104.396        30.4048       37.24073         0.3121         -81.76      -65.50544     0.09022839              0
      4554.5000         0.8025       2997.282         30.971       38.22549         0.3256         -82.08      -65.82142      0.1111806              0
      4555.0000         0.8144       2908.026        31.5372       39.21022         0.3391         -82.32      -66.05739      0.1321323              0
      4555.5000         0.8322       2824.722        32.1035       40.19512         0.3526         -82.32      -66.05336      0.1530877              0
      4556.0000         1.0207        2794.99        32.6697       41.17985         0.3615         -82.32      -66.04934      0.1740394              0
      4556.5000         0.9769         2747.4        33.2246       42.14487         0.3714         -82.08      -65.80531      0.1945716              0
      4557.0000          0.933       2771.225        33.0274       41.79731         0.3713         -81.92      -65.64129      0.1871768              0
      4557.5000         0.8891       2830.793        31.0841       38.40242         0.3713         -81.68      -65.39726      0.1149451              0
