#------------------------------------------------------------------------------
# Created by    : vladimir.rabinovich
# Created on    : 09/19/2023 17:20:27
#------------------------------------------------------------------------------
~Version Information Section
VERS.           2.0     :   CWLS log ASCII Standard - VERSION 2.0
WRAP.           NO      :   One line per depth step
~Well Information Section
#MNEM       .UNIT                                         VALUE :DESCRIPTION
#------------------------------------------------------------------------------
STRT        .FT                                             304 :START DEPTH
STOP        .FT                                            9519 :STOP DEPTH
STEP        .FT                                             0.5 :STEP      
NULL        .                                           -999.25 :NULL      
COMP        .                                        TEXACO INC :COMPANY   
WELL        .                                     ST TR 00216-S :WELL      
FLD         .                                           WILDCAT :FIELD     
LOC         .                                                   :LOCATION  
CNTY        .                             GALVESTON SMALL BLOCK :LOCATION  
STAT        .                                             TEXAS :STATE     
CTRY        .                                     UNITED STATES :COUNTRY   
SRVC        .                                                   :SERVICE COMPANY
DATE        .                             9/13/2023 11:19:17 AM :LOG DATE  
API         .                                    42605000160000 :API NUMBER
UWI         .                                    42605000160000 :UNIQUE WELL ID
XCOORD      .                                  1087579.10798688 :SURFACE X 
YCOORD      .                                  10638823.7542325 :SURFACE Y 
LAT         .                                         29.303831 :LATITUDE  
LON         .                                       -94.7349593 :LONGITUDE 
ELEV        .FT                                              15 :ELEVATION VALUE
ELEV_TYPE   .                                                KB :ELEVATION REFERENCE TYPE
~Curve Information Section
#MNEM       .UNIT                                      API CODE :CURVE DESCRIPTION
#------------------------------------------------------------------------------
DEPT        .FT                                                 :DEPTH     
ASN         .OHMM                                               :          
LAT         .OHMM                                               :          
LN          .OHMM                                               :          
SP          .MV                                                 :          
SP_NORM     .MV                                                 :SP Normalized
VSH_SP      .V/V                                                :Volume of Shale from SP
~A        DEPTH            ASN            LAT             LN             SP        SP_NORM         VSH_SP
# ...
      2774.0000         0.3469         0.1799         0.3087       -68.3414      -10.31104      0.4522916
      2774.5000         0.3479         0.1692         0.3066       -68.3854      -10.35922      0.4494577
      2775.0000         0.3489         0.1586         0.3087       -68.4292      -10.40719      0.4466358
      2775.5000         0.3499          0.148         0.3108        -68.473      -10.45517      0.4438136
      2776.0000         0.3511         0.1485          0.313        -68.517      -10.50334      0.4409799
      2776.5000         0.3522         0.1565         0.3151       -68.5608      -10.55132      0.4381579
      2777.0000         0.3533         0.1644         0.3173       -68.5422      -10.53689      0.4390064
      2777.5000         0.3544         0.1723         0.3194       -68.2421      -10.24097      0.4564135
      2778.0000         0.3555         0.1803         0.3216       -67.5605      -9.563545       0.496262
      2778.5000         0.3567         0.1882         0.3237       -66.8776      -8.884819      0.5361871
      2779.0000         0.3578         0.1961         0.3258        -65.949      -7.960388      0.5905654
      2779.5000         0.3589         0.2041         0.3283       -64.9642      -6.979771      0.6482488
      2780.0000           0.36          0.212         0.3308       -63.9796       -5.99934      0.7059212
      2780.5000         0.3624         0.2204         0.3334       -62.9949      -5.018818      0.7635989
      2781.0000         0.3661         0.2322         0.3359       -62.2862      -4.314293      0.8050416
      2781.5000         0.3699         0.2441         0.3385       -61.7336      -3.765869      0.8373018
      2782.0000         0.3736         0.2559         0.3411       -61.1813      -3.217743      0.8695445
      2782.5000         0.3774         0.2678         0.3436       -60.6287      -2.669315       0.901805
      2783.0000         0.3811         0.2796         0.3462       -60.0762      -2.120991      0.9340594
      2783.5000         0.3843         0.2915         0.3487       -60.8995      -2.948467      0.8853843
      2784.0000         0.3836         0.3033         0.3513       -61.8732      -3.926342      0.8278623
      2784.5000         0.3829         0.3152         0.3539       -62.6437      -4.701015      0.7822932
      2785.0000         0.3822          0.316         0.3602       -62.6541      -4.715588       0.781436
      2785.5000         0.3815         0.3008         0.3666       -62.4135      -4.479168       0.795343
      2786.0000         0.3807         0.2857          0.373       -62.1727      -4.242538      0.8092625
      2786.5000         0.3793         0.2705         0.3793       -62.1243      -4.198315      0.8118638
      2787.0000         0.3745         0.2553         0.3857       -62.8739      -4.943096      0.7680532
      2787.5000         0.3696         0.2402         0.3921       -63.6232      -5.674297      0.7250413
      2788.0000         0.3647         0.2161         0.3985       -64.6089      -6.641903      0.6681234
      2788.5000         0.3598         0.1909         0.4048       -65.6395      -7.654408      0.6085643
      2789.0000          0.355          0.167         0.4112       -66.6707      -8.667507      0.5489702
      2789.5000         0.3501         0.1529         0.4178       -67.7012      -9.679913      0.4894169
      2790.0000         0.3517         0.1436         0.4243       -68.4154      -10.37601      0.4484699
      2790.5000         0.3549         0.1625         0.4308       -69.0138      -10.95632      0.4143342
      2791.0000         0.3582         0.1814         0.4374       -67.8127      -9.737118      0.4860519
      2791.5000         0.3614         0.2003         0.4439       -66.5485      -8.454823       0.561481
      2792.0000         0.3647         0.2192         0.4504       -65.2842      -7.172428       0.636916
      2792.5000         0.3679         0.2381          0.457       -64.1785       -6.04863      0.7030218
      2793.0000         0.3712         0.2571         0.4635       -63.3314      -5.183437      0.7539154
      2793.5000         0.3744          0.277         0.4701       -62.4849       -4.31884      0.8047741
      2794.0000         0.3776         0.3006         0.4766       -61.6378       -3.45364      0.8556682
      2794.5000         0.3809         0.3242         0.4831       -60.7912      -2.588943      0.9065328
      2795.0000         0.3846         0.3479         0.4859       -59.9441      -1.723747      0.9574266
      2795.5000         0.3884         0.3715         0.4859       -59.0975     -0.8590508              1
      2796.0000         0.3922         0.3951         0.4858       -58.5023     -0.2457542              1
      2796.5000         0.3961         0.4174         0.4857        -58.241     0.03364182              1
      2797.0000         0.3999         0.4243         0.4857       -57.9798      0.3129387              1
      2797.5000         0.4037         0.4312         0.4856       -57.7186      0.5922356              1
      2798.0000         0.4075         0.4381         0.4856       -57.4572      0.8717308              1
      2798.5000         0.4113         0.4455         0.4855        -57.196       1.151028              1
      2799.0000         0.4151         0.4558         0.4854       -57.8807      0.4844246              1
      2799.5000         0.4189         0.4661         0.4854       -58.9743     -0.5910797              1
      2800.0000         0.4227         0.4765         0.4853       -60.0673      -1.665981      0.9608246
      2800.5000         0.4253         0.4868         0.4844       -60.3417      -1.922287      0.9457479
      2801.0000         0.4153         0.4971         0.4803       -59.9068      -1.469288      0.9723948
      2801.5000         0.4054         0.5075         0.4763       -59.3791     -0.9234924              1
      2802.0000         0.3954         0.5178         0.4723       -58.8431     -0.3693962              1
      2802.5000         0.3855         0.5281         0.4683       -58.3074      0.1844025              1
      2803.0000         0.3755         0.5385         0.4643       -57.7714      0.7384987              1
      2803.5000         0.3656         0.5434         0.4602       -57.8807      0.6472931              1
      2804.0000         0.3567         0.5318         0.4562       -58.7969     -0.2508125              1
      2804.5000         0.3504         0.5203         0.4522       -59.7131      -1.148914      0.9912403
      2805.0000          0.344         0.5087         0.4482       -62.8352      -4.252918      0.8086519
      2805.5000         0.3376         0.4972         0.4442       -66.5264      -7.926018      0.5925872
      2806.0000         0.3313         0.4856         0.4401       -66.7867      -8.168221        0.57834
      2806.5000         0.3249           0.47         0.4363       -66.6704      -8.033829      0.5862454
      2807.0000         0.3207         0.4242         0.4344       -66.5541      -7.899429      0.5941512
      2807.5000         0.3304         0.3783         0.4324       -66.7485      -8.075729      0.5837806
      2808.0000         0.3401         0.3324         0.4305       -67.7078      -9.016937      0.5284154
      2808.5000         0.3499         0.2872         0.4286       -68.6676      -9.958641      0.4730211
      2809.0000         0.3596         0.2912         0.4267       -68.6376      -9.910545      0.4758503
      2809.5000         0.3694         0.2951         0.4247       -68.6071       -9.86195      0.4787088
      2810.0000         0.3791          0.299         0.4228        -67.321      -8.557751      0.5554264
      2810.5000         0.3784          0.303         0.4209       -66.3739      -7.592556      0.6122026
      2811.0000         0.3746         0.3068         0.4189       -70.5005      -11.70106      0.3705258
      2811.5000         0.3709         0.3085          0.417       -71.7787      -12.96116      0.2964022
