#------------------------------------------------------------------------------
# Created by    : vladimir.rabinovich
# Created on    : 09/19/2023 17:21:28
#------------------------------------------------------------------------------
~Version Information Section
VERS.           2.0     :   CWLS log ASCII Standard - VERSION 2.0
WRAP.           NO      :   One line per depth step
~Well Information Section
#MNEM       .UNIT                                         VALUE :DESCRIPTION
#------------------------------------------------------------------------------
STRT        .FT                                            2437 :START DEPTH
STOP        .FT                                            8654 :STOP DEPTH
STEP        .FT                                             0.5 :STEP      
NULL        .                                           -999.25 :NULL      
COMP        .                                      PELTO OIL CO :COMPANY   
WELL        .                                     ST TR 00163-S :WELL      
FLD         .                                           WILDCAT :FIELD     
LOC         .                                                   :LOCATION  
CNTY        .                             GALVESTON SMALL BLOCK :LOCATION  
STAT        .                                             TEXAS :STATE     
CTRY        .                                     UNITED STATES :COUNTRY   
SRVC        .                                                   :SERVICE COMPANY
DATE        .                             9/13/2023 11:19:17 AM :LOG DATE  
API         .                                    42605301550000 :API NUMBER
UWI         .                                    42605301550000 :UNIQUE WELL ID
XCOORD      .                                  1154226.19631992 :SURFACE X 
YCOORD      .                                  10687289.1653299 :SURFACE Y 
LAT         .                                        29.4396686 :LATITUDE  
LON         .                                       -94.5278571 :LONGITUDE 
ELEV        .FT                                             111 :ELEVATION VALUE
ELEV_TYPE   .                                                KB :ELEVATION REFERENCE TYPE
~Curve Information Section
#MNEM       .UNIT                                      API CODE :CURVE DESCRIPTION
#------------------------------------------------------------------------------
DEPT        .FT                                                 :DEPTH     
CALI        .IN                                                 :          
GR          .GAPI                                               :          
GR_NORM     .GAPI                                               :GammaRay Normalized
ILD         .OHMM                                               :          
ILM         .OHMM                                               :          
NPSS        .%                                                  :Neutron Porosity Sandstone
RHOB        .G/CM3                                              :          
SFL         .OHMM                                               :          
SP          .MV                                                 :          
SP_NORM     .GAPI                                               :SP Normalized
TENS        .LB                                                 :          
VSH_GR      .V/V                                                :Volume of Shale from GR
VSH_SP      .V/V                                                :Volume of Shale from SP
~A        DEPTH           CALI             GR        GR_NORM            ILD            ILM           NPSS           RHOB            SFL             SP        SP_NORM           TENS         VSH_GR         VSH_SP
# ...
      4527.0000        10.6906         72.742       64.37762         0.7022         0.7285        44.5884         2.0746         0.7951        78.8749      -6.439612        -6.6079       0.667609       0.900929
      4527.5000        10.5993        73.4429       65.29817         0.8026         0.7772        43.6846         2.0945         0.8063        80.3785      -4.172645        -7.0972      0.6871951      0.9358054
      4528.0000        10.5793        76.5586       69.39025         0.9074         0.7882        43.0824         2.1065         0.8175        81.3981      -2.635402        -7.5873      0.7742606      0.9594554
      4528.5000        10.5798        80.7673       74.91782         0.9501         0.8066        42.6611         2.1174         0.8289        82.3139      -1.254654        -8.0784      0.8918686      0.9806976
      4529.0000        10.5702        83.3212       78.27203         0.9903         0.8253             42         2.1243         0.8404        83.0254     -0.1819395        -8.5705      0.9632348      0.9972009
      4529.5000        10.5809        84.8947       80.33862         1.0328         0.8482        40.9705         2.1322         0.8598        83.6343      0.7360974        -9.0635              1              1
      4530.0000        10.6426        85.4878       81.11759         1.0772         0.8679        40.1823         2.1451         0.8918        83.8378       1.042911        -9.5575              1              1
      4530.5000        10.7959        85.7843         81.507         1.1181         0.8959        39.7576         2.1637         0.9251        84.2446       1.656239        -9.2198              1              1
      4531.0000        10.7755        85.8824       81.63584         1.1444         0.9083        40.4242         2.1765         0.9083        84.4516       1.968333        -8.2494              1              1
      4531.5000        10.7755        85.8824       81.63584         1.1714         0.9422          42.42         2.1756         0.8919        84.2536       1.669813        -7.2789              1              1
      4532.0000        10.8571        83.9216       79.06059         1.1823         0.9774          42.96         2.1697         0.8919        83.8524       1.064927        -6.3084      0.9800125              1
      4532.5000        10.9388        80.7843       74.94016         1.1551          0.964          42.36         2.1618         0.9083        83.5518      0.6117178         -5.338      0.8923437              1
      4533.0000             11        79.2969       72.98664         1.0975         0.9336        41.8182         2.1579         0.9251        83.0475     -0.1486159        -4.3675      0.8507796      0.9977136
      4533.5000             11         79.699       73.51475         1.0379         0.9041          42.36         2.1559         0.9422        82.7455     -0.6039419         -3.397      0.8620159      0.9907086
      4534.0000        10.9082        80.4902       74.55389         0.9818         0.8759          43.62         2.1441         0.9509        82.3412      -1.213497        -2.4264      0.8841252      0.9813308
      4534.5000        10.7347        80.4902       74.55389         0.9293         0.8447          46.26         2.1203         0.9336        82.0379      -1.670779        -1.4559      0.8841252      0.9742957
      4535.0000        10.6429        79.6999       73.51592         0.8838         0.8333           47.7         2.0856         0.9166        82.0399      -1.667765        -0.4853      0.8620409       0.974342
      4535.5000         10.551        79.8001       73.64753          0.864         0.8258        48.4823         2.0589         0.8959        82.3483        -1.2028         0.5824       0.864841      0.9814954
      4536.0000        10.5102        80.8824       75.06899         0.8601          0.822             48         2.0629         0.8798        82.6573     -0.7369141          1.553       0.895085      0.9886628
      4536.5000        10.4592        84.3137       79.57555         0.8601          0.822          46.92         2.0896          0.868          82.66     -0.7328421         2.5236      0.9909691      0.9887255
      4537.0000        10.4388        86.1765       82.02209         0.8719          0.822          45.84         2.1233         0.8838        82.5602     -0.8833099         3.4942              1      0.9864106
      4537.5000        10.4286        87.1569       83.30973         0.8838         0.8409          44.94          2.149         0.8919        82.4603      -1.033939         4.4649              1      0.9840932
      4538.0000        10.4286        86.7647       82.79463         0.8959         0.8759          44.16          2.156         0.8959        82.7707     -0.5659482         5.4356              1      0.9912931
      4538.5000        10.4286         85.098       80.60564         0.9083         0.8798          43.44          2.152            0.9        83.1847     0.05823857         6.4063              1              1
      4539.0000        10.4286        83.3333       78.28793         0.9251         0.8838          42.36         2.1411         0.9083        83.7021      0.8383226          7.377      0.9635729              1
      4539.5000         10.449        82.1569       76.74288         0.9379         0.8919        41.3939         2.1371         0.9125        84.0147       1.309626         8.3478      0.9306996              1
      4540.0000        10.4592        81.8627       76.35648         0.9509            0.9        40.5455          2.146         0.9209        84.3279       1.781838         9.3185      0.9224784              1
      4540.5000        10.4596        81.0817       75.33074         0.9641         0.9083        40.1806         2.1611         0.9294        84.3375       1.796309         9.7982      0.9006541              1
      4541.0000        10.4502        79.4133       73.13952         0.9776         0.9125        40.4207         2.1742         0.9294        84.3511       1.816807         9.7887      0.8540323              1
      4541.5000        10.4611        78.3274       71.71333         0.9823         0.9125        40.9027         2.1754         0.9295        84.3647       1.837316         9.7792      0.8236879              1
      4542.0000        10.4722        79.3234       73.02145         0.9825         0.9126        40.7188         2.1675         0.9296        84.2771       1.705241         9.7698      0.8515201              1
      4542.5000        10.4628        81.2998       75.61718         0.9827         0.9126        40.1118         2.1577         0.9296        84.2907        1.72575         9.7603      0.9067485              1
      4543.0000        10.4635        83.1731       78.07753         0.9829         0.9126        39.3241         2.1638         0.9297        84.3044       1.746398         9.7509      0.9590964              1
      4543.5000        10.4745        83.2779       78.21518         0.9831         0.9126        38.8996          2.173         0.9298        84.3179       1.766758         9.7415      0.9620251              1
      4544.0000        10.4854        82.8908       77.70676         0.9833         0.9084        39.1999         2.1751         0.9298        84.3315       1.787256         9.7321      0.9512078              1
      4544.5000        10.4659        82.3063       76.93909         0.9835         0.9084        39.3793         2.1703         0.9299        84.2445        1.65609         9.7228      0.9348744              1
      4545.0000        10.4768        81.9183       76.42951         0.9837         0.9042        39.0761         2.1684           0.93         84.055       1.370384         9.7134      0.9240322              1
      4545.5000        10.4674          81.53       75.91953         0.9839            0.9        38.7731         2.1776         0.9388        83.9674       1.238309         9.7031      0.9131814              1
