#------------------------------------------------------------------------------
# Created by    : vladimir.rabinovich
# Created on    : 09/19/2023 17:20:27
#------------------------------------------------------------------------------
~Version Information Section
VERS.           2.0     :   CWLS log ASCII Standard - VERSION 2.0
WRAP.           NO      :   One line per depth step
~Well Information Section
#MNEM       .UNIT                                         VALUE :DESCRIPTION
#------------------------------------------------------------------------------
STRT        .FT                                             304 :START DEPTH
STOP        .FT                                            9519 :STOP DEPTH
STEP        .FT                                             0.5 :STEP      
NULL        .                                           -999.25 :NULL      
COMP        .                                        TEXACO INC :COMPANY   
WELL        .                                     ST TR 00216-S :WELL      
FLD         .                                           WILDCAT :FIELD     
LOC         .                                                   :LOCATION  
CNTY        .                             GALVESTON SMALL BLOCK :LOCATION  
STAT        .                                             TEXAS :STATE     
CTRY        .                                     UNITED STATES :COUNTRY   
SRVC        .                                                   :SERVICE COMPANY
DATE        .                             9/13/2023 11:19:17 AM :LOG DATE  
API         .                                    42605000160000 :API NUMBER
UWI         .                                    42605000160000 :UNIQUE WELL ID
XCOORD      .                                  1087579.10798688 :SURFACE X 
YCOORD      .                                  10638823.7542325 :SURFACE Y 
LAT         .                                         29.303831 :LATITUDE  
LON         .                                       -94.7349593 :LONGITUDE 
ELEV        .FT                                              15 :ELEVATION VALUE
ELEV_TYPE   .                                                KB :ELEVATION REFERENCE TYPE
~Curve Information Section
#MNEM       .UNIT                                      API CODE :CURVE DESCRIPTION
#------------------------------------------------------------------------------
DEPT        .FT                                                 :DEPTH     
ASN         .OHMM                                               :          
LAT         .OHMM                                               :          
LN          .OHMM                                               :          
SP          .MV                                                 :          
SP_NORM     .MV                                                 :SP Normalized
VSH_SP      .V/V                                                :Volume of Shale from SP
~A        DEPTH            ASN            LAT             LN             SP        SP_NORM         VSH_SP
# ...
      2128.0000          0.522         0.3213         0.5912       -61.2794    -0.08404922              1
      2128.5000         0.5185         0.3388         0.5929       -61.2878     -0.1002998              1
      2129.0000         0.5151         0.3563         0.5946       -61.2963     -0.1166458              1
      2129.5000         0.5116         0.3738         0.5963        -61.319     -0.1471977              1
      2130.0000         0.5081         0.3785          0.598       -61.3792     -0.2152481              1
      2130.5000         0.5047         0.3764         0.5997       -61.4395     -0.2833977              1
      2131.0000         0.5021         0.3743         0.6014       -61.4998     -0.3515511              1
      2131.5000         0.4996         0.3721         0.6029         -61.56     -0.4195976              1
      2132.0000         0.4971           0.37         0.6021       -62.0229     -0.8903465              1
      2132.5000         0.4946         0.3679         0.6014       -62.6263      -1.501598      0.9442669
      2133.0000          0.492         0.3631         0.6006       -63.2297      -2.112846      0.8763504
      2133.5000         0.4895          0.357         0.5998       -64.1483      -3.039299      0.7734112
      2134.0000          0.487         0.3508         0.5991       -65.1359      -4.034752      0.6628053
      2134.5000         0.4885         0.3447         0.5983       -65.9197      -4.826397      0.5748448
      2135.0000         0.4921         0.3276         0.5976       -66.6786      -5.593143      0.4896507
      2135.5000         0.4957         0.2848         0.5968       -67.4373      -6.359699      0.4044779
      2136.0000         0.4993         0.2419          0.596       -68.1963      -7.126545      0.3192728
      2136.5000         0.5029          0.199         0.5953       -68.6429      -7.580997      0.2687781
      2137.0000         0.5065         0.1887         0.5945       -68.6766      -7.622543      0.2641619
      2137.5000         0.5101          0.189           0.59       -68.7103      -7.664093      0.2595452
      2138.0000         0.5137         0.1892         0.5844       -68.7441       -7.70575      0.2549167
      2138.5000         0.5149         0.1894         0.5788       -68.4594      -7.428894      0.2856784
      2139.0000         0.5138         0.1896         0.5732       -67.8363      -6.813652      0.3540387
      2139.5000         0.5127         0.2087         0.5677       -67.2135        -6.1987      0.4223667
      2140.0000         0.5116         0.2334         0.5621       -66.5908      -5.583843      0.4906841
      2140.5000         0.5105         0.2581         0.5565        -65.968      -4.968899      0.5590112
      2141.0000         0.5095         0.2829         0.5509        -65.345      -4.353748      0.6273613
      2141.5000         0.5084         0.3076         0.5453       -64.9094      -3.925999       0.674889
      2142.0000         0.5073         0.3323         0.5397       -64.5643      -3.588749      0.7123612
      2142.5000         0.5062          0.357         0.5341       -64.2191      -3.251396      0.7498448
      2143.0000         0.5044         0.3789         0.5285        -63.874      -2.914146       0.787317
      2143.5000         0.4997         0.3823         0.5229       -63.5288      -2.576797      0.8248003
      2144.0000         0.4949         0.3856         0.5193       -63.1837      -2.239548      0.8622725
      2144.5000         0.4902          0.389          0.516       -63.6765      -2.740196      0.8066449
      2145.0000         0.4854         0.3924         0.5127       -64.2611      -3.332649      0.7408168
      2145.5000         0.4806         0.3957         0.5094       -64.9529      -4.032299      0.6630779
      2146.0000         0.4759         0.3991         0.5061       -65.8282      -4.915447      0.5649503
      2146.5000         0.4711         0.3931         0.5028       -66.7037      -5.798794      0.4668007
      2147.0000         0.4664         0.3793         0.4995       -67.5791      -6.682049      0.3686613
      2147.5000         0.4629         0.3656         0.4962       -68.4543      -7.565098      0.2705447
      2148.0000         0.4596         0.3518         0.4929       -69.0471      -8.165741      0.2038066
      2148.5000         0.4549          0.338         0.4896       -69.3927      -8.519196      0.1645338
      2149.0000          0.447         0.3243         0.4863       -69.7384      -8.872749      0.1252501
      2149.5000          0.439          0.301           0.39        -70.084      -9.226196     0.08597819
      2150.0000         0.4311         0.2711          0.388       -70.4297       -9.57975     0.04669444
      2150.5000         0.4286         0.2412         0.3891       -70.6492      -9.807098     0.02143351
      2151.0000         0.4267         0.2204         0.3901       -70.4813      -9.647045     0.03921721
      2151.5000         0.4247         0.2016         0.3912       -70.3136      -9.487194     0.05697844
      2152.0000         0.4228         0.1827         0.3923       -70.1458      -9.327244     0.07475069
      2152.5000         0.4208         0.1638         0.3983       -69.9779      -9.167194     0.09253396
      2153.0000         0.4189         0.1449         0.4218       -69.8102      -9.007351      0.1102943
      2153.5000         0.4169         0.1261         0.4453       -69.2979      -8.502892      0.1663454
      2154.0000         0.4343         0.1224         0.4687       -68.6345      -7.847343      0.2391841
      2154.5000         0.4658          0.157         0.4922       -67.9714      -7.192093      0.3119897
      2155.0000         0.4973         0.1916         0.5114        -67.308      -6.536545      0.3848284
      2155.5000         0.5289         0.2262         0.5257       -66.6449      -5.881294       0.457634
      2156.0000         0.5604         0.2608         0.5399       -65.9816      -5.225845      0.5304616
      2156.5000         0.5936         0.2954         0.5541        -65.306      -4.558094      0.6046562
      2157.0000         0.6342           0.33         0.5683       -64.5995      -3.859447      0.6822836
      2157.5000         0.6748         0.3745         0.5826       -63.8928      -3.160595      0.7599339
      2158.0000         0.7154         0.4211         0.5968       -63.1863      -2.461945      0.8375617
      2158.5000         0.7156         0.4676         0.6077       -62.4796      -1.763096      0.9152116
      2159.0000         0.6868         0.5142         0.5924       -62.1929      -1.484245      0.9461949
      2159.5000         0.6569         0.5607         0.5771       -61.9744      -1.273594      0.9696007
      2160.0000          0.627         0.6073         0.5617       -61.7559      -1.062946       0.993006
      2160.5000          0.597         0.6538         0.5464       -61.5374     -0.8522949              1
      2161.0000         0.5671         0.6596         0.5504       -61.3189     -0.6416473              1
      2161.5000         0.5388         0.6632         0.5554       -61.1309     -0.4614983              1
      2162.0000         0.5297         0.6668         0.5605       -61.0132     -0.3516426              1
      2162.5000         0.5207         0.6704         0.5656       -60.8956     -0.2418938              1
      2163.0000         0.5139          0.674         0.5706       -60.7779     -0.1320457              1
      2163.5000         0.5263         0.6776         0.5757       -60.6602    -0.02219391              1
      2164.0000         0.5387         0.6812         0.5808       -60.5425     0.08765411              1
      2164.5000         0.5511         0.6848          0.586       -60.4248       0.197506              1
      2165.0000         0.5635         0.6581         0.5913       -60.3731      0.2413559              1
      2165.5000          0.576         0.6221         0.5965        -60.371      0.2356071              1
