#------------------------------------------------------------------------------
# Created by    : vladimir.rabinovich
# Created on    : 09/19/2023 17:19:42
#------------------------------------------------------------------------------
~Version Information Section
VERS.           2.0     :   CWLS log ASCII Standard - VERSION 2.0
WRAP.           NO      :   One line per depth step
~Well Information Section
#MNEM       .UNIT                                         VALUE :DESCRIPTION
#------------------------------------------------------------------------------
STRT        .FT                                             583 :START DEPTH
STOP        .FT                                            6498 :STOP DEPTH
STEP        .FT                                             0.5 :STEP      
NULL        .                                           -999.25 :NULL      
COMP        .                                        EXXON CORP :COMPANY   
WELL        .                                     ST TR 00692-S :WELL      
FLD         .                                           WILDCAT :FIELD     
LOC         .                                                   :LOCATION  
CNTY        .                      MATAGORDA ISLAND SMALL BLOCK :LOCATION  
STAT        .                                             TEXAS :STATE     
CTRY        .                                     UNITED STATES :COUNTRY   
SRVC        .                                                   :SERVICE COMPANY
DATE        .                             9/13/2023 11:19:17 AM :LOG DATE  
API         .                                    42603301950000 :API NUMBER
UWI         .                                    42603301950000 :UNIQUE WELL ID
XCOORD      .                                  518375.599551337 :SURFACE X 
YCOORD      .                                  10266878.6313095 :SURFACE Y 
LAT         .                                        28.2472954 :LATITUDE  
LON         .                                       -96.4850657 :LONGITUDE 
ELEV        .FT                                              89 :ELEVATION VALUE
ELEV_TYPE   .                                                KB :ELEVATION REFERENCE TYPE
~Curve Information Section
#MNEM       .UNIT                                      API CODE :CURVE DESCRIPTION
#------------------------------------------------------------------------------
DEPT        .FT                                                 :DEPTH     
ASFL        .OHMM                                               :          
CILD        .MMHO                                               :          
GR          .GAPI                                               :          
GR_NORM     .GAPI                                               :GammaRay Normalized
ILD         .OHMM                                               :          
SP          .MV                                                 :          
SP_NORM     .MV                                                 :SP Normalized
VSH_GR      .V/V                                                :Volume of Shale from GR
VSH_SP      .V/V                                                :Volume of Shale from SP
~A        DEPTH           ASFL           CILD             GR        GR_NORM            ILD             SP        SP_NORM         VSH_GR         VSH_SP
# ...
      1033.5000         1.0205       964.2101        61.5161       80.78271         1.0371           -2.8      0.2302756              1              1
      1034.0000         1.0159       926.3921        62.8889       83.11559         1.0795          -2.92      0.1283064              1              1
      1034.5000         1.0179        884.597        62.7904       82.94735         1.1305          -4.16      -1.093663              1              1
      1035.0000         1.2983       846.7768        58.4533       75.57382         1.1809           -5.4      -2.315632       0.905826      0.9849699
      1035.5000         1.3003       814.9199        54.1163       68.20042         1.2271          -6.64      -3.537601      0.7489452      0.9267809
      1036.0000         1.4334       787.0384        49.7792       60.82686         1.2706          -7.88       -4.75957      0.5920609      0.8685919
      1036.5000         1.5665       777.0498        47.3492       56.69525         1.2869          -9.12      -5.981539      0.5041543      0.8104029
      1037.0000         1.7079       747.1546         50.353       61.80071         1.3384         -10.44      -7.283508       0.612781      0.7484044
      1037.5000          1.702       753.0952        53.3568       66.90618         1.3279         -10.44      -7.265477      0.7214081       0.749263
      1038.0000         1.6893       759.0359        56.3606       72.01166         1.3175         -10.44      -7.247446      0.8300353      0.7501216
      1038.5000         1.6822       772.7923        59.3645       77.11728          1.294          -10.4      -7.189415      0.9386655       0.752885
      1039.0000          1.533       786.5488        62.3683       82.22275         1.2714          -9.52      -6.291385              1      0.7956483
      1039.5000         1.3838       800.3053         64.781       86.32336         1.2495          -8.64      -5.393354              1      0.8384117
      1040.0000         1.2746       814.0618        64.3859       85.65094         1.2284          -7.76      -4.495323              1      0.8811751
      1040.5000          1.303       827.8183        60.9018       79.72745          1.208          -7.24      -3.957292       0.994201      0.9067956
      1041.0000         1.3314        836.273        55.9727       71.34751         1.1958          -7.08      -3.779261      0.8159045      0.9152733
      1041.5000         1.3598       832.2726        55.7752       71.01099         1.2015          -7.04       -3.72123      0.8087444      0.9180366
      1042.0000         1.3883       806.8726        55.4791       70.50685         1.2394          -7.16      -3.823199      0.7980181       0.913181
      1042.5000         1.4167       781.4727         55.084       69.83443         1.2796           -9.4      -6.045168      0.7837114      0.8073729
      1043.0000         1.4497       756.0728         54.887       69.49877         1.3226          -10.6      -7.227138      0.7765696      0.7510887
      1043.5000         1.4259       742.5739        54.4919       68.82632         1.3467         -11.88      -8.489107      0.7622622      0.6909949
      1044.0000         1.3623       758.4346        52.2756       65.05799         1.3185         -13.76      -10.35108      0.6820849      0.6023297
      1044.5000         1.2988       915.5571        50.0593       61.28965         1.0922         -15.36      -11.93304      0.6019076      0.5269979
      1045.0000         1.2353       1072.679         47.843       57.52131         0.9322         -17.44      -13.99501        0.52173      0.4288088
      1045.5000         1.1718       1229.802        45.6267       53.75297         0.8131         -19.12      -15.65698      0.4415526      0.3496674
      1046.0000         1.1082       1283.274        43.4104       49.98463         0.7793          -20.6      -17.11895       0.361375      0.2800498
      1046.5000         1.0447        1505.98        41.1941       46.21628          0.664            -22      -18.50092      0.2811975      0.2142418
      1047.0000         0.9812       1573.581        39.6472       43.58588         0.6355         -22.96      -19.44289      0.2252316      0.1693862
      1047.5000          0.899       1591.445        39.6477       43.58594         0.6284         -23.76      -20.22486      0.2252327      0.1321496
      1048.0000          0.895       1650.255        40.6297       45.25447          0.606         -25.36      -21.80683      0.2607335     0.05681764
      1048.5000          0.895       1709.066        41.6117       46.92302         0.5851         -24.44       -20.8688      0.2962345      0.1014858
      1049.0000          0.895       1746.475          42.82       48.97626         0.5726         -23.56      -19.97077      0.3399205      0.1442492
      1049.5000         0.8951       1751.577        40.2434       44.59545         0.5709         -22.64      -19.03274      0.2467117      0.1889173
      1050.0000         0.8414       1756.679        37.6668       40.21461         0.5693         -21.72       -18.0947      0.1535024      0.2335855
      1050.5000         0.8226       1761.781        35.0902       35.83379         0.5676         -20.84      -17.19667     0.06029332      0.2763488
      1051.0000         0.8135       1762.303        33.4506       33.04579         0.5674         -20.48      -16.81864   0.0009742899      0.2943503
      1051.5000         0.7996       1756.335        33.1166       32.47724         0.5694          -20.4      -16.72061              0      0.2990185
      1052.0000         0.7836       1744.137        35.5223       36.56597         0.5733         -20.48      -16.78258     0.07587165      0.2960676
      1052.5000         0.7836       1731.939        37.9279       40.65454         0.5774          -20.4      -16.68455      0.1628626      0.3007357
      1053.0000         0.7986       1719.741        40.3336       44.74326         0.5815         -20.32      -16.58652      0.2498567      0.3054039
      1053.5000         0.8135       1702.615        42.7393         48.832         0.5873         -20.32      -16.56849      0.3368511      0.3062624
      1054.0000         0.8214       1672.132         45.145       52.92075          0.598          -17.8      -14.03046      0.4238457      0.4271211
      1054.5000         0.8194       1641.649        47.5507       57.00948         0.6091         -15.32      -11.53243        0.51084      0.5460749
      1055.0000         0.7982       1611.166        49.9564       61.09823         0.6207          -12.8      -8.994396      0.5978346      0.6669335
      1055.5000          0.777       1580.683        52.3621       65.18695         0.6326         -10.32      -6.496366      0.6848288      0.7858874
      1056.0000         0.7558         1550.2        55.7798         70.996         0.6451           -9.4      -5.558334      0.8084256      0.8305555
      1056.5000         0.7298       1543.453        54.9872       69.64787         0.6479           -9.6      -5.740304      0.7797418      0.8218902
      1057.0000         0.7238        1602.21        52.5831       65.56028         0.6241         -11.04      -7.162273      0.6927719      0.7541775
      1057.5000         0.7238       1660.967        50.1789       61.47253         0.6021         -12.44      -8.544242      0.6057986      0.6883695
      1058.0000         0.7318       1719.724        42.2116       47.92788         0.5815         -13.84      -9.926211      0.3176145      0.6225613
      1058.5000         0.7561       1778.481        42.6803       48.72385         0.5623         -15.28      -11.34818      0.3345501      0.5548486
      1059.0000         0.7803       1837.238         43.149       49.51982         0.5443         -16.68      -12.73015      0.3514855      0.4890405
      1059.5000         0.8046        1911.47        43.6177       50.31578         0.5232         -18.08      -14.11212       0.368421      0.4232324
