#------------------------------------------------------------------------------
# Created by    : vladimir.rabinovich
# Created on    : 09/19/2023 17:19:42
#------------------------------------------------------------------------------
~Version Information Section
VERS.           2.0     :   CWLS log ASCII Standard - VERSION 2.0
WRAP.           NO      :   One line per depth step
~Well Information Section
#MNEM       .UNIT                                         VALUE :DESCRIPTION
#------------------------------------------------------------------------------
STRT        .FT                                             583 :START DEPTH
STOP        .FT                                            6498 :STOP DEPTH
STEP        .FT                                             0.5 :STEP      
NULL        .                                           -999.25 :NULL      
COMP        .                                        EXXON CORP :COMPANY   
WELL        .                                     ST TR 00692-S :WELL      
FLD         .                                           WILDCAT :FIELD     
LOC         .                                                   :LOCATION  
CNTY        .                      MATAGORDA ISLAND SMALL BLOCK :LOCATION  
STAT        .                                             TEXAS :STATE     
CTRY        .                                     UNITED STATES :COUNTRY   
SRVC        .                                                   :SERVICE COMPANY
DATE        .                             9/13/2023 11:19:17 AM :LOG DATE  
API         .                                    42603301950000 :API NUMBER
UWI         .                                    42603301950000 :UNIQUE WELL ID
XCOORD      .                                  518375.599551337 :SURFACE X 
YCOORD      .                                  10266878.6313095 :SURFACE Y 
LAT         .                                        28.2472954 :LATITUDE  
LON         .                                       -96.4850657 :LONGITUDE 
ELEV        .FT                                              89 :ELEVATION VALUE
ELEV_TYPE   .                                                KB :ELEVATION REFERENCE TYPE
~Curve Information Section
#MNEM       .UNIT                                      API CODE :CURVE DESCRIPTION
#------------------------------------------------------------------------------
DEPT        .FT                                                 :DEPTH     
ASFL        .OHMM                                               :          
CILD        .MMHO                                               :          
GR          .GAPI                                               :          
GR_NORM     .GAPI                                               :GammaRay Normalized
ILD         .OHMM                                               :          
SP          .MV                                                 :          
SP_NORM     .MV                                                 :SP Normalized
VSH_GR      .V/V                                                :Volume of Shale from GR
VSH_SP      .V/V                                                :Volume of Shale from SP
~A        DEPTH           ASFL           CILD             GR        GR_NORM            ILD             SP        SP_NORM         VSH_GR         VSH_SP
# ...
      2199.5000         0.8364       2510.985        33.1196       29.81322         0.3983          -51.6      -44.20776              0              0
      2200.0000         0.8141       2541.499        35.0116       32.55578         0.3935          -51.6        -44.193              0              0
      2200.5000         0.7917       2572.014        36.9036       35.29832         0.3888         -51.24      -43.81825     0.04890044              0
      2201.0000         0.7872       2593.191         37.757       36.53537         0.3856          -50.6      -43.16349     0.07522056              0
      2201.5000         0.7793       2602.416        37.7723       36.55754         0.3843         -49.96      -42.50874     0.07569244              0
      2202.0000         0.7693       2604.424        36.1228       34.16651          0.384         -49.32      -41.85398     0.02481939              0
      2202.5000         0.7593       2606.425        34.4734       31.77563         0.3837         -48.68      -41.19923              0              0
      2203.0000         0.7374       2608.426         32.824       29.38475         0.3834         -48.04      -40.54448              0     0.01138802
      2203.5000         0.7275       2640.949        31.5347       27.51583         0.3787          -47.4      -39.88972              0     0.02775688
      2204.0000         0.7175       2673.472        31.8317       27.94635          0.374         -46.76      -39.23497              0     0.04412584
      2204.5000         0.7135       2705.996        34.2481       31.44904         0.3695         -46.12      -38.58021              0     0.06049471
      2205.0000         0.7095       2747.655        36.6645       34.95174         0.3639         -45.56      -38.00546     0.04152631     0.07486353
      2205.5000         0.7075       2749.643        39.0809       38.45442         0.3637         -45.56       -37.9907      0.1160515     0.07523241
      2206.0000         0.7074       2758.121        41.4972       41.95697         0.3626         -46.04      -38.45595      0.1905738      0.0636013
      2206.5000         0.7074       2766.598        43.9136       45.45967         0.3615         -46.56       -38.9612      0.2650993     0.05097008
      2207.0000         0.7074       2775.076        39.2574       38.71028         0.3604         -47.08      -39.46644      0.1214953     0.03833895
      2207.5000         0.7074       2781.516        39.5545       39.14093         0.3595         -47.56      -39.93169      0.1306582     0.02670784
      2208.0000         0.7093       2783.518        42.4257       43.30288         0.3593         -48.08      -40.43693      0.2192102     0.01407671
      2208.5000         0.7153       2743.109        42.3267       43.15937         0.3645          -48.6      -40.94217      0.2161568    0.001445675
      2209.0000         0.7252         2702.7        40.6639       40.74906           0.37         -49.08      -41.40742      0.1648736              0
      2209.5000         0.7808       2662.291         39.001       38.33861         0.3756          -49.6      -41.91266      0.1135874              0
      2210.0000         0.7888       2621.882        37.3382        35.9283         0.3814            -50      -42.29791     0.06230415              0
      2210.5000         0.8066       2581.473         34.901       32.39546         0.3874         -50.08      -42.36316              0              0
      2211.0000         0.8305       2541.064         34.901       32.39546         0.3935         -50.08       -42.3484              0              0
      2211.5000         0.9111       2505.254         34.901       32.39546         0.3992         -49.52      -41.77365              0              0
      2212.0000         0.9191       2472.684         35.198       32.82598         0.4044         -48.92      -41.15889              0              0
      2212.5000         0.9051       2440.113        36.0054       33.99634         0.4098         -48.32      -40.54414     0.02119868      0.0113966
      2213.0000         0.8972       2397.928        36.8127       35.16656          0.417         -47.72      -39.92938     0.04609704     0.02676544
      2213.5000         0.8813       2405.887        37.6201       36.33692         0.4156         -47.16      -39.35463     0.07099825     0.04113436
      2214.0000         0.8654       2413.576        38.4275       37.50729         0.4143         -46.56      -38.73988     0.09589978     0.05650311
      2214.5000         0.8594       2421.264        38.9604       38.27975          0.413         -45.96      -38.12512       0.112335     0.07187204
      2215.0000         0.8554       2428.953        38.5644       37.70574         0.4117         -45.36      -37.51036      0.1001221     0.08724089
      2215.5000         0.8554       2436.642        36.6323       34.90506         0.4104         -45.64      -37.77561     0.04053327      0.0806098
      2216.0000         0.8759        2444.33        34.7003       32.10453         0.4091         -46.44      -38.56085              0      0.0609787
      2216.5000         0.8958       2452.019        32.0297       28.23337         0.4078         -47.24       -39.3461              0      0.0413475
      2217.0000         0.9216       2461.652        32.7228       29.23805         0.4062         -48.04      -40.13134              0      0.0217164
      2217.5000         0.9375        2463.64        34.5333       31.86245         0.4059         -48.84      -40.91659              0    0.002085304
      2218.0000         0.9414       2473.594        36.3439         34.487         0.4043         -49.64      -41.70184     0.03163837              0
      2218.5000         0.9533       2512.113        37.1782       35.69637         0.3981         -50.44      -42.48708     0.05736947              0
      2219.0000         0.9533       2550.632        36.1881       34.26117         0.3921         -51.08      -43.11233     0.02683339              0
      2219.5000         0.9374       2589.152        33.8224       30.83197         0.3862         -51.08      -43.09757              0              0
      2220.0000         0.9294       2627.671        30.6436       26.22415         0.3806          -50.2      -42.20282              0              0
      2220.5000         0.9294       2654.613        31.2376       27.08518         0.3767         -49.32      -41.30806              0              0
      2221.0000         0.9254       2652.631        33.1404       29.84338          0.377            -48       -39.9733              0     0.02566738
      2221.5000         0.9194       2580.222        35.0431       32.60144         0.3876         -46.68      -38.63855              0     0.05903625
      2222.0000         0.9094       2507.813        36.9459       35.35964         0.3988         -45.36       -37.3038     0.05020507     0.09240504
      2222.5000         0.8955       2435.404        38.8486       38.11769         0.4106         -44.04      -35.96904       0.108887      0.1257739
      2223.0000         0.8855       2362.995        40.7514       40.87589         0.4232         -42.68      -34.59429      0.1675722      0.1601428
      2223.5000         0.8736       2290.586        42.6541       43.63396         0.4366         -41.36      -33.25953      0.2262544      0.1935117
      2224.0000         0.8855       1949.233        44.5569       46.39216          0.513         -39.52      -31.40478      0.2849396      0.2398806
      2224.5000         0.9013       1782.225        46.5842       49.33083         0.5611         -40.08      -31.95003      0.3474645      0.2262494
      2225.0000         0.9431       1782.234        46.1881       48.75666         0.5611         -41.48      -33.33527       0.335248      0.1916184
      2225.5000         0.9749       1788.218         44.901       46.89095         0.5592         -42.84      -34.68052      0.2955521      0.1579871
