#------------------------------------------------------------------------------
# Created by    : vladimir.rabinovich
# Created on    : 09/19/2023 17:20:26
#------------------------------------------------------------------------------
~Version Information Section
VERS.           2.0     :   CWLS log ASCII Standard - VERSION 2.0
WRAP.           NO      :   One line per depth step
~Well Information Section
#MNEM       .UNIT                                         VALUE :DESCRIPTION
#------------------------------------------------------------------------------
STRT        .FT                                             500 :START DEPTH
STOP        .FT                                            8974 :STOP DEPTH
STEP        .FT                                             0.5 :STEP      
NULL        .                                           -999.25 :NULL      
COMP        .                                    G M A OFFSHORE :COMPANY   
WELL        .                                     ST TR 00112-S :WELL      
FLD         .                                           WILDCAT :FIELD     
LOC         .                                                   :LOCATION  
CNTY        .                           HIGH ISLAND SMALL BLOCK :LOCATION  
STAT        .                                             TEXAS :STATE     
CTRY        .                                     UNITED STATES :COUNTRY   
SRVC        .                                                   :SERVICE COMPANY
DATE        .                             9/13/2023 11:19:17 AM :LOG DATE  
API         .                                    42606300040000 :API NUMBER
UWI         .                                    42606300040000 :UNIQUE WELL ID
XCOORD      .                                   1218436.6654802 :SURFACE X 
YCOORD      .                                  10720928.6649768 :SURFACE Y 
LAT         .                                        29.5343489 :LATITUDE  
LON         .                                        -94.327329 :LONGITUDE 
ELEV        .FT                                              63 :ELEVATION VALUE
ELEV_TYPE   .                                                KB :ELEVATION REFERENCE TYPE
~Curve Information Section
#MNEM       .UNIT                                      API CODE :CURVE DESCRIPTION
#------------------------------------------------------------------------------
DEPT        .FT                                                 :DEPTH     
ASN         .OHMM                                               :          
CILD        .MMHO                                               :          
GR          .GAPI                                               :          
GR_NORM     .GAPI                                               :GammaRay Normalized
ILD         .OHMM                                               :          
SP          .MV                                                 :          
SP_NORM     .MV                                                 :SP Normalized
VSH_GR      .V/V                                                :Volume of Shale from GR
VSH_SP      .V/V                                                :Volume of Shale from SP
~A        DEPTH            ASN           CILD             GR        GR_NORM            ILD             SP        SP_NORM         VSH_GR         VSH_SP
# ...
      8953.5000         0.5102       2735.539        -999.25        -999.25         0.4086       -38.8493        4.62896        -999.25              1
      8954.0000         0.5089       2711.828        -999.25        -999.25         0.4054       -38.7068       4.771461        -999.25              1
      8954.5000         0.5077       2686.879        -999.25        -999.25         0.4026       -38.5643        4.91396        -999.25              1
      8955.0000         0.5064        2661.93        -999.25        -999.25         0.3999       -38.4216        5.05666        -999.25              1
      8955.5000         0.5051        2636.98        -999.25        -999.25         0.3971       -38.3044       5.173859        -999.25              1
      8956.0000         0.5038       2596.109        -999.25        -999.25         0.3943       -38.2755       5.202759        -999.25              1
      8956.5000         0.5026       2554.195        -999.25        -999.25         0.3916       -38.2465       5.231762        -999.25              1
      8957.0000         0.5031        2508.41        -999.25        -999.25         0.3902       -38.2176       5.260658        -999.25              1
      8957.5000         0.5089       2400.824        -999.25        -999.25         0.3981       -38.5902       4.888062        -999.25              1
      8958.0000         0.5148       2351.617        -999.25        -999.25          0.406       -39.2836        4.19466        -999.25              1
      8958.5000         0.5206       2295.074        -999.25        -999.25         0.4139       -39.9752       3.503059        -999.25              1
      8959.0000         0.5265       2182.277        -999.25        -999.25         0.4218       -40.6657       2.812561        -999.25              1
      8959.5000         0.5323       2133.867        -999.25        -999.25         0.4297       -41.3572       2.121059        -999.25              1
      8960.0000         0.5386       2098.574        -999.25        -999.25         0.4376       -42.0488       1.429459        -999.25              1
      8960.5000         0.5458       2079.379        -999.25        -999.25         0.4455       -42.6095      0.8687592        -999.25              1
      8961.0000          0.553       2059.734        -999.25        -999.25         0.4535       -43.1235      0.3547592        -999.25              1
      8961.5000         0.5492       2039.125        -999.25        -999.25         0.4599       -43.6384      -0.160141        -999.25      0.9978648
      8962.0000         0.5451       2019.607        -999.25        -999.25         0.4627       -44.1523     -0.6740417        -999.25      0.9910128
      8962.5000         0.5409       2006.141        -999.25        -999.25         0.4654       -44.6672      -1.188938        -999.25      0.9841475
      8963.0000         0.5368       1992.711        -999.25        -999.25         0.4682       -44.9679      -1.489639        -999.25      0.9801381
      8963.5000         0.5326       1990.367        -999.25        -999.25          0.471       -45.1756      -1.697338        -999.25      0.9773688
      8964.0000         0.5285       2081.188        -999.25        -999.25         0.4737       -45.3335       -1.85524        -999.25      0.9752635
      8964.5000         0.5247       2167.199        -999.25        -999.25         0.4765       -44.6971      -1.218842        -999.25      0.9837488
      8965.0000         0.5218       2225.133        -999.25        -999.25         0.4669       -44.0607     -0.5824394        -999.25      0.9922342
      8965.5000         0.5189        2277.91        -999.25        -999.25         0.4569       -43.4244     0.05385971        -999.25              1
      8966.0000          0.516       2341.898        -999.25        -999.25         0.4469        -42.788      0.6902618        -999.25              1
      8966.5000         0.5209        2396.16        -999.25        -999.25         0.4369       -42.1516        1.32666        -999.25              1
      8967.0000         0.5286       2421.906        -999.25        -999.25         0.4269       -41.5413       1.936958        -999.25              1
      8967.5000         0.5364       2443.359        -999.25        -999.25         0.4169       -41.0068       2.471458        -999.25              1
      8968.0000         0.5441       2450.465        -999.25        -999.25         0.4069       -40.4723       3.005959        -999.25              1
      8968.5000         0.5518        2457.57        -999.25        -999.25         0.3969       -40.3648       3.113461        -999.25              1
      8969.0000         0.5622       2461.289        -999.25        -999.25         0.3869       -40.9629       2.515362        -999.25              1
      8969.5000         0.5732       2460.445        -999.25        -999.25         0.3783       -41.5479       1.930359        -999.25              1
      8970.0000         0.5842       2459.605        -999.25        -999.25         0.3698       -42.0646       1.413658        -999.25              1
      8970.5000         0.5952       2458.762        -999.25        -999.25         0.3613       -42.5805      0.8977585        -999.25              1
      8971.0000         0.6062       2457.922        -999.25        -999.25         0.3527       -43.0973      0.3809586        -999.25              1
      8971.5000         0.6171       2457.078        -999.25        -999.25         0.3442       -43.6141     -0.1358414        -999.25      0.9981888
      8972.0000         0.6252       2456.234        -999.25        -999.25         0.3357       -44.0925     -0.6142387        -999.25      0.9918101
      8972.5000         0.6334       2455.289        -999.25        -999.25         0.3272       -44.5569       -1.07864        -999.25      0.9856181
      8973.0000         0.6415       2453.004        -999.25        -999.25         0.3251       -45.0214       -1.54314        -999.25      0.9794248
      8973.5000         0.6497       2450.723        -999.25        -999.25          0.327       -45.5148      -2.036541        -999.25      0.9728461
      8974.0000         0.6579       2448.438        -999.25        -999.25          0.329       -46.2643      -2.786041        -999.25      0.9628528
