#------------------------------------------------------------------------------
# Created by    : vladimir.rabinovich
# Created on    : 09/19/2023 17:20:26
#------------------------------------------------------------------------------
~Version Information Section
VERS.           2.0     :   CWLS log ASCII Standard - VERSION 2.0
WRAP.           NO      :   One line per depth step
~Well Information Section
#MNEM       .UNIT                                         VALUE :DESCRIPTION
#------------------------------------------------------------------------------
STRT        .FT                                             344 :START DEPTH
STOP        .FT                                           10034 :STOP DEPTH
STEP        .FT                                             0.5 :STEP      
NULL        .                                           -999.25 :NULL      
COMP        .                                        TEXACO USA :COMPANY   
WELL        .                                     ST TR 00136-S :WELL      
FLD         .                                           WILDCAT :FIELD     
LOC         .                                                   :LOCATION  
CNTY        .                           HIGH ISLAND SMALL BLOCK :LOCATION  
STAT        .                                             TEXAS :STATE     
CTRY        .                                     UNITED STATES :COUNTRY   
SRVC        .                                                   :SERVICE COMPANY
DATE        .                             9/13/2023 11:19:17 AM :LOG DATE  
API         .                                    42606000310000 :API NUMBER
UWI         .                                    42606000310000 :UNIQUE WELL ID
XCOORD      .                                  1183554.44061246 :SURFACE X 
YCOORD      .                                  10706170.1937531 :SURFACE Y 
LAT         .                                          29.49262 :LATITUDE  
LON         .                                       -94.4364494 :LONGITUDE 
ELEV        .FT                                              52 :ELEVATION VALUE
ELEV_TYPE   .                                                KB :ELEVATION REFERENCE TYPE
~Curve Information Section
#MNEM       .UNIT                                      API CODE :CURVE DESCRIPTION
#------------------------------------------------------------------------------
DEPT        .FT                                                 :DEPTH     
ASN         .OHMM                                               :          
CILD        .MMHO                                               :          
LAT         .OHMM                                               :          
LN          .OHMM                                               :          
SP          .MV                                                 :          
SP_NORM     .MV                                                 :SP Normalized
VSH_SP      .V/V                                                :Volume of Shale from SP
~A        DEPTH            ASN           CILD            LAT             LN             SP        SP_NORM         VSH_SP
# ...
       980.5000         3.3037        -999.25         3.0466         2.5022       -57.5493      -9.723213      0.4184524
       981.0000         3.3738        -999.25          3.045         2.5053       -58.0497      -10.22361      0.3850924
       981.5000         3.3611        -999.25         3.0433         2.5085       -58.5018      -10.67571      0.3549525
       982.0000         3.2909        -999.25         3.0416         2.5118       -58.4996      -10.67351      0.3550992
       982.5000         3.2207        -999.25         3.0444          2.515       -58.4974      -10.67131       0.355246
       983.0000         3.1505        -999.25         3.0477         2.5182       -58.4908      -10.66471      0.3556859
       983.5000         3.0803        -999.25         3.0509         2.5215       -58.3192      -10.49311       0.367126
       984.0000         3.0019        -999.25         3.0542         2.5247       -58.1475      -10.32141      0.3785726
       984.5000         2.9229        -999.25         3.0575          2.528        -57.976      -10.14991      0.3900057
       985.0000         2.8438        -999.25         3.0607         2.5312       -57.8043       -9.97821      0.4014526
       985.5000         2.8562        -999.25         3.0631         2.5344       -57.7239      -9.897812      0.4068125
       986.0000           2.88        -999.25         3.0643         2.5378       -57.6773      -9.851212      0.4099192
       986.5000         2.9117        -999.25         3.0654         2.5428       -57.6307      -9.804611      0.4130259
       987.0000         2.9434        -999.25         3.0666         2.5477       -57.4899      -9.663811      0.4224126
       987.5000          2.975        -999.25         3.0677         2.5527       -57.2365      -9.410412      0.4393059
       988.0000         3.0067        -999.25         3.0689         2.5576        -56.983      -9.156914      0.4562058
       988.5000         2.9989        -999.25         3.0685         2.5626       -56.7296      -8.903511      0.4730993
       989.0000         2.9881        -999.25         3.0663         2.5672       -56.4433       -8.61721       0.492186
       989.5000         2.9339        -999.25         3.0641          2.571       -56.1563      -8.330212      0.5113192
       990.0000         2.8742        -999.25         3.0618         2.5761       -55.8027      -7.976612      0.5348925
       990.5000         2.8144        -999.25         3.0499         2.5824       -55.4444      -7.618313      0.5587791
       991.0000         2.9903        -999.25          3.038         2.5907       -55.1597      -7.333611      0.5777593
       991.5000         3.1564        -999.25         3.0261         2.6043       -55.8122      -7.986111      0.5342593
       992.0000          3.299        -999.25         3.0255          2.618       -56.4646      -8.638512      0.4907659
       992.5000         3.3911        -999.25         3.0255         2.6316       -57.1926      -9.366512      0.4422325
       993.0000         3.4819        -999.25         3.0254         2.6455       -58.0321      -10.20601      0.3862658
       993.5000         3.5381        -999.25         3.0242         2.6596       -58.8716      -11.04551      0.3302991
       994.0000         3.5943        -999.25         3.0219         2.6736       -59.6567      -11.83061      0.2779592
       994.5000         3.5998        -999.25         3.0196         2.6858       -60.0369      -12.21081      0.2526126
       995.0000         3.6038        -999.25         3.0169         2.6962        -60.417      -12.59091      0.2272725
       995.5000         3.6079        -999.25         3.0129         2.7065       -60.7313      -12.90521      0.2063192
       996.0000         3.6087        -999.25         3.0089         2.7168        -60.966      -13.13991      0.1906726
       996.5000          3.606        -999.25         3.0049         2.7231       -61.2006      -13.37451      0.1750326
       997.0000         3.6034        -999.25         3.0087         2.7294       -61.4225      -13.59641      0.1602392
       997.5000         3.5755        -999.25         3.0185         2.7237       -61.6233      -13.79721      0.1468526
       998.0000         3.4741        -999.25         3.0282         2.7141       -61.8241      -13.99801      0.1334658
       998.5000         3.3576        -999.25          3.038         2.7044       -61.7707      -13.94461       0.137026
       999.0000         3.2737        -999.25         3.0597         2.6947       -61.4733      -13.64721      0.1568525
       999.5000         3.1899        -999.25         3.0828          2.685        -61.176      -13.34991      0.1766726
      1000.0000          3.106        -999.25         3.1059         2.6736       -60.8785      -13.05241      0.1965057
      1000.5000         3.0239        -999.25         3.1303         2.6599       -60.1437      -12.31761      0.2454925
      1001.0000         2.9454        -999.25         3.1628         2.6461       -59.0906      -11.26451      0.3156992
      1001.5000         2.8776        -999.25         3.1954         2.6324       -58.0375      -10.21141       0.385906
      1002.0000         2.8339        -999.25         3.1169         2.6215       -56.9845      -9.158413      0.4561058
      1002.5000         2.7902        -999.25         3.0312          2.617       -55.4847      -7.658611      0.5560926
      1003.0000          2.748        -999.25         2.9455         2.6126       -53.8944      -6.068314      0.6621124
      1003.5000         2.7067        -999.25         2.8683         2.6081       -52.3041      -4.478012      0.7681325
      1004.0000         2.6931        -999.25         2.7998         2.6037       -51.0713      -3.245213      0.8503191
      1004.5000         2.7651        -999.25         2.7421         2.5992       -49.8808       -2.05471       0.929686
      1005.0000         2.8371        -999.25         2.7206         2.5948       -49.1322       -1.30611      0.9795926
      1005.5000         2.9206        -999.25          2.817         2.5903       -48.4885     -0.6624107              1
      1006.0000         3.0212        -999.25         2.9134         2.5859       -48.4052      -0.579113              1
      1006.5000         3.0716        -999.25         3.0347         2.5786       -48.8171     -0.9910126              1
      1007.0000         3.0381        -999.25           3.25         2.5666       -49.3332      -1.507111      0.9661926
      1007.5000         3.0046        -999.25         3.3953         2.5547       -50.9948      -3.168713      0.8554192
      1008.0000          2.971        -999.25          3.486         2.5428       -52.6561      -4.830013      0.7446658
      1008.5000         2.9574        -999.25         3.4925         2.5309       -54.3177      -6.491611      0.6338926
      1009.0000         2.9619        -999.25         3.4674         2.5189       -55.2405      -7.414413      0.5723724
      1009.5000         2.9761        -999.25         3.4422         2.5097       -55.8083      -7.982212      0.5345192
      1010.0000         2.9944        -999.25         3.4159         2.5029        -56.376      -8.549911      0.4966726
      1010.5000         3.0127        -999.25         3.3866         2.4962       -56.4117      -8.585613      0.4942924
      1011.0000         3.0135        -999.25         3.3603         2.4895       -56.1246      -8.298512      0.5134326
      1011.5000          2.993        -999.25         3.3714         2.4827       -55.8375      -8.011414      0.5325724
      1012.0000         2.9614        -999.25         3.3825         2.4775       -55.5504      -7.724312      0.5517126
      1012.5000         2.9298        -999.25         3.3866         2.4742       -55.2027      -7.376614      0.5748924
      1013.0000         2.8982        -999.25         3.3818         2.4708       -54.7951      -6.969013      0.6020658
      1013.5000         2.8667        -999.25          3.377         2.4675       -54.3876      -6.561512      0.6292325
