#------------------------------------------------------------------------------
# Created by    : vladimir.rabinovich
# Created on    : 09/19/2023 17:21:28
#------------------------------------------------------------------------------
~Version Information Section
VERS.           2.0     :   CWLS log ASCII Standard - VERSION 2.0
WRAP.           NO      :   One line per depth step
~Well Information Section
#MNEM       .UNIT                                         VALUE :DESCRIPTION
#------------------------------------------------------------------------------
STRT        .FT                                            2437 :START DEPTH
STOP        .FT                                            8654 :STOP DEPTH
STEP        .FT                                             0.5 :STEP      
NULL        .                                           -999.25 :NULL      
COMP        .                                      PELTO OIL CO :COMPANY   
WELL        .                                     ST TR 00163-S :WELL      
FLD         .                                           WILDCAT :FIELD     
LOC         .                                                   :LOCATION  
CNTY        .                             GALVESTON SMALL BLOCK :LOCATION  
STAT        .                                             TEXAS :STATE     
CTRY        .                                     UNITED STATES :COUNTRY   
SRVC        .                                                   :SERVICE COMPANY
DATE        .                             9/13/2023 11:19:17 AM :LOG DATE  
API         .                                    42605301550000 :API NUMBER
UWI         .                                    42605301550000 :UNIQUE WELL ID
XCOORD      .                                  1154226.19631992 :SURFACE X 
YCOORD      .                                  10687289.1653299 :SURFACE Y 
LAT         .                                        29.4396686 :LATITUDE  
LON         .                                       -94.5278571 :LONGITUDE 
ELEV        .FT                                             111 :ELEVATION VALUE
ELEV_TYPE   .                                                KB :ELEVATION REFERENCE TYPE
~Curve Information Section
#MNEM       .UNIT                                      API CODE :CURVE DESCRIPTION
#------------------------------------------------------------------------------
DEPT        .FT                                                 :DEPTH     
CALI        .IN                                                 :          
GR          .GAPI                                               :          
GR_NORM     .GAPI                                               :GammaRay Normalized
ILD         .OHMM                                               :          
ILM         .OHMM                                               :          
NPSS        .%                                                  :Neutron Porosity Sandstone
RHOB        .G/CM3                                              :          
SFL         .OHMM                                               :          
SP          .MV                                                 :          
SP_NORM     .GAPI                                               :SP Normalized
TENS        .LB                                                 :          
VSH_GR      .V/V                                                :Volume of Shale from GR
VSH_SP      .V/V                                                :Volume of Shale from SP
~A        DEPTH           CALI             GR        GR_NORM            ILD            ILM           NPSS           RHOB            SFL             SP        SP_NORM           TENS         VSH_GR         VSH_SP
# ...
      8612.0000        10.8479       100.7971       78.56246         0.6171         0.6557          44.46          2.145         0.7927        86.4991      -14.78187            -10      0.9694141      0.7888304
      8612.5000        10.7772       100.8959       78.66126         0.6113         0.6557          44.34         2.1431         0.7854        86.7862      -14.47384            -10      0.9715163      0.7932309
      8613.0000        10.7164             90       67.76537         0.6056         0.6557          44.46          2.155         0.7927        86.7763       -14.5816            -10      0.7396886      0.7916914
      8613.5000        10.6957        -999.25        -999.25         0.5972         0.6496          44.28          2.178          0.822        86.4694      -15.10517            -10        -999.25      0.7842119
      8614.0000        10.7252        -999.25        -999.25         0.5944         0.6466          43.74          2.202         0.8563        86.3605      -15.35153            -10        -999.25      0.7806925
      8614.5000        10.7547        -999.25        -999.25         0.6228         0.6712              0           2.22         0.8719        86.3506      -15.45928            -10        -999.25      0.7791532
      8615.0000        10.7942        -999.25        -999.25         0.6588         0.6967              0          2.218         0.8371        86.3407      -15.56705            -10        -999.25      0.7776135
      8615.5000        10.8339        -999.25        -999.25          0.713         0.7229        -999.25           2.21         0.8109        85.9348      -16.22921            -10        -999.25      0.7681541
      8616.0000        10.9137        -999.25        -999.25         0.7398         0.7501        -999.25            2.2         0.8258        85.7268      -16.61432            -10        -999.25      0.7626526
      8616.5000        10.9635        -999.25        -999.25         0.7466         0.7711        -999.25          2.189         0.8719         85.915      -16.44473            -10        -999.25      0.7650752
      8617.0000        10.8925        -999.25        -999.25          0.764         0.7854        -999.25          2.183         1.0713        86.5982      -15.58217            -10        -999.25      0.7773976
      8617.5000        10.8315        -999.25        -999.25         0.7746         0.7854        -999.25           2.18         1.1961        86.6874      -15.55118            -10        -999.25      0.7778403
      8618.0000        10.8108        -999.25        -999.25         0.7675         0.7854        -999.25          2.182         1.1961        86.3804      -16.07488            -10        -999.25      0.7703589
      8618.5000        10.8203        -999.25        -999.25         0.7432         0.7854        -999.25          2.186          1.047        86.1725      -16.45985            -10        -999.25      0.7648593
      8619.0000        10.8197        -999.25        -999.25         0.7065         0.7535        -999.25          2.192         0.9251        86.2616      -16.42901            -10        -999.25      0.7652998
      8619.5000         10.809        -999.25        -999.25         0.6807         0.7229        -999.25          2.194         0.8838        86.6478      -15.98224            -10        -999.25      0.7716823
      8620.0000        10.7983        -999.25        -999.25         0.6557         0.6935        -999.25          2.198         0.8838        87.1331      -15.39671            -10        -999.25       0.780047
      8620.5000         10.798        -999.25        -999.25         0.6316         0.6618        -999.25            2.2         0.8601        87.6258      -14.80084            -10        -999.25      0.7885594
      8621.0000        10.7981        -999.25        -999.25         0.6085         0.6346        -999.25          2.203         0.8333        87.8277      -14.61208            -10        -999.25       0.791256
      8621.5000        10.7882        -999.25        -999.25         0.5861         0.6258        -999.25          2.208         0.8146        87.9307      -14.56179            -10        -999.25      0.7919745
      8622.0000        10.7883        -999.25        -999.25          0.578         0.6228        -999.25           2.21         0.8073        87.8355      -14.78896            -10        -999.25      0.7887291
      8622.5000        10.7884        -999.25        -999.25         0.5726         0.6113        -999.25          2.208         0.7927        87.8393      -14.87754            -10        -999.25      0.7874637
      8623.0000        10.7885        -999.25        -999.25         0.5726         0.6113        -999.25          2.206         0.7963         88.141      -14.54908            -10        -999.25       0.792156
      8623.5000        10.7886        -999.25        -999.25         0.5726         0.6113        -999.25          2.204         0.8109        88.6417      -13.94199            -10        -999.25      0.8008287
      8624.0000        10.7786        -999.25        -999.25          0.578         0.6113        -999.25          2.203          0.822        89.1429      -13.33422            -10        -999.25      0.8095111
      8624.5000        10.7787        -999.25        -999.25         0.5861         0.6258        -999.25          2.202         0.8146        89.3463      -13.14336            -10        -999.25      0.8122377
      8625.0000        10.7587        -999.25        -999.25         0.5944         0.6346        -999.25          2.199         0.8073        89.3509      -13.23083            -10        -999.25      0.8109881
      8625.5000        10.7488        -999.25        -999.25         0.6056         0.6496        -999.25          2.197         0.8073         89.157      -13.59619            -10        -999.25      0.8057687
      8626.0000        10.7389        -999.25        -999.25         0.6228         0.6743        -999.25          2.196         0.8146        89.1615      -13.68379            -10        -999.25      0.8045172
      8626.5000         10.729        -999.25        -999.25         0.6376         0.6903        -999.25          2.194         0.8371        89.1661      -13.77125            -10        -999.25      0.8032678
      8627.0000        10.7191        -999.25        -999.25         0.6526          0.713        -999.25          2.194          0.864        88.7719      -14.41704            -10        -999.25      0.7940423
      8627.5000        10.7092        -999.25        -999.25         0.6681         0.7196        -999.25          2.194         0.8759        88.3773      -15.06338            -10        -999.25      0.7848088
      8628.0000        10.6993        -999.25        -999.25         0.6807         0.7196        -999.25          2.192         0.8879        88.1819      -15.43084            -10        -999.25      0.7795595
      8628.5000        10.6995        -999.25        -999.25         0.6935         0.7196        -999.25          2.188         0.8879        88.0862      -15.65873            -10        -999.25      0.7763039
      8629.0000        10.6896        -999.25        -999.25         0.6935         0.7196        -999.25          2.184         0.9041        88.1901      -15.60716            -10        -999.25      0.7770405
      8629.5000        10.6698        -999.25        -999.25            0.7         0.7196        -999.25          2.179            0.9        88.5939      -15.13575            -10        -999.25       0.783775
      8630.0000        10.6599        -999.25        -999.25            0.7         0.7196        -999.25         2.0837         0.8879         89.598      -13.82391            -10        -999.25      0.8025156
      8630.5000        10.6504        -999.25        -999.25         0.6967         0.7196        -999.25        -999.25         0.8759        90.7292      -12.33414            -10        -999.25      0.8237981
