#------------------------------------------------------------------------------
# Created by    : vladimir.rabinovich
# Created on    : 09/19/2023 17:20:27
#------------------------------------------------------------------------------
~Version Information Section
VERS.           2.0     :   CWLS log ASCII Standard - VERSION 2.0
WRAP.           NO      :   One line per depth step
~Well Information Section
#MNEM       .UNIT                                         VALUE :DESCRIPTION
#------------------------------------------------------------------------------
STRT        .FT                                             304 :START DEPTH
STOP        .FT                                            9519 :STOP DEPTH
STEP        .FT                                             0.5 :STEP      
NULL        .                                           -999.25 :NULL      
COMP        .                                        TEXACO INC :COMPANY   
WELL        .                                     ST TR 00216-S :WELL      
FLD         .                                           WILDCAT :FIELD     
LOC         .                                                   :LOCATION  
CNTY        .                             GALVESTON SMALL BLOCK :LOCATION  
STAT        .                                             TEXAS :STATE     
CTRY        .                                     UNITED STATES :COUNTRY   
SRVC        .                                                   :SERVICE COMPANY
DATE        .                             9/13/2023 11:19:17 AM :LOG DATE  
API         .                                    42605000160000 :API NUMBER
UWI         .                                    42605000160000 :UNIQUE WELL ID
XCOORD      .                                  1087579.10798688 :SURFACE X 
YCOORD      .                                  10638823.7542325 :SURFACE Y 
LAT         .                                         29.303831 :LATITUDE  
LON         .                                       -94.7349593 :LONGITUDE 
ELEV        .FT                                              15 :ELEVATION VALUE
ELEV_TYPE   .                                                KB :ELEVATION REFERENCE TYPE
~Curve Information Section
#MNEM       .UNIT                                      API CODE :CURVE DESCRIPTION
#------------------------------------------------------------------------------
DEPT        .FT                                                 :DEPTH     
ASN         .OHMM                                               :          
LAT         .OHMM                                               :          
LN          .OHMM                                               :          
SP          .MV                                                 :          
SP_NORM     .MV                                                 :SP Normalized
VSH_SP      .V/V                                                :Volume of Shale from SP
~A        DEPTH            ASN            LAT             LN             SP        SP_NORM         VSH_SP
# ...
      1520.0000         1.0239         2.6306         1.6488       -51.5897     -0.2235794              1
      1520.5000         1.0219         2.4576         1.6651       -51.3426     0.02351761              1
      1521.0000         1.0128         2.2847         1.6814       -51.1475      0.2186203              1
      1521.5000         1.0028         2.1117         1.6976       -51.2772     0.08892059              1
      1522.0000         0.9929         1.9387         1.7139       -51.4069    -0.04077911              1
      1522.5000         0.9829         1.8823         1.7023       -51.5366     -0.1704788              1
      1523.0000         0.9729         1.8284         1.6827       -51.6662     -0.3000793              1
      1523.5000         0.9629         1.7745          1.663       -51.7959     -0.4297791              1
      1524.0000         0.9529          1.745         1.6434        -51.928      -0.561882              1
      1524.5000          0.943         1.7414         1.6237       -52.1702      -0.804081              1
      1525.0000         0.9332         1.7378         1.6041       -52.4124       -1.04628      0.9948578
      1525.5000         0.9242         1.7342         1.5861       -52.6546      -1.288479      0.9679468
      1526.0000         0.9152         1.7306         1.5735       -52.8968      -1.530682      0.9410354
      1526.5000         0.9062          1.727         1.5609        -53.139      -1.772881      0.9141244
      1527.0000         0.8972          1.723         1.5483         -53.33      -1.963882       0.892902
      1527.5000         0.8882         1.7173         1.5357       -53.1464      -1.780281      0.9133021
      1528.0000         0.8793         1.7116         1.5231       -52.9626      -1.596481      0.9337243
      1528.5000         0.8692         1.7059         1.5104        -52.779       -1.41288      0.9541245
      1529.0000         0.8531         1.7002         1.4978       -52.5953      -1.229179      0.9745356
      1529.5000         0.8462         1.6937         1.4852        -52.373      -1.006882      0.9992354
      1530.0000         0.8532          1.662         1.4728       -52.1483     -0.7821808              1
      1530.5000         0.8601         1.6303         1.4619       -51.9235     -0.5573807              1
      1531.0000         0.8654         1.5986         1.4536       -51.6989     -0.3327789              1
      1531.5000         0.8683         1.5669         1.4626       -51.4741    -0.09823608              1
      1532.0000         0.8711         1.5353         1.4716       -51.6395     -0.2461929              1
      1532.5000         0.8739         1.5407         1.4806       -51.8215     -0.4107513              1
      1533.0000         0.8767         1.5484         1.4896       -52.0034     -0.5752068              1
      1533.5000         0.8795          1.556         1.4986       -52.1854     -0.7397614              1
      1534.0000         0.8861         1.5636         1.5076       -52.3674     -0.9043236              1
      1534.5000         0.8927         1.5833         1.5166        -52.608       -1.12748      0.9858356
      1535.0000         0.8992         1.6117         1.5261       -52.9227      -1.424732      0.9528075
      1535.5000         0.9058         1.6401         1.5362       -53.2374      -1.721992      0.9197786
      1536.0000         0.9124         1.6685         1.5462       -53.5885      -2.055649      0.8827057
      1536.5000          0.919         1.6969         1.5562        -53.976      -2.425705      0.8415883
      1537.0000         0.9256         1.7253         1.5663       -54.3636      -2.795864      0.8004596
      1537.5000         0.9353         1.7068         1.5763       -54.8003      -3.215118      0.7538757
      1538.0000         0.9506         1.6753         1.5863       -55.2759      -3.673275      0.7029694
      1538.5000         0.9659         1.6437         1.5964       -55.7427      -4.122631       0.653041
      1539.0000         0.9811         1.6122         1.6099       -55.7006      -4.063087      0.6596569
      1539.5000         1.0106         1.5807         1.6293       -55.6585      -4.003544      0.6662729
      1540.0000         1.0536         1.5927         1.6487       -55.6164      -3.944004      0.6728885
      1540.5000         1.0975         1.6098         1.6681       -55.5555      -3.865658      0.6815936
      1541.0000         1.1451         1.6269         1.6875       -55.4911      -3.783817      0.6906869
      1541.5000         1.1927          1.644         1.7046       -55.4267      -3.701973      0.6997808
      1542.0000         1.2587         1.6945         1.7177       -55.7145      -3.972328      0.6697413
      1542.5000         1.3153         1.7482         1.7309       -56.1751      -4.415485      0.6205016
      1543.0000         1.3473         1.8019          1.744       -56.6358      -4.858742      0.5712509
      1543.5000         1.3777         1.8556          1.763       -56.8356        -5.0411      0.5509889
      1544.0000         1.3783         1.9093         1.8088       -56.9426      -5.130657      0.5410381
      1544.5000         1.3788         1.9475         1.8546       -57.0496      -5.220211      0.5310876
      1545.0000         1.3793         1.9421         1.9004       -57.1565      -5.309669      0.5211478
      1545.5000         1.3798         1.9368         1.9462       -57.2635      -5.399227       0.511197
      1546.0000         1.3803         1.9315         1.9916       -57.4094      -5.527683      0.4969241
      1546.5000         1.3813         1.9246         2.0341       -57.5615      -5.662338      0.4819624
      1547.0000         1.3822          1.906         2.0767       -57.9399      -6.023296       0.441856
      1547.5000         1.3832         1.8875         2.1192       -58.3183      -6.384251      0.4017499
      1548.0000         1.3841         1.8689         2.1618       -58.6967      -6.745209      0.3616435
      1548.5000         1.3851         1.8503         2.2044       -59.0752      -7.106266       0.321526
      1549.0000          1.386         1.8318         2.2469       -59.3076       -7.32122      0.2976422
      1549.5000         1.3883         1.8307          2.254       -59.2336      -7.229778      0.3078024
      1550.0000         1.4033          1.854         2.2573       -59.1597      -7.138435      0.3179516
      1550.5000         1.4182         1.8773         2.2607       -59.0858      -7.047092      0.3281008
      1551.0000         1.4331         1.9005          2.264       -59.0118      -6.955647      0.3382615
      1551.5000          1.448         1.9238         2.2673       -58.9379      -6.864307      0.3484103
      1552.0000         1.4631         1.9471         2.2707        -58.775      -6.683964      0.3684485
      1552.5000         1.4861         1.9885          2.274        -58.585      -6.476517      0.3914981
      1553.0000          1.509         2.0336         2.2721        -58.395      -6.269077       0.414547
      1553.5000         1.5319         2.0787         2.2372        -58.205      -6.061634      0.4375962
      1554.0000         1.5406         2.1239         2.2023        -58.015      -5.854187      0.4606459
      1554.5000          1.537          2.169         2.1674       -58.0155      -5.837246      0.4625282
      1555.0000         1.5175         2.2141         2.1325       -58.0179      -5.822201      0.4641999
      1555.5000         1.4973         2.2592         2.0975       -58.0204      -5.807259      0.4658602
      1556.0000         1.4771         2.3043         2.0626       -58.0132      -5.782616      0.4685982
      1556.5000         1.4568         2.3353         2.0387       -57.9728      -5.724773      0.4750252
      1557.0000         1.4313         2.3564         2.0506       -57.9325      -5.667027      0.4814415
      1557.5000         1.4004         2.3775         2.0626       -57.8922      -5.609287       0.487857
