#------------------------------------------------------------------------------
# Created by    : vladimir.rabinovich
# Created on    : 09/19/2023 17:19:42
#------------------------------------------------------------------------------
~Version Information Section
VERS.           2.0     :   CWLS log ASCII Standard - VERSION 2.0
WRAP.           NO      :   One line per depth step
~Well Information Section
#MNEM       .UNIT                                         VALUE :DESCRIPTION
#------------------------------------------------------------------------------
STRT        .FT                                             583 :START DEPTH
STOP        .FT                                            6498 :STOP DEPTH
STEP        .FT                                             0.5 :STEP      
NULL        .                                           -999.25 :NULL      
COMP        .                                        EXXON CORP :COMPANY   
WELL        .                                     ST TR 00692-S :WELL      
FLD         .                                           WILDCAT :FIELD     
LOC         .                                                   :LOCATION  
CNTY        .                      MATAGORDA ISLAND SMALL BLOCK :LOCATION  
STAT        .                                             TEXAS :STATE     
CTRY        .                                     UNITED STATES :COUNTRY   
SRVC        .                                                   :SERVICE COMPANY
DATE        .                             9/13/2023 11:19:17 AM :LOG DATE  
API         .                                    42603301950000 :API NUMBER
UWI         .                                    42603301950000 :UNIQUE WELL ID
XCOORD      .                                  518375.599551337 :SURFACE X 
YCOORD      .                                  10266878.6313095 :SURFACE Y 
LAT         .                                        28.2472954 :LATITUDE  
LON         .                                       -96.4850657 :LONGITUDE 
ELEV        .FT                                              89 :ELEVATION VALUE
ELEV_TYPE   .                                                KB :ELEVATION REFERENCE TYPE
~Curve Information Section
#MNEM       .UNIT                                      API CODE :CURVE DESCRIPTION
#------------------------------------------------------------------------------
DEPT        .FT                                                 :DEPTH     
ASFL        .OHMM                                               :          
CILD        .MMHO                                               :          
GR          .GAPI                                               :          
GR_NORM     .GAPI                                               :GammaRay Normalized
ILD         .OHMM                                               :          
SP          .MV                                                 :          
SP_NORM     .MV                                                 :SP Normalized
VSH_GR      .V/V                                                :Volume of Shale from GR
VSH_SP      .V/V                                                :Volume of Shale from SP
~A        DEPTH           ASFL           CILD             GR        GR_NORM            ILD             SP        SP_NORM         VSH_GR         VSH_SP
# ...
      5300.0000         0.8282       2609.291        34.5069       36.64097         0.4072         -87.28      -69.30255     0.07746749     0.01010795
      5300.5000         0.8238       2814.878        36.0043       39.24774         0.3879          -86.4       -68.4243      0.1329307     0.02283622
      5301.0000         0.8193        3078.29        36.7078       40.46902         0.3491         -88.08      -70.10606      0.1589153              0
      5301.5000         0.8149       3341.702        36.5242       40.14209         0.3376         -89.76      -71.78781      0.1519594              0
      5302.0000         0.8104       3455.642        34.7203       36.98739         0.3178         -91.44      -73.46957     0.08483814              0
      5302.5000         0.8044       3515.185        32.9164        33.8327          0.288         -93.12      -75.15132     0.01771691              0
      5303.0000         0.7945       3574.728        31.5865       31.50523          0.288         -94.72      -76.75307              0              0
      5303.5000         0.7845       3604.479        31.5859       31.49768          0.288         -94.08      -76.11482              0              0
      5304.0000         0.7726        3669.96        31.9806       32.18002         0.3079         -90.56      -72.59657              0              0
      5304.5000         0.7591       3652.063        32.6709       33.37823         0.3121         -87.12      -69.15833     0.00804755     0.01219807
      5305.0000         0.7456       3541.036        34.2515       36.13023         0.3163         -83.68      -65.72009     0.06660072     0.06202775
      5305.5000         0.7321       3430.008        35.8321       38.88222         0.3205         -80.16      -62.20184      0.1251536      0.1130168
      5306.0000         0.7186        3318.98        37.4127       41.63421         0.3247         -76.72       -58.7636      0.1837067      0.1628464
      5306.5000         0.7051       3207.952        38.9933        44.3862         0.3289          -67.6      -49.64535      0.2422596       0.294995
      5307.0000         0.6932       3096.925        40.5739       47.13818         0.3331          -66.8       -48.8471      0.3008123      0.3065637
      5307.5000         0.7111       3038.082        42.1546       49.89034         0.3377            -66      -48.04885       0.359369      0.3181325
      5308.0000         0.7541       3038.038        43.7352       52.64233         0.3377         -65.12      -47.17061       0.417922      0.3308607
      5308.5000         0.7971       3032.034        45.3026        55.3713         0.3377         -64.88      -46.93236      0.4759852      0.3343137
      5309.0000         0.8401       3026.031        45.5987       55.88156         0.3573         -77.84      -59.89411      0.4868416      0.1464622
      5309.5000         0.8831       3025.986        34.2454       36.06107         0.3769         -93.52      -75.57587     0.06512906              0
      5310.0000         0.9261        2882.95        37.5711       41.85863         0.3965          -94.4      -76.45763      0.1884815              0
      5310.5000         0.9691       2817.333        40.8968       47.65621         0.4162         -95.04      -77.09938      0.3118343              0
      5311.0000         1.0121       2519.339        44.2224        53.4536         0.4358         -95.04      -77.10114      0.4351829              0
      5311.5000         1.0369       2358.399        47.5481       59.25116         0.4554         -77.68      -59.74289      0.5585352      0.1486538
      5312.0000         1.0011       2161.702        50.8738       65.04872         0.4751         -70.64      -52.70464      0.6818877      0.2506575
      5312.5000         0.9751       2024.595        54.1995       70.84631         0.4947          -63.6      -45.66639      0.8052406       0.352661
      5313.0000         0.9492       2024.545        55.3677       72.87857         0.5143         -56.64      -38.70815      0.8484802      0.4535051
      5313.5000         0.9232        1857.64        54.0142        70.5099         0.5363          -49.6       -31.6699      0.7980829      0.5555087
      5314.0000         0.8973       1857.589        52.6607       68.14126         0.5288         -44.96      -27.03165      0.7476863      0.6227297
      5314.5000         0.9137       1786.028        51.3072       65.77259         0.5212         -52.48      -34.55341      0.6972892      0.5137188
      5315.0000         0.9684        1809.84        49.9538       63.40412         0.5165         -60.08      -42.15516      0.6468961      0.4035484
      5315.5000         1.0231       1923.999        48.6003       61.03547         0.4966         -70.96      -53.03691      0.5964994      0.2458419
      5316.0000         1.0777       2038.158        47.2468       58.66682         0.4867          -72.4      -54.47867      0.5461025      0.2249468
      5316.5000         1.1324       2152.318        45.8933       56.29816         0.4569          -73.6      -55.68042      0.4957055      0.2075301
      5317.0000          1.187       2266.477        44.6032       54.04016         0.4469          -74.8      -56.88218       0.447663      0.1901134
      5317.5000         1.2534       2345.904        44.6029       54.03314          0.437            -76      -58.08393      0.4475137      0.1726967
      5318.0000         1.2574       2387.572        44.9971        54.7146         0.4271          -77.2      -59.28568      0.4620128        0.15528
      5318.5000         1.2705       2405.402        45.2669       55.17895         0.4271         -78.48      -60.56744      0.4718926      0.1367038
      5319.0000         1.2835       2417.273        45.5368        55.6435         0.4172         -79.68      -61.76919      0.4817765      0.1192871
      5319.5000         1.3051       2423.185        45.8066       56.10785         0.4172         -80.88      -62.97094      0.4916564      0.1018704
      5320.0000          1.319       2423.137        46.0765       56.57239         0.4172         -82.08       -64.1727      0.5015402     0.08445363
      5320.5000         1.4055       2220.465        46.3464       57.03692         0.4172         -83.04      -65.13445      0.5114238     0.07051518
      5321.0000          1.492       2107.184        46.6162       57.50127         0.4768         -82.88       -64.9762      0.5213037     0.07280864
      5321.5000         1.5786       1987.943         46.672       57.59215         0.4867          -78.8      -60.89796      0.5232372      0.1319136
      5322.0000         1.6651       1862.741        46.3753       57.06784         0.4867         -74.72      -56.81971      0.5120818      0.1910186
      5322.5000         1.7516       1773.295        44.9111         54.506         0.5119         -70.64      -52.74147      0.4575745      0.2501237
      5323.0000         1.7641       1683.849        42.9189       51.02267         0.5372         -66.56      -48.66322       0.383461      0.3092287
      5323.5000          1.601       1594.402        43.5109       52.04934         0.5624         -62.48      -44.58497      0.4053052      0.3683337
      5324.0000          1.438       1528.792        45.3362       55.22839         0.5876          -58.4      -40.50673      0.4729445      0.4274387
      5324.5000          1.275       1445.277        47.1616        58.4076         0.6129         -52.48      -34.58848      0.5405873      0.5132105
      5325.0000         1.0847       1486.969        48.9869       61.58664         0.6381         -52.24      -34.35023      0.6082263      0.5166633
      5325.5000         1.0807       1515.214        50.8122       64.76567         0.6556         -46.64      -28.75199      0.6758654      0.5977973
      5326.0000         1.0469       1543.458        52.6376        67.9449         0.6456         -42.56      -24.67374      0.7435085      0.6569023
