#------------------------------------------------------------------------------
# Created by    : vladimir.rabinovich
# Created on    : 09/19/2023 17:20:26
#------------------------------------------------------------------------------
~Version Information Section
VERS.           2.0     :   CWLS log ASCII Standard - VERSION 2.0
WRAP.           NO      :   One line per depth step
~Well Information Section
#MNEM       .UNIT                                         VALUE :DESCRIPTION
#------------------------------------------------------------------------------
STRT        .FT                                             500 :START DEPTH
STOP        .FT                                            8974 :STOP DEPTH
STEP        .FT                                             0.5 :STEP      
NULL        .                                           -999.25 :NULL      
COMP        .                                    G M A OFFSHORE :COMPANY   
WELL        .                                     ST TR 00112-S :WELL      
FLD         .                                           WILDCAT :FIELD     
LOC         .                                                   :LOCATION  
CNTY        .                           HIGH ISLAND SMALL BLOCK :LOCATION  
STAT        .                                             TEXAS :STATE     
CTRY        .                                     UNITED STATES :COUNTRY   
SRVC        .                                                   :SERVICE COMPANY
DATE        .                             9/13/2023 11:19:17 AM :LOG DATE  
API         .                                    42606300040000 :API NUMBER
UWI         .                                    42606300040000 :UNIQUE WELL ID
XCOORD      .                                   1218436.6654802 :SURFACE X 
YCOORD      .                                  10720928.6649768 :SURFACE Y 
LAT         .                                        29.5343489 :LATITUDE  
LON         .                                        -94.327329 :LONGITUDE 
ELEV        .FT                                              63 :ELEVATION VALUE
ELEV_TYPE   .                                                KB :ELEVATION REFERENCE TYPE
~Curve Information Section
#MNEM       .UNIT                                      API CODE :CURVE DESCRIPTION
#------------------------------------------------------------------------------
DEPT        .FT                                                 :DEPTH     
ASN         .OHMM                                               :          
CILD        .MMHO                                               :          
GR          .GAPI                                               :          
GR_NORM     .GAPI                                               :GammaRay Normalized
ILD         .OHMM                                               :          
SP          .MV                                                 :          
SP_NORM     .MV                                                 :SP Normalized
VSH_GR      .V/V                                                :Volume of Shale from GR
VSH_SP      .V/V                                                :Volume of Shale from SP
~A        DEPTH            ASN           CILD             GR        GR_NORM            ILD             SP        SP_NORM         VSH_GR         VSH_SP
# ...
      6701.0000         0.7631       2118.527        -999.25        -999.25         0.2679      -114.6321      -67.34364        -999.25      0.1020848
      6701.5000         0.7515       2185.125        -999.25        -999.25         0.2648      -115.3273      -68.03242        -999.25       0.092901
      6702.0000           0.74       2232.973        -999.25        -999.25         0.2616      -115.8593        -68.558        -999.25     0.08589335
      6702.5000         0.7284       2280.875        -999.25        -999.25         0.2585      -115.9216      -68.61389        -999.25     0.08514811
      6703.0000         0.7169       2339.723        -999.25        -999.25         0.2553      -115.7086      -68.39448        -999.25     0.08807363
      6703.5000         0.7053       2372.984        -999.25        -999.25         0.2522      -115.4709      -68.15036        -999.25     0.09132853
      6704.0000         0.6938       2358.996        -999.25        -999.25         0.2491      -114.8804      -67.55344        -999.25     0.09928741
      6704.5000         0.6837       2344.074        -999.25        -999.25         0.2459      -114.2898      -66.95644        -999.25      0.1072475
      6705.0000         0.6739       2326.699        -999.25        -999.25         0.2428      -113.6992      -66.35942        -999.25      0.1152077
      6705.5000         0.6745       2314.148        -999.25        -999.25         0.2418      -113.1086      -65.76239        -999.25      0.1231681
      6706.0000         0.7032       2309.703        -999.25        -999.25         0.2427      -112.5181      -65.16548        -999.25      0.1311269
      6706.5000         0.6853       2321.223        -999.25        -999.25         0.2436      -111.9354      -64.57637        -999.25      0.1389817
      6707.0000         0.6674       2397.121        -999.25        -999.25         0.2444      -111.3918      -64.02635        -999.25      0.1463153
      6707.5000         0.6496        2505.32        -999.25        -999.25         0.2453      -111.3947      -64.02283        -999.25      0.1463622
      6708.0000         0.6317        2599.52        -999.25        -999.25         0.2464      -112.1721      -64.79382        -999.25      0.1360824
      6708.5000         0.6147       2671.867        -999.25        -999.25         0.2634      -113.1617      -65.77701        -999.25      0.1229732
      6709.0000         0.6147       2709.367        -999.25        -999.25         0.2804      -114.9641        -67.573        -999.25     0.09902669
      6709.5000         0.6175       2736.094        -999.25        -999.25         0.3079      -116.7683      -69.37077        -999.25     0.07505636
      6710.0000         0.7061       2655.418        -999.25        -999.25         0.3411      -118.5708      -71.16686        -999.25      0.0511085
      6710.5000         0.8076       2567.918        -999.25        -999.25         0.3743      -118.7407      -71.33035        -999.25     0.04892873
      6711.0000         0.8894       2431.121        -999.25        -999.25         0.4075      -118.8165      -71.39973        -999.25     0.04800364
      6711.5000         0.9554       2345.723        -999.25        -999.25         0.4407      -118.8925      -71.46931        -999.25      0.0470758
      6712.0000         1.1573       2282.875        -999.25        -999.25         0.4917      -118.6315       -71.2019        -999.25     0.05064128
      6712.5000         1.3319       2238.023        -999.25        -999.25         0.5442      -118.3601      -70.92409        -999.25      0.0543455
      6713.0000         1.4336       2193.426        -999.25        -999.25         0.5967       -118.089      -70.64656        -999.25     0.05804586
      6713.5000         1.4793       2026.029        -999.25        -999.25         0.6219      -117.8179      -70.36906        -999.25     0.06174591
      6714.0000         1.5188         1894.5        -999.25        -999.25         0.6391      -117.5466      -70.09134        -999.25     0.06544881
      6714.5000         1.5745       1707.504        -999.25        -999.25         0.6121      -118.0034      -70.54173        -999.25     0.05944366
      6715.0000         1.6529       1631.205        -999.25        -999.25         0.5851       -118.594      -71.12592        -999.25     0.05165446
      6715.5000         1.7649           1948        -999.25        -999.25         0.5581      -119.1855        -71.711        -999.25     0.04385335
      6716.0000         1.8091       2004.609        -999.25        -999.25         0.5386      -119.7184      -72.23747        -999.25      0.0368337
      6716.5000         1.7291        1997.57        -999.25        -999.25         0.5234      -120.1783      -72.69096        -999.25     0.03078715
      6717.0000         1.6472       1990.531        -999.25        -999.25         0.5082      -120.1313      -72.63755        -999.25     0.03149933
      6717.5000         1.5806       1989.492        -999.25        -999.25          0.493       -119.811      -72.31083        -999.25     0.03585561
      6718.0000         1.5138       2001.428        -999.25        -999.25         0.4911      -119.4901      -71.98351        -999.25     0.04021983
      6718.5000          1.355       2021.203        -999.25        -999.25         0.5047      -119.1697      -71.65671        -999.25     0.04457723
      6719.0000         1.4366       2041.754        -999.25        -999.25         0.5184      -118.8875      -71.36809        -999.25      0.0484255
      6719.5000         1.5222       2062.301        -999.25        -999.25          0.532       -118.642      -71.11617        -999.25     0.05178446
      6720.0000         1.6146       2073.813        -999.25        -999.25         0.5457      -118.8479      -71.31566        -999.25     0.04912455
      6720.5000         1.6973       2072.715        -999.25        -999.25         0.5593      -119.4385      -71.89984        -999.25     0.04133545
      6721.0000         1.4778       2055.801        -999.25        -999.25          0.556        -120.03      -72.48492        -999.25     0.03353434
      6721.5000         1.3432       2031.354        -999.25        -999.25         0.5381      -120.6215      -73.07001        -999.25     0.02573324
      6722.0000         1.2962       2004.629        -999.25        -999.25         0.5203       -121.213      -73.65509        -999.25     0.01793213
      6722.5000         1.2748       2008.229        -999.25        -999.25         0.5024      -121.5654      -74.00108        -999.25     0.01331889
      6723.0000         1.2599       2118.426        -999.25        -999.25         0.4791      -121.8357      -74.26497        -999.25    0.009800415
      6723.5000         1.0423       2513.121        -999.25        -999.25          0.454      -121.8882      -74.31105        -999.25    0.009185994
      6724.0000         0.9667       2576.621        -999.25        -999.25         0.4289      -121.5422      -73.95863        -999.25     0.01388489
      6724.5000         0.9452       2675.816        -999.25        -999.25         0.4038      -121.1963      -73.60632        -999.25     0.01858246
      6725.0000         0.9125       2774.816        -999.25        -999.25         0.3788      -120.8507       -73.2543        -999.25     0.02327596
      6725.5000         0.8329       3006.012        -999.25        -999.25         0.3537      -120.5048      -72.90199        -999.25     0.02797353
      6726.0000         0.7934       3261.609        -999.25        -999.25         0.3286      -120.0663      -72.45708        -999.25     0.03390564
      6726.5000          0.775       3234.809        -999.25        -999.25         0.3035       -119.811      -72.19536        -999.25     0.03739522
      6727.0000         0.7806       2892.414        -999.25        -999.25         0.2828      -120.1593      -72.53725        -999.25     0.03283671
