#------------------------------------------------------------------------------
# Created by    : vladimir.rabinovich
# Created on    : 09/19/2023 17:20:27
#------------------------------------------------------------------------------
~Version Information Section
VERS.           2.0     :   CWLS log ASCII Standard - VERSION 2.0
WRAP.           NO      :   One line per depth step
~Well Information Section
#MNEM       .UNIT                                         VALUE :DESCRIPTION
#------------------------------------------------------------------------------
STRT        .FT                                             304 :START DEPTH
STOP        .FT                                            9519 :STOP DEPTH
STEP        .FT                                             0.5 :STEP      
NULL        .                                           -999.25 :NULL      
COMP        .                                        TEXACO INC :COMPANY   
WELL        .                                     ST TR 00216-S :WELL      
FLD         .                                           WILDCAT :FIELD     
LOC         .                                                   :LOCATION  
CNTY        .                             GALVESTON SMALL BLOCK :LOCATION  
STAT        .                                             TEXAS :STATE     
CTRY        .                                     UNITED STATES :COUNTRY   
SRVC        .                                                   :SERVICE COMPANY
DATE        .                             9/13/2023 11:19:17 AM :LOG DATE  
API         .                                    42605000160000 :API NUMBER
UWI         .                                    42605000160000 :UNIQUE WELL ID
XCOORD      .                                  1087579.10798688 :SURFACE X 
YCOORD      .                                  10638823.7542325 :SURFACE Y 
LAT         .                                         29.303831 :LATITUDE  
LON         .                                       -94.7349593 :LONGITUDE 
ELEV        .FT                                              15 :ELEVATION VALUE
ELEV_TYPE   .                                                KB :ELEVATION REFERENCE TYPE
~Curve Information Section
#MNEM       .UNIT                                      API CODE :CURVE DESCRIPTION
#------------------------------------------------------------------------------
DEPT        .FT                                                 :DEPTH     
ASN         .OHMM                                               :          
LAT         .OHMM                                               :          
LN          .OHMM                                               :          
SP          .MV                                                 :          
SP_NORM     .MV                                                 :SP Normalized
VSH_SP      .V/V                                                :Volume of Shale from SP
~A        DEPTH            ASN            LAT             LN             SP        SP_NORM         VSH_SP
# ...
      5814.0000         0.5909         0.9906         0.5947       -56.1754      -11.79918      0.7796085
      5814.5000         0.5914         0.9894         0.5999       -55.9948      -11.62148      0.7832351
      5815.0000         0.5918         0.9887         0.6051       -55.3824      -11.01197       0.795674
      5815.5000         0.5923          0.989         0.6103       -54.0787      -9.711166      0.8222211
      5816.0000          0.591         0.9893         0.6155       -52.7751      -8.410461      0.8487661
      5816.5000         0.5891         0.9896         0.6198       -51.4725      -7.110756      0.8752907
      5817.0000         0.5872         0.9899         0.6188       -50.1928       -5.83395      0.9013479
      5817.5000         0.5852         0.9901         0.6177       -48.9689      -4.612946      0.9262664
      5818.0000         0.5833         0.9904         0.6166        -47.745      -3.391937      0.9511849
      5818.5000         0.5814         0.9907         0.6155       -47.0896      -2.739433      0.9645014
      5819.0000         0.5795         0.9969         0.6145       -47.3833       -3.03603      0.9584484
      5819.5000         0.5746          1.005         0.6099       -47.6772      -3.332825      0.9523913
      5820.0000         0.5678         1.0131         0.5995       -47.9709      -3.629421      0.9463384
      5820.5000          0.561         1.0213         0.5891       -48.3799      -4.041313      0.9379324
      5821.0000         0.5542         1.0294         0.5787        -48.864      -4.528305      0.9279938
      5821.5000         0.5473         1.0376         0.5682       -49.3481      -5.015301      0.9180551
      5822.0000         0.5405         1.0353         0.5578       -49.8322      -5.502296      0.9081164
      5822.5000         0.5337          1.021         0.5445       -50.3163      -5.989292      0.8981777
      5823.0000         0.5269         1.0068          0.527       -50.7166      -6.392483      0.8899493
      5823.5000         0.5201         0.9925         0.5096       -51.0097       -6.68848      0.8839086
      5824.0000         0.5132         0.9783         0.4971       -51.3028      -6.984474      0.8778679
      5824.5000         0.5064          0.964         0.5012       -51.5959      -7.280472      0.8718271
      5825.0000         0.4996         0.9505         0.5052       -51.8888      -7.576267      0.8657905
      5825.5000         0.4928         0.9408         0.5093       -52.2006      -7.890957      0.8593682
      5826.0000          0.486         0.9311         0.5095       -52.5322      -8.225452      0.8525418
      5826.5000         0.4791         0.9215         0.5077       -52.8638      -8.559948      0.8457153
      5827.0000         0.4723         0.9118          0.506       -53.1955      -8.894543      0.8388869
      5827.5000         0.4694         0.9021         0.5042       -53.7564       -9.45834      0.8273808
      5828.0000         0.4671         0.8925         0.5024       -54.5355      -10.24033      0.8114219
      5828.5000         0.4648         0.8821         0.5007       -55.3147      -11.02243      0.7954607
      5829.0000         0.4625          0.863         0.4989       -57.1221      -12.83272      0.7585159
      5829.5000         0.4601         0.8439         0.4978       -59.0826      -14.79612      0.7184466
      5830.0000         0.4626         0.8248         0.4979       -61.1917      -16.90811      0.6753446
      5830.5000         0.4697         0.8057          0.498       -62.5281       -18.2474      0.6480122
      5831.0000         0.4768         0.7887         0.4982       -63.4963       -19.2185      0.6281939
      5831.5000         0.4839         0.7755         0.4983        -62.845       -18.5701      0.6414266
      5832.0000          0.491         0.7624         0.4985       -61.9686      -17.69659      0.6592532
      5832.5000         0.5026         0.7554         0.4986       -61.0933      -16.82418      0.6770574
      5833.0000         0.5157         0.7746         0.4987       -60.2169      -15.95068      0.6948842
      5833.5000         0.5278         0.7938          0.498       -59.3416      -15.07827      0.7126884
      5834.0000         0.5303         0.8129          0.496       -57.9941      -13.73367      0.7401293
      5834.5000         0.5275         0.8217         0.4939       -56.6435      -12.38596      0.7676334
      5835.0000         0.5208         0.8182         0.4918       -55.4065      -11.15186      0.7928192
      5835.5000         0.5117         0.8147         0.4898       -54.2296      -9.977848      0.8167786
      5836.0000         0.5027         0.8112         0.4877       -53.1455      -8.896645       0.838844
      5836.5000         0.4967         0.8064         0.4859         -52.15      -7.904041      0.8591012
      5837.0000         0.5008         0.8011         0.4929       -51.1556      -6.912537       0.879336
      5837.5000          0.505         0.7958         0.4998       -51.2499      -7.009731      0.8773524
      5838.0000         0.5163         0.7904         0.5067       -51.3754      -7.138123      0.8747322
      5838.5000         0.5288         0.7851         0.5136       -51.7134      -7.479019      0.8677751
      5839.0000         0.5413         0.7798         0.5206       -52.1063      -7.874813      0.8596977
      5839.5000         0.5538         0.7795         0.5315       -52.4991      -8.270508      0.8516223
      5840.0000         0.5663         0.7861          0.543       -52.4437      -8.218002      0.8526939
      5840.5000         0.5751         0.7926         0.5544       -52.1099      -7.887096       0.859447
      5841.0000         0.5668         0.7991         0.5659        -51.776      -7.556091      0.8662022
      5841.5000         0.5574         0.8056         0.5774       -51.4421      -7.225086      0.8729574
      5842.0000         0.5479         0.8123         0.5841       -51.1083       -6.89418      0.8797106
      5842.5000         0.5371          0.819         0.5809       -50.7742      -6.562977      0.8864698
      5843.0000         0.5253         0.8257         0.5778       -50.2693      -6.060966       0.896715
      5843.5000         0.5135         0.8324         0.5746       -49.7465      -5.541061      0.9073253
      5844.0000         0.5016         0.8391         0.5714       -49.2241      -5.021557      0.9179274
      5844.5000         0.4898         0.8432         0.5683       -48.7017      -4.502052      0.9285296
      5845.0000         0.4779         0.8435         0.5651       -48.2643      -4.067551      0.9373969
      5845.5000         0.4659         0.8437         0.5517       -48.1794      -3.985542      0.9390706
      5846.0000         0.4421          0.844          0.538       -48.0946      -3.903637      0.9407421
      5846.5000          0.456         0.8443         0.5243       -48.5832       -4.39513      0.9307116
      5847.0000         0.4822         0.8446         0.5106       -49.4323      -5.247128      0.9133239
      5847.5000         0.5084         0.8362         0.4969       -50.9457      -6.763424      0.8823791
      5848.0000         0.5226         0.8084         0.4903       -56.2916      -12.11221      0.7732201
      5848.5000         0.5341         0.7806         0.4936       -59.5962      -15.41971      0.7057202
      5849.0000         0.5457         0.7528          0.497       -61.0135       -16.8399      0.6767367
      5849.5000          0.549          0.725         0.5003       -61.8069       -17.6362      0.6604857
      5850.0000          0.548         0.6972         0.5037       -61.3676      -17.19979      0.6693919
      5850.5000         0.5471         0.6727         0.5079       -59.8967      -15.73179      0.6993513
      5851.0000         0.5462         0.6492         0.5121       -58.4258      -14.26378      0.7293106
      5851.5000         0.5426         0.6256         0.5163       -56.9396      -12.78048       0.759582
