#------------------------------------------------------------------------------
# Created by    : vladimir.rabinovich
# Created on    : 09/19/2023 17:21:28
#------------------------------------------------------------------------------
~Version Information Section
VERS.           2.0     :   CWLS log ASCII Standard - VERSION 2.0
WRAP.           NO      :   One line per depth step
~Well Information Section
#MNEM       .UNIT                                         VALUE :DESCRIPTION
#------------------------------------------------------------------------------
STRT        .FT                                            2437 :START DEPTH
STOP        .FT                                            8654 :STOP DEPTH
STEP        .FT                                             0.5 :STEP      
NULL        .                                           -999.25 :NULL      
COMP        .                                      PELTO OIL CO :COMPANY   
WELL        .                                     ST TR 00163-S :WELL      
FLD         .                                           WILDCAT :FIELD     
LOC         .                                                   :LOCATION  
CNTY        .                             GALVESTON SMALL BLOCK :LOCATION  
STAT        .                                             TEXAS :STATE     
CTRY        .                                     UNITED STATES :COUNTRY   
SRVC        .                                                   :SERVICE COMPANY
DATE        .                             9/13/2023 11:19:17 AM :LOG DATE  
API         .                                    42605301550000 :API NUMBER
UWI         .                                    42605301550000 :UNIQUE WELL ID
XCOORD      .                                  1154226.19631992 :SURFACE X 
YCOORD      .                                  10687289.1653299 :SURFACE Y 
LAT         .                                        29.4396686 :LATITUDE  
LON         .                                       -94.5278571 :LONGITUDE 
ELEV        .FT                                             111 :ELEVATION VALUE
ELEV_TYPE   .                                                KB :ELEVATION REFERENCE TYPE
~Curve Information Section
#MNEM       .UNIT                                      API CODE :CURVE DESCRIPTION
#------------------------------------------------------------------------------
DEPT        .FT                                                 :DEPTH     
CALI        .IN                                                 :          
GR          .GAPI                                               :          
GR_NORM     .GAPI                                               :GammaRay Normalized
ILD         .OHMM                                               :          
ILM         .OHMM                                               :          
NPSS        .%                                                  :Neutron Porosity Sandstone
RHOB        .G/CM3                                              :          
SFL         .OHMM                                               :          
SP          .MV                                                 :          
SP_NORM     .GAPI                                               :SP Normalized
TENS        .LB                                                 :          
VSH_GR      .V/V                                                :Volume of Shale from GR
VSH_SP      .V/V                                                :Volume of Shale from SP
~A        DEPTH           CALI             GR        GR_NORM            ILD            ILM           NPSS           RHOB            SFL             SP        SP_NORM           TENS         VSH_GR         VSH_SP
# ...
      5762.0000        16.0239        54.0617       42.25288         0.2495         0.2813        35.4059         2.1104         0.6142        35.2869       -70.1489            -40      0.1968697              0
      5762.5000        16.4211         53.967       42.13596         0.2495         0.2813          37.68         2.1074            0.6        35.2816      -70.15632            -40      0.1943821              0
      5763.0000        16.6144        54.1739        42.3914         0.2484         0.2813          39.66         2.0985         0.5865        35.2763      -70.16374            -40      0.1998169              0
      5763.5000        16.6351        54.3809       42.64695         0.2484         0.2813          40.38         2.0906         0.5812         35.271      -70.17116            -40      0.2052543              0
      5764.0000        16.6355        54.0857       42.28251         0.2495         0.2839          40.14         2.0876         0.5892        35.2657      -70.17858            -40      0.1975002              0
      5764.5000        16.6459        54.5923       42.90794         0.2495         0.2852          39.42         2.0916         0.6113        35.3616      -70.04432            -40      0.2108071              0
      5765.0000        16.8484        55.7982        44.3967         0.2495         0.2852          39.54         2.0926         0.6228        35.4573      -69.91034            -40       0.242483    0.001280866
      5765.5000        17.0693         56.402       45.14214         0.2553         0.2959          40.26         2.0906         0.6199        35.6532      -69.63609            -40      0.2583433    0.005198779
      5766.0000        17.2475        55.8064       44.40683         0.2601         0.2932          40.44         2.0896            0.6        35.7484       -69.5028            -40      0.2426984    0.007102857
      5766.5000        17.3168        54.2145       42.44152         0.2698         0.2972          39.78         2.0906         0.5707        35.8434       -69.3698            -40      0.2008833    0.009002795
      5767.0000        17.3366        53.2242       41.21893         0.2774         0.3041             39         2.0906         0.5452        36.0389       -69.0961            -40      0.1748708     0.01291286
      5767.5000        17.3465        53.5295       41.59584         0.2826         0.3097          37.62         2.0916         0.5378        36.1334       -68.9638            -40      0.1828901     0.01480288
      5768.0000         17.396        53.6353       41.72646         0.2878         0.3155          36.84         2.0946         0.5527        36.2277      -68.83178            -40      0.1856693     0.01668886
      5768.5000        16.6387        53.3434       41.36609         0.2891         0.3183          36.24         2.0995         0.5733        36.5226      -68.41892            -40      0.1780018     0.02258682
      5769.0000        15.2352        54.0448       42.23201         0.2905         0.3183             36         2.1054         0.5919        37.1176      -67.58592            -40      0.1964257     0.03448683
      5769.5000        14.7985        56.6288       45.42213         0.2945         0.3183        35.5842         2.1084         0.5973        37.6113      -66.89474            -40      0.2643007     0.04436089
      5770.0000        14.8196        58.8114       48.11671         0.2932         0.3183        35.5842         2.1084         0.5919        37.9039       -66.4851            -40      0.3216321     0.05021286
      5770.5000        15.3163        59.3124       48.73522         0.2905         0.3184        36.2382         2.1065         0.5919        38.1082      -66.19908       -40.2956       0.334792     0.05429884
      5771.0000        15.8803        58.9253       48.25732         0.2891         0.3184        36.4153         2.1026          0.603        38.3221      -65.89962       -40.7882      0.3246239     0.05857686
      5771.5000        16.1289        57.1507       46.06645         0.2865         0.3184        36.4723         2.1006         0.6145        38.1357      -66.16058       -41.2808      0.2780096     0.05484881
      5772.0000        16.1485        55.1751       43.62744         0.2852         0.3184        39.0492         2.0977         0.6089        37.9491      -66.42182       -41.7734      0.2261158     0.05111684
      5772.5000        16.1982        53.2975       41.30942         0.2826         0.3184        39.6463         2.0928         0.5951        37.5632      -66.96207        -42.266      0.1767962     0.04339894
      5773.0000        16.2279        53.5026       41.56263         0.2813          0.317        39.1033         2.0879         0.5871        37.1756      -67.50472       -42.7586      0.1821836     0.03564682
      5773.5000        16.3479        54.0058       42.18386         0.2761          0.317        38.7403          2.087         0.5846        36.9882      -67.76707       -43.2512      0.1954013     0.03189893
      5774.0000        16.4379        54.1121        42.3151         0.2749         0.3155        38.4974          2.091         0.5874         36.901      -67.88916       -43.7931      0.1981936     0.03015485
      5774.5000         16.287        54.7156       43.06016         0.2698         0.3141        38.5544         2.0979         0.5957        36.6142      -68.29068       -44.2857      0.2140459     0.02441886
      5775.0000        16.0957        57.1104        46.0167         0.2661         0.3098        40.6513         2.1049         0.6097        36.4263      -68.55374       -44.7783      0.2769511     0.02066084
      5775.5000        16.2862        56.9197       45.78127         0.2661         0.3098        41.7284          2.103          0.607        36.0372      -69.09848       -45.2709       0.271942     0.01287885
      5776.0000             17        53.1445       41.12053         0.2686         0.3127        41.2454         2.0892         0.5933        35.6476      -69.64392       -45.7635      0.1727772    0.005086844
      5776.5000        17.4384        51.0586       38.54535         0.2749          0.323        41.4824         2.0694         0.5934        35.0577      -70.46978       -46.2562      0.1179861              0
      5777.0000        17.5781        50.1674        37.4451           0.28         0.3321        42.7467         2.0536          0.613        34.6673      -71.01634        -46.798     0.09457657              0
      5777.5000        17.5485        49.0661       36.08547         0.2891         0.3414        43.2285         2.0537         0.6477        34.3772      -71.42248       -47.2906     0.06564827              0
      5778.0000        17.5188        46.2486       32.60707         0.2945         0.3446        42.3771         2.0607         0.6842        34.3892      -71.40569       -37.7833              0              0
      5778.5000        17.5391        44.3359       30.24571         0.3014         0.3544        41.5903         2.0617          0.713        34.3015      -71.52847       -28.2759              0              0
      5779.0000        17.5493        43.0265       28.62917         0.3028         0.3577        41.8874         2.0588         0.7196        34.2126      -71.65292       -28.7685              0              0
      5779.5000        17.4896        44.1383       30.00177         0.3028         0.3545        42.2469         2.0578         0.7398        33.9217      -72.06018       -19.2611              0              0
      5780.0000        17.4199        46.2611       32.62251         0.2972         0.3529        42.4257         2.0648         0.7535        33.8325      -72.18506       -19.7537              0              0
      5780.5000           17.4        47.8788       34.61967         0.2932         0.3416        42.2424         2.0748         0.7571        34.1414       -71.7526            -20       0.034461              0
