#------------------------------------------------------------------------------
# Created by    : vladimir.rabinovich
# Created on    : 09/19/2023 17:20:26
#------------------------------------------------------------------------------
~Version Information Section
VERS.           2.0     :   CWLS log ASCII Standard - VERSION 2.0
WRAP.           NO      :   One line per depth step
~Well Information Section
#MNEM       .UNIT                                         VALUE :DESCRIPTION
#------------------------------------------------------------------------------
STRT        .FT                                             344 :START DEPTH
STOP        .FT                                           10034 :STOP DEPTH
STEP        .FT                                             0.5 :STEP      
NULL        .                                           -999.25 :NULL      
COMP        .                                        TEXACO USA :COMPANY   
WELL        .                                     ST TR 00136-S :WELL      
FLD         .                                           WILDCAT :FIELD     
LOC         .                                                   :LOCATION  
CNTY        .                           HIGH ISLAND SMALL BLOCK :LOCATION  
STAT        .                                             TEXAS :STATE     
CTRY        .                                     UNITED STATES :COUNTRY   
SRVC        .                                                   :SERVICE COMPANY
DATE        .                             9/13/2023 11:19:17 AM :LOG DATE  
API         .                                    42606000310000 :API NUMBER
UWI         .                                    42606000310000 :UNIQUE WELL ID
XCOORD      .                                  1183554.44061246 :SURFACE X 
YCOORD      .                                  10706170.1937531 :SURFACE Y 
LAT         .                                          29.49262 :LATITUDE  
LON         .                                       -94.4364494 :LONGITUDE 
ELEV        .FT                                              52 :ELEVATION VALUE
ELEV_TYPE   .                                                KB :ELEVATION REFERENCE TYPE
~Curve Information Section
#MNEM       .UNIT                                      API CODE :CURVE DESCRIPTION
#------------------------------------------------------------------------------
DEPT        .FT                                                 :DEPTH     
ASN         .OHMM                                               :          
CILD        .MMHO                                               :          
LAT         .OHMM                                               :          
LN          .OHMM                                               :          
SP          .MV                                                 :          
SP_NORM     .MV                                                 :SP Normalized
VSH_SP      .V/V                                                :Volume of Shale from SP
~A        DEPTH            ASN           CILD            LAT             LN             SP        SP_NORM         VSH_SP
# ...
      8049.0000         0.6007        -999.25          0.337         0.3092       -92.1448      -56.57082      0.2928648
      8049.5000         0.5965        -999.25         0.3335         0.3011       -92.2831      -56.70482      0.2911897
      8050.0000         0.5923        -999.25           0.33          0.293       -91.9652      -56.38264       0.295217
      8050.5000         0.5882        -999.25         0.3264          0.285       -91.4209      -55.83405      0.3020744
      8051.0000         0.5828        -999.25         0.3229         0.2769       -89.7168      -54.12566      0.3234293
      8051.5000         0.5504        -999.25         0.3402         0.2688       -88.0126      -52.41718      0.3447853
      8052.0000         0.5039        -999.25         0.3726         0.2607       -86.3083      -50.70858      0.3661427
      8052.5000         0.4573        -999.25          0.405         0.2526       -83.9126      -48.30859      0.3961426
      8053.0000         0.4194        -999.25         0.4642         0.2475       -80.1875       -44.5792      0.4427599
      8053.5000          0.382        -999.25         0.5283         0.2456       -76.9709      -41.35832       0.483021
      8054.0000          0.346        -999.25         0.5926         0.2437       -74.1425      -38.52563      0.5184296
      8054.5000         0.3584        -999.25         0.6703         0.2417        -77.417      -41.79584       0.477552
      8055.0000         0.3708        -999.25          0.612         0.2398       -82.8955      -47.27005      0.4091244
      8055.5000          0.381        -999.25         0.5531         0.2378       -93.7363      -58.10656      0.2736681
      8056.0000         0.3771        -999.25         0.5067         0.2359      -100.6201      -64.98607      0.1876741
      8056.5000         0.3601        -999.25         0.4603         0.2355      -103.3214      -67.68308      0.1539615
      8057.0000         0.3433        -999.25         0.4138         0.2376      -105.4449      -69.80229      0.1274714
      8057.5000         0.3297        -999.25         0.3674         0.2398       -107.593      -71.94611      0.1006737
      8058.0000          0.316        -999.25         0.3283         0.2419      -110.7783      -75.12711     0.06091118
      8058.5000          0.304        -999.25         0.3093          0.244      -113.5376      -77.88213     0.02647343
      8059.0000         0.2926        -999.25         0.2903         0.2461      -115.5764      -79.91663     0.00104208
      8059.5000         0.2813        -999.25         0.2713         0.2482      -115.5295      -79.86545      0.0016819
      8060.0000         0.2702        -999.25         0.2523         0.2471       -111.974      -76.30566     0.04617929
      8060.5000          0.259        -999.25         0.2326          0.243       -108.057      -72.38437     0.09519539
      8061.0000         0.2456        -999.25         0.2129         0.2389      -105.3121      -69.63518      0.1295603
      8061.5000          0.231        -999.25         0.1933         0.2348      -106.5803      -70.89909      0.1137613
      8062.0000         0.2179        -999.25         0.1736         0.2308      -108.0948       -72.4093     0.09488373
      8062.5000         0.2096        -999.25         0.1571         0.2267      -109.6117      -73.92191     0.07597609
      8063.0000         0.2049        -999.25         0.1452         0.2226      -111.1263      -75.43222     0.05709725
      8063.5000         0.2003        -999.25         0.1334         0.2186      -112.6409      -76.94254     0.03821831
      8064.0000         0.1959        -999.25         0.1215         0.2138      -114.1555      -78.45285     0.01933937
      8064.5000         0.1983        -999.25         0.1096         0.2061      -116.5735      -80.86655              0
      8065.0000         0.2007        -999.25         0.1401         0.1984      -115.3467      -79.63547    0.004556656
      8065.5000          0.203        -999.25         0.1747         0.1908      -114.1176      -78.40208     0.01997404
      8066.0000         0.2054        -999.25         0.2094         0.1831      -112.2194      -76.49959     0.04375515
      8066.5000         0.2087        -999.25         0.2441         0.1754      -109.4355       -73.7114     0.07860756
      8067.0000         0.2119        -999.25         0.2799         0.1677      -104.4879      -68.75951      0.1405062
      8067.5000         0.2152        -999.25         0.3193           0.16       -96.4845      -60.75182      0.2406023
      8068.0000         0.2185        -999.25         0.3586         0.1523       -88.5435      -52.80653      0.3399183
      8068.5000         0.2179        -999.25          0.398         0.1447       -82.7705      -47.02924      0.4121345
      8069.0000         0.2163        -999.25         0.4374         0.1399       -76.8014      -41.05585      0.4868019
      8069.5000         0.1992        -999.25         0.4397         0.1395       -79.3175      -43.56766      0.4554042
      8070.0000         0.1811        -999.25         0.3836         0.1391       -90.4351      -54.68097      0.3164879
      8070.5000         0.1625        -999.25         0.3274         0.1388      -109.2297      -73.47128     0.08160897
      8071.0000         0.1506        -999.25         0.2712         0.1384      -108.9119       -73.1492     0.08563499
      8071.5000         0.1414        -999.25         0.2245          0.138       -108.594      -72.82701     0.08966236
      8072.0000         0.1321        -999.25          0.181         0.1376      -108.2767      -72.50542     0.09368229
      8072.5000         0.1229        -999.25         0.1375         0.1372      -107.9589      -72.18333     0.09770832
      8073.0000         0.1177        -999.25         0.0941         0.1368      -107.9811      -72.20124     0.09748449
      8073.5000         0.1168        -999.25         0.0506         0.1364      -108.2744      -72.49025     0.09387188
      8074.0000         0.1158        -999.25         0.0179         0.1375      -108.5684      -72.77995     0.09025059
      8074.5000         0.1149        -999.25         0.0188         0.1393      -108.8617      -73.06897     0.08663788
      8075.0000         0.1139        -999.25         0.0197         0.1411      -109.1555      -73.35849     0.08301888
      8075.5000         0.1153        -999.25         0.0206         0.1429      -109.9865       -74.1852     0.07268505
      8076.0000         0.1182        -999.25         0.0215         0.1447      -111.1865      -75.38091     0.05773868
      8076.5000         0.1211        -999.25         0.0224         0.1465      -112.3889      -76.57902     0.04276228
      8077.0000          0.124        -999.25         0.0233         0.1483       -113.589      -77.77483     0.02781468
      8077.5000         0.1269        -999.25         0.0242         0.1501      -114.6195      -78.80104     0.01498699
      8078.0000         0.1327        -999.25          0.039         0.1519      -115.4839      -79.66115    0.004235649
      8078.5000         0.1392        -999.25         0.0541         0.1537      -116.3483      -80.52126              0
      8079.0000         0.1457        -999.25         0.0693         0.1548      -117.2114      -81.38007              0
      8079.5000         0.1584        -999.25         0.0844         0.1559      -117.3297      -81.49408              0
      8080.0000          0.172        -999.25         0.0995         0.1569      -116.6438      -80.80389              0
      8080.5000         0.1857        -999.25         0.1146          0.158      -115.9579      -80.11371              0
      8081.0000         0.2208        -999.25         0.1348         0.1591      -111.4297      -75.58121     0.05523481
      8081.5000          0.256        -999.25          0.162         0.1602      -107.1112      -71.25842      0.1092697
      8082.0000         0.3017        -999.25         0.1893         0.1612      -103.9303      -68.07323      0.1490846
