#------------------------------------------------------------------------------
# Created by    : vladimir.rabinovich
# Created on    : 09/19/2023 17:21:28
#------------------------------------------------------------------------------
~Version Information Section
VERS.           2.0     :   CWLS log ASCII Standard - VERSION 2.0
WRAP.           NO      :   One line per depth step
~Well Information Section
#MNEM       .UNIT                                         VALUE :DESCRIPTION
#------------------------------------------------------------------------------
STRT        .FT                                            2437 :START DEPTH
STOP        .FT                                            8654 :STOP DEPTH
STEP        .FT                                             0.5 :STEP      
NULL        .                                           -999.25 :NULL      
COMP        .                                      PELTO OIL CO :COMPANY   
WELL        .                                     ST TR 00163-S :WELL      
FLD         .                                           WILDCAT :FIELD     
LOC         .                                                   :LOCATION  
CNTY        .                             GALVESTON SMALL BLOCK :LOCATION  
STAT        .                                             TEXAS :STATE     
CTRY        .                                     UNITED STATES :COUNTRY   
SRVC        .                                                   :SERVICE COMPANY
DATE        .                             9/13/2023 11:19:17 AM :LOG DATE  
API         .                                    42605301550000 :API NUMBER
UWI         .                                    42605301550000 :UNIQUE WELL ID
XCOORD      .                                  1154226.19631992 :SURFACE X 
YCOORD      .                                  10687289.1653299 :SURFACE Y 
LAT         .                                        29.4396686 :LATITUDE  
LON         .                                       -94.5278571 :LONGITUDE 
ELEV        .FT                                             111 :ELEVATION VALUE
ELEV_TYPE   .                                                KB :ELEVATION REFERENCE TYPE
~Curve Information Section
#MNEM       .UNIT                                      API CODE :CURVE DESCRIPTION
#------------------------------------------------------------------------------
DEPT        .FT                                                 :DEPTH     
CALI        .IN                                                 :          
GR          .GAPI                                               :          
GR_NORM     .GAPI                                               :GammaRay Normalized
ILD         .OHMM                                               :          
ILM         .OHMM                                               :          
NPSS        .%                                                  :Neutron Porosity Sandstone
RHOB        .G/CM3                                              :          
SFL         .OHMM                                               :          
SP          .MV                                                 :          
SP_NORM     .GAPI                                               :SP Normalized
TENS        .LB                                                 :          
VSH_GR      .V/V                                                :Volume of Shale from GR
VSH_SP      .V/V                                                :Volume of Shale from SP
~A        DEPTH           CALI             GR        GR_NORM            ILD            ILM           NPSS           RHOB            SFL             SP        SP_NORM           TENS         VSH_GR         VSH_SP
# ...
      3311.0000        12.0801        67.1569       63.32173         0.5092         0.6028         41.691         1.9611         0.8798        53.3673      -49.00789            8.5      0.6451432      0.2460325
      3311.5000        11.9902        66.0784       61.90096         0.4556         0.5477         40.425         1.9782         0.8759        51.2328       -52.5207            7.5      0.6149139      0.1919892
      3312.0000        11.9118        64.1176       59.32141          0.421         0.4977         39.639         1.9893         0.8409         49.517      -55.34446            6.5      0.5600299      0.1485468
      3312.5000        11.8627        61.6667       56.09817          0.391         0.4599         40.413         1.9914         0.7927        48.0183      -57.81091            5.5      0.4914504      0.1106014
      3313.0000        11.8824        60.8824        55.0638         0.3618         0.4329         41.967         1.9875          0.757        47.1197      -59.28976            4.5      0.4694427     0.08784978
      3313.5000        11.9118        60.1961       54.15814         0.3456         0.4056         42.743         1.9796         0.7296        47.0229      -59.44907            3.5      0.4501732     0.08539892
      3314.0000        11.9314        59.2784       52.94856         0.3332         0.4056        42.6159         1.9728          0.713        47.7291      -58.28686            2.5      0.4244375      0.1032791
      3314.5000        11.8922        58.1443       51.45478         0.3242         0.4056        41.9484         1.9748            0.7        48.7372      -56.62779            1.5      0.3926548      0.1288032
      3315.0000        11.8431        58.3505       51.72129         0.3169         0.4056         41.223         1.9779         0.6935        50.0478       -54.4709            0.5      0.3983253      0.1619861
      3315.5000        11.8529        59.4845       53.20637         0.3083            0.4         40.797           1.98         0.7097         51.459      -52.14843           -0.5      0.4299228      0.1977164
      3316.0000        11.9216         60.098       54.00782         0.3041         0.3928        43.3684         1.9761         0.7229        52.8654      -49.83388           -1.5       0.446975      0.2333249
      3316.5000        12.7044        59.1753       52.79169         0.3041         0.3821        44.1391         1.9503         0.7229        53.5669       -48.6794           -2.5      0.4210997      0.2510861
      3317.0000        13.5066        57.0103       49.94394         0.3069         0.3857         41.859         1.9175         0.7097        52.9668        -49.667           -3.5      0.3605094      0.2358923
      3317.5000        13.5762        55.3608       47.77324          0.314          0.391         41.733         1.8877         0.6903        52.4683       -50.4874           -4.5      0.3143243      0.2232707
      3318.0000        13.1473         54.433       46.55041         0.3227         0.3964        43.6971         1.8521         0.6807        52.1705       -50.9775           -5.5      0.2883065      0.2157308
      3318.5000        12.7159        54.9485       47.22315         0.3347         0.4113        43.8683         1.8563         0.6903        52.1722       -50.9747           -6.5      0.3026203      0.2157738
      3319.0000        12.5851        57.6289       50.73922          0.344         0.4229        43.1458         1.8991         0.7163         52.174      -50.97174           -7.5      0.3774301      0.2158194
      3319.5000        12.5854         62.451       57.06812         0.3618          0.441         41.709         1.9429         0.7466        52.5726      -50.31575           -8.5      0.5120877      0.2259116
      3320.0000             12        62.6471       57.32137         0.3892         0.4599         40.863         1.9639         0.7605          52.97      -49.66173           -9.5       0.517476      0.2359734
      3320.5000         11.647        61.9584       56.41257         0.4075         0.4817          40.74          1.961         0.7534        53.7594      -48.36259            -10      0.4981399      0.2559601
      3321.0000        11.4898        62.9357       57.69183         0.4267         0.4816          41.22          1.961          0.726        54.6456      -46.90415            -10       0.525358      0.2783977
      3321.5000        11.4208        64.3065       59.48792         0.4387         0.4792          41.16          1.964         0.7258        55.7298      -45.11984            -10      0.5635726      0.3058486
      3322.0000        11.4304        65.7769       61.41479         0.4386         0.4791          40.56          1.996         0.7358          56.22       -44.3131            -10        0.60457        0.31826
      3322.5000        11.4891        65.8731       61.53684         0.4324         0.4768          39.96          2.019         0.7255         55.522      -45.46183            -10      0.6071668      0.3005872
      3323.0000        11.5478        64.7897       60.10965         0.4244         0.4767          40.62              2         0.7088          54.23      -47.58812            -10       0.576801      0.2678751
      3323.5000        11.6066        64.0003       59.06857         0.4165         0.4878             42          1.985         0.7152         53.532      -48.73684            -10      0.5546503      0.2502025
      3324.0000        11.8032        64.2926       59.44818         0.4106         0.5014        42.1789          1.988          0.725        53.5271       -48.7449            -10      0.5627273      0.2500785
      3324.5000        12.0805        64.4867       59.69881         0.4029         0.4654          41.88          1.999         0.7349        53.9182      -48.10125            -10      0.5680597      0.2599808
      3325.0000        12.4021        60.4455       54.38691         0.3937         0.4588          41.04          1.995          0.745        54.4084      -47.29451            -10      0.4550406      0.2723921
      3325.5000        12.7535        56.2547       48.87856         0.3812         0.4461        42.1792          1.973         0.7448         54.502      -47.14048            -10      0.3378416      0.2747619
      3326.0000        12.9741         53.177        44.8321         0.3708         0.4337        44.6289          1.953         0.7446        54.1011      -47.80024            -10      0.2517467      0.2646116
      3326.5000        13.1918        52.1511       43.48042         0.3607         0.4178        46.3636          1.937          0.741        53.2051      -49.27482            -10      0.2229876      0.2419258
      3327.0000        13.1913        51.8428       43.07121         0.3477         0.4138        46.4258         1.9251         0.7341        52.4081      -50.58647            -10       0.214281      0.2217466
      3327.5000        13.1413        51.9442       43.20008         0.3429          0.408        45.6501         1.9141         0.7172        51.6111      -51.89812            -10      0.2170231      0.2015673
      3328.0000        13.0418        53.3751        45.0751         0.3444         0.4079        44.8138         1.9061         0.7105        51.4082      -52.23204            -10       0.256917      0.1964301
      3328.5000        12.8214        54.7023       46.81391         0.3459         0.4194        43.8568         1.9101          0.707        51.9974      -51.26238            -10      0.2939129       0.211348
      3329.0000        12.6208        53.4738       45.19615         0.3522         0.4232         42.779          1.921         0.7069        52.5865      -50.29288            -10      0.2594925      0.2262634
      3329.5000        12.5304        51.0212       41.97067         0.3553         0.4251          41.88          1.932           0.71        53.5717       -48.6715            -10      0.1908653      0.2512077
