#------------------------------------------------------------------------------
# Created by    : vladimir.rabinovich
# Created on    : 09/19/2023 17:20:26
#------------------------------------------------------------------------------
~Version Information Section
VERS.           2.0     :   CWLS log ASCII Standard - VERSION 2.0
WRAP.           NO      :   One line per depth step
~Well Information Section
#MNEM       .UNIT                                         VALUE :DESCRIPTION
#------------------------------------------------------------------------------
STRT        .FT                                             500 :START DEPTH
STOP        .FT                                            8974 :STOP DEPTH
STEP        .FT                                             0.5 :STEP      
NULL        .                                           -999.25 :NULL      
COMP        .                                    G M A OFFSHORE :COMPANY   
WELL        .                                     ST TR 00112-S :WELL      
FLD         .                                           WILDCAT :FIELD     
LOC         .                                                   :LOCATION  
CNTY        .                           HIGH ISLAND SMALL BLOCK :LOCATION  
STAT        .                                             TEXAS :STATE     
CTRY        .                                     UNITED STATES :COUNTRY   
SRVC        .                                                   :SERVICE COMPANY
DATE        .                             9/13/2023 11:19:17 AM :LOG DATE  
API         .                                    42606300040000 :API NUMBER
UWI         .                                    42606300040000 :UNIQUE WELL ID
XCOORD      .                                   1218436.6654802 :SURFACE X 
YCOORD      .                                  10720928.6649768 :SURFACE Y 
LAT         .                                        29.5343489 :LATITUDE  
LON         .                                        -94.327329 :LONGITUDE 
ELEV        .FT                                              63 :ELEVATION VALUE
ELEV_TYPE   .                                                KB :ELEVATION REFERENCE TYPE
~Curve Information Section
#MNEM       .UNIT                                      API CODE :CURVE DESCRIPTION
#------------------------------------------------------------------------------
DEPT        .FT                                                 :DEPTH     
ASN         .OHMM                                               :          
CILD        .MMHO                                               :          
GR          .GAPI                                               :          
GR_NORM     .GAPI                                               :GammaRay Normalized
ILD         .OHMM                                               :          
SP          .MV                                                 :          
SP_NORM     .MV                                                 :SP Normalized
VSH_GR      .V/V                                                :Volume of Shale from GR
VSH_SP      .V/V                                                :Volume of Shale from SP
~A        DEPTH            ASN           CILD             GR        GR_NORM            ILD             SP        SP_NORM         VSH_GR         VSH_SP
# ...
      1056.5000         0.5701         231.48        63.2159       79.93753         4.5093       -51.9706        -999.25      0.9986709        -999.25
      1057.0000         0.5626       240.0266        64.9355       82.30369         4.4118       -51.9822        -999.25              1        -999.25
      1057.5000         0.5552       248.5715        65.7289       83.39541         4.3393       -51.9938        -999.25              1        -999.25
      1058.0000         0.5478       252.2356        66.5221       84.48686         4.2668        -52.021        -999.25              1        -999.25
      1058.5000         0.5403       247.8965        67.0671       85.23678         4.2415       -52.0583        -999.25              1        -999.25
      1059.0000         0.5403        240.717         67.119       85.30818         4.4206       -52.0956        -999.25              1        -999.25
      1059.5000         0.5416       231.4348        65.9015       83.63289         4.5922        -52.133        -999.25              1        -999.25
      1060.0000         0.5443       222.1511        63.2717        80.0143         4.7368       -52.1703        -999.25              1        -999.25
      1060.5000         0.5489       212.8689        59.0419       74.19412         4.8814       -52.2076        -999.25      0.8764707        -999.25
      1061.0000         0.5534       203.5852        56.5344       70.74381         5.0243       -52.2449        -999.25      0.8030598        -999.25
      1061.5000          0.558       197.9458        54.5618       68.02953         5.1569       -52.2822        -999.25      0.7453091        -999.25
      1062.0000         0.5626       197.3291         52.951       65.81308         5.1612       -52.3676        -999.25      0.6981506        -999.25
      1062.5000         0.5632       208.3635        51.6059       63.96222         4.8644       -52.4551        -999.25      0.6587706        -999.25
      1063.0000         0.5573       219.3994        51.2655       63.49384         4.5677       -52.5427        -999.25       0.648805        -999.25
      1063.5000         0.5515       230.4338        51.6516       64.02509         4.2647       -52.6303        -999.25      0.6601082        -999.25
      1064.0000         0.5456       243.6643        52.0376       64.55622         3.9351       -52.7178        -999.25       0.671409        -999.25
      1064.5000         0.5406       257.6226        52.4236       65.08737          3.619       -52.8054        -999.25      0.6827101        -999.25
      1065.0000          0.537       271.5806        53.2028       66.15956         3.5256       -52.8356        -999.25      0.7055226        -999.25
      1065.5000         0.5333       285.5391        53.8769        67.0871         3.4321       -52.8116        -999.25      0.7252576        -999.25
      1066.0000         0.5297       299.4971        52.8177       65.62965         3.3387       -52.7877        -999.25       0.694248        -999.25
      1066.5000          0.526       312.7139        51.7588       64.17261         3.2453       -52.7637        -999.25       0.663247        -999.25
      1067.0000         0.5224       321.6699        50.2264       62.06403         3.1518       -52.7397        -999.25      0.6183835        -999.25
      1067.5000         0.5187       330.6265        48.5112       59.70393          3.077       -52.7158        -999.25      0.5681686        -999.25
      1068.0000         0.5151       339.5825         46.796       57.34382          3.011       -52.6888        -999.25      0.5179537        -999.25
      1068.5000         0.5114       348.5391        46.6766       57.17953          2.945       -52.6215        -999.25       0.514458        -999.25
      1069.0000          0.515       357.4951        48.5546       59.76363         2.8793       -52.5543        -999.25      0.5694389        -999.25
      1069.5000         0.5192       367.6499        50.4326       62.34777         2.8173       -52.4869        -999.25      0.6244206        -999.25
      1070.0000         0.5234       380.1182        52.3102       64.93133         2.7552       -52.4196        -999.25        0.67939        -999.25
      1070.5000         0.5276       375.8267        54.0028       67.26035         2.7046       -52.3524        -999.25      0.7289435        -999.25
      1071.0000         0.5317       365.6396        55.1522        68.8419         2.7885        -52.285        -999.25      0.7625937        -999.25
      1071.5000         0.5359       355.4546         54.666        68.1729         2.8897       -52.3275        -999.25      0.7483595        -999.25
      1072.0000         0.5404       345.7314        54.7238       68.25243         3.0005       -52.4374        -999.25      0.7500518        -999.25
      1072.5000         0.5452       336.9521        56.7321       71.01584         3.1439       -52.5473        -999.25      0.8088476        -999.25
      1073.0000           0.55       328.1743        58.4603       73.39384         3.2872       -52.6572        -999.25      0.8594434        -999.25
      1073.5000         0.5548        319.395         60.189       75.77252         3.4213       -52.7451        -999.25      0.9100537        -999.25
      1074.0000         0.5597       310.6172        61.7588       77.93258         3.5056       -52.8181        -999.25      0.9560123        -999.25
      1074.5000         0.5644       301.8389        62.4444       78.87594         3.5899        -52.748        -999.25      0.9760838        -999.25
      1075.0000         0.5597       293.0596        62.9474       79.56808         3.6844       -52.4453        -999.25      0.9908103        -999.25
      1075.5000         0.5551       284.2817        62.2135       78.55823          3.802       -52.1424        -999.25       0.969324        -999.25
      1076.0000         0.5504       275.5039        61.4796       77.54839         3.9183       -51.8396        -999.25      0.9478381        -999.25
      1076.5000         0.5458       266.9541        60.7253       76.51047          4.015       -51.5367        -999.25      0.9257546        -999.25
      1077.0000         0.5411       258.5024        59.8241       75.27044         4.1117       -51.2339        -999.25       0.899371        -999.25
      1077.5000         0.5365       250.0505        58.9229       74.03039         4.2063       -51.0079        -999.25       0.872987        -999.25
      1078.0000         0.5318       241.5986        58.0217       72.79032          4.298       -50.8109        -999.25      0.8466026        -999.25
      1078.5000          0.527       234.1042        57.1205       71.55028         4.3897       -50.6138        -999.25      0.8202187        -999.25
      1079.0000         0.5213       227.0381        57.5709       72.17004         4.4776       -50.4167        -999.25       0.833405        -999.25
      1079.5000         0.5157       221.7539        58.1415       72.95517         4.3474       -50.2196        -999.25        0.85011        -999.25
      1080.0000           0.51       222.6011        58.7119       73.74006         4.1543       -50.0225        -999.25      0.8668098        -999.25
      1080.5000         0.5044       237.0095        59.2823       74.52491         3.9413       -49.8254        -999.25      0.8835087        -999.25
      1081.0000         0.4987       251.4148        59.8528       75.30992         3.7799        -49.633        -999.25      0.9002111        -999.25
      1081.5000         0.4931       265.8228        60.4233       76.09492         3.6948       -49.5128        -999.25      0.9169133        -999.25
      1082.0000         0.4874        280.228        60.9956       76.88242         3.6096       -49.3926        -999.25      0.9336686        -999.25
      1082.5000         0.4818       294.6333        61.6087       77.72604         3.5245       -49.2723        -999.25       0.951618        -999.25
