#------------------------------------------------------------------------------
# Created by    : vladimir.rabinovich
# Created on    : 09/19/2023 17:20:26
#------------------------------------------------------------------------------
~Version Information Section
VERS.           2.0     :   CWLS log ASCII Standard - VERSION 2.0
WRAP.           NO      :   One line per depth step
~Well Information Section
#MNEM       .UNIT                                         VALUE :DESCRIPTION
#------------------------------------------------------------------------------
STRT        .FT                                             344 :START DEPTH
STOP        .FT                                           10034 :STOP DEPTH
STEP        .FT                                             0.5 :STEP      
NULL        .                                           -999.25 :NULL      
COMP        .                                        TEXACO USA :COMPANY   
WELL        .                                     ST TR 00136-S :WELL      
FLD         .                                           WILDCAT :FIELD     
LOC         .                                                   :LOCATION  
CNTY        .                           HIGH ISLAND SMALL BLOCK :LOCATION  
STAT        .                                             TEXAS :STATE     
CTRY        .                                     UNITED STATES :COUNTRY   
SRVC        .                                                   :SERVICE COMPANY
DATE        .                             9/13/2023 11:19:17 AM :LOG DATE  
API         .                                    42606000310000 :API NUMBER
UWI         .                                    42606000310000 :UNIQUE WELL ID
XCOORD      .                                  1183554.44061246 :SURFACE X 
YCOORD      .                                  10706170.1937531 :SURFACE Y 
LAT         .                                          29.49262 :LATITUDE  
LON         .                                       -94.4364494 :LONGITUDE 
ELEV        .FT                                              52 :ELEVATION VALUE
ELEV_TYPE   .                                                KB :ELEVATION REFERENCE TYPE
~Curve Information Section
#MNEM       .UNIT                                      API CODE :CURVE DESCRIPTION
#------------------------------------------------------------------------------
DEPT        .FT                                                 :DEPTH     
ASN         .OHMM                                               :          
CILD        .MMHO                                               :          
LAT         .OHMM                                               :          
LN          .OHMM                                               :          
SP          .MV                                                 :          
SP_NORM     .MV                                                 :SP Normalized
VSH_SP      .V/V                                                :Volume of Shale from SP
~A        DEPTH            ASN           CILD            LAT             LN             SP        SP_NORM         VSH_SP
# ...
      1617.0000         0.8912        -999.25         0.9605         0.8234       -37.7783      0.7343941              1
      1617.5000         0.8962        -999.25         0.9771         0.8221       -38.2319      0.3033218              1
      1618.0000         0.9013        -999.25         0.9917         0.8188       -38.6855      -0.127758      0.9971609
      1618.5000         0.9043        -999.25         1.0044         0.8156       -39.1393     -0.5590324      0.9875771
      1619.0000         0.9066        -999.25          1.017         0.8124       -39.5964     -0.9936104      0.9779198
      1619.5000          0.905        -999.25         1.0306         0.8091       -40.0581      -1.432785      0.9681603
      1620.0000         0.9011        -999.25         1.0448         0.8059       -40.5199      -1.872063      0.9583986
      1620.5000         0.8849        -999.25         1.0598         0.8026       -40.7203      -2.049934      0.9544459
      1621.0000         0.8687        -999.25         1.0755         0.7994       -40.7217      -2.028812      0.9549153
      1621.5000         0.8485        -999.25          1.096         0.7948       -40.7232       -2.00779      0.9553825
      1622.0000         0.8225        -999.25         1.1155         0.7894       -40.0869      -1.348965       0.970023
      1622.5000         0.8133        -999.25          1.112          0.784       -39.1713     -0.4108429      0.9908702
      1623.0000         0.8041        -999.25         1.1087         0.7786       -37.9529      0.8300819              1
      1623.5000         0.7984        -999.25         1.1087         0.7731       -37.8362      0.9693031              1
      1624.0000         0.7972        -999.25         1.1087         0.7677       -38.3152      0.5128288              1
      1624.5000          0.796        -999.25         1.1088         0.7623        -38.794     0.05655289              1
      1625.0000         0.7948        -999.25         1.1088         0.7569       -39.2728     -0.3997231      0.9911172
      1625.5000          0.797        -999.25         1.1088         0.7515       -39.7647     -0.8691025      0.9806866
      1626.0000         0.7993        -999.25         1.1089         0.7462       -40.2778      -1.359676       0.969785
      1626.5000         0.8016        -999.25         1.1089         0.7408       -40.7907      -1.850052      0.9588878
      1627.0000         0.8071        -999.25          1.109          0.736        -41.239      -2.275826      0.9494261
      1627.5000         0.8137        -999.25         1.1098         0.7337       -41.6307      -2.645004      0.9412221
      1628.0000         0.8203        -999.25         1.1334         0.7314       -41.8612      -2.852978      0.9366005
      1628.5000         0.8266        -999.25         1.1592         0.7291       -41.7096      -2.678856      0.9404699
      1629.0000         0.8046        -999.25         1.1945         0.7268        -41.558      -2.504734      0.9443392
      1629.5000         0.7717        -999.25         1.1683         0.7244       -42.0288      -2.953011      0.9343776
      1630.0000         0.7487        -999.25         1.1221          0.719       -43.2781      -4.179787      0.9071159
      1630.5000         0.7258        -999.25         1.0766         0.7122       -44.5272      -5.406361      0.8798587
      1631.0000         0.7095        -999.25         1.0382         0.7054       -45.7762      -6.625248      0.8527723
      1631.5000         0.7082        -999.25         0.9998         0.6986       -48.3127      -9.125999         0.7972
      1632.0000         0.7069        -999.25         0.9614         0.6908       -52.2683      -13.04585      0.7100922
      1632.5000         0.7067        -999.25          0.923         0.6824       -58.5372        -19.279      0.5715777
      1633.0000         0.7259        -999.25         0.8875         0.6741       -64.3091      -25.01515      0.4441078
      1633.5000         0.7452        -999.25         0.8564         0.6658       -68.5479       -29.2182      0.3507066
      1634.0000         0.7644        -999.25         0.8253         0.6574       -72.4692      -33.10375      0.2643611
      1634.5000         0.7949        -999.25         0.7942         0.6491        -74.645       -35.2438      0.2168044
      1635.0000         0.8317        -999.25         0.7631         0.6407       -76.5283      -37.09135      0.1757478
      1635.5000         0.8523        -999.25         0.7345         0.6324       -78.2087      -38.73601      0.1391998
      1636.0000         0.8647        -999.25         0.7122         0.6238       -79.9807      -40.47225      0.1006166
      1636.5000         0.8772        -999.25         0.6899         0.6152       -81.0952      -41.55101      0.0766443
      1637.0000         0.8899        -999.25         0.6676         0.6066       -82.0819      -42.50196     0.05551198
      1637.5000         0.9028        -999.25         0.6549          0.598         -82.88      -43.26431       0.038571
      1638.0000         0.9219        -999.25         0.6574         0.5894       -83.5981      -43.94666     0.02340758
      1638.5000         0.9298        -999.25           0.66         0.5809       -84.2367      -44.54951     0.01001087
      1639.0000         0.8959        -999.25         0.6631         0.5723       -84.1732      -44.45026     0.01221636
      1639.5000         0.7749        -999.25         0.6669         0.5637       -83.2015      -43.44281     0.03460422
      1640.0000         0.6922        -999.25         0.6706         0.5577       -80.4742      -40.67976     0.09600534
      1640.5000         0.6587        -999.25         0.6744          0.552       -77.0175      -37.18731      0.1736153
      1641.0000         0.6428        -999.25         0.6669         0.5462       -74.0609      -34.19496       0.240112
      1641.5000         0.6684        -999.25         0.6526         0.5404       -71.6863      -31.78461      0.2936752
      1642.0000         0.7257        -999.25         0.6382         0.5346       -69.6777      -29.74026      0.3391053
      1642.5000         0.8485        -999.25         0.6239         0.5288       -70.3744      -30.40121      0.3244175
      1643.0000         1.0272        -999.25         0.6095          0.523       -75.3768      -35.36787      0.2140474
      1643.5000         1.1736        -999.25         0.5953         0.5185        -78.269      -38.22432      0.1505708
      1644.0000         1.2071        -999.25         0.5833         0.5143       -81.1617      -41.08126     0.08708301
      1644.5000          1.053        -999.25         0.5712         0.5101       -83.6514      -43.53522     0.03255073
      1645.0000         1.0607        -999.25         0.5591         0.5058       -85.9363      -45.78437              0
      1645.5000         1.1347        -999.25          0.547         0.5016        -88.017      -47.82932              0
      1646.0000         1.2797        -999.25          0.535         0.4974       -89.4559      -49.23247              0
      1646.5000         1.3433        -999.25         0.5229         0.4932       -90.8949      -50.63572              0
      1647.0000          1.366        -999.25         0.5108         0.4889       -91.6801      -51.38517              0
      1647.5000         1.3676        -999.25         0.5041         0.4847       -92.3138      -51.98312              0
      1648.0000         1.3636        -999.25         0.4978         0.4814       -92.9476      -52.58117              0
      1648.5000         1.3528        -999.25         0.4916         0.4812       -93.4832      -53.08102              0
      1649.0000         1.3402        -999.25         0.4853         0.4809       -93.8425      -53.40457              0
      1649.5000          1.327        -999.25          0.479         0.4806       -94.2018      -53.72812              0
      1650.0000         1.3476        -999.25         0.4729         0.4803       -94.5612      -54.05178              0
