#------------------------------------------------------------------------------
# Created by    : vladimir.rabinovich
# Created on    : 09/19/2023 17:19:56
#------------------------------------------------------------------------------
~Version Information Section
VERS.           2.0     :   CWLS log ASCII Standard - VERSION 2.0
WRAP.           NO      :   One line per depth step
~Well Information Section
#MNEM       .UNIT                                         VALUE :DESCRIPTION
#------------------------------------------------------------------------------
STRT        .FT                                             748 :START DEPTH
STOP        .FT                                            7997 :STOP DEPTH
STEP        .FT                                             0.5 :STEP      
NULL        .                                           -999.25 :NULL      
COMP        .                                        EXXON CORP :COMPANY   
WELL        .                                     ST TR 00560-L :WELL      
FLD         .                                           WILDCAT :FIELD     
LOC         .                                                   :LOCATION  
CNTY        .                      MATAGORDA ISLAND LARGE BLOCK :LOCATION  
STAT        .                                             TEXAS :STATE     
CTRY        .                                     UNITED STATES :COUNTRY   
SRVC        .                                                   :SERVICE COMPANY
DATE        .                             9/13/2023 11:19:05 AM :LOG DATE  
API         .                                    42703302000000 :API NUMBER
UWI         .                                    42703302000000 :UNIQUE WELL ID
XCOORD      .                                  556028.985600478 :SURFACE X 
YCOORD      .                                   10283706.324983 :SURFACE Y 
LAT         .                                        28.2964478 :LATITUDE  
LON         .                                       -96.3697382 :LONGITUDE 
ELEV        .FT                                              92 :ELEVATION VALUE
ELEV_TYPE   .                                                KB :ELEVATION REFERENCE TYPE
~Curve Information Section
#MNEM       .UNIT                                      API CODE :CURVE DESCRIPTION
#------------------------------------------------------------------------------
DEPT        .FT                                                 :DEPTH     
ASFL        .OHMM                                               :          
CILD        .MMHO                                               :          
DT          .US/F                                               :          
GR          .GAPI                                               :          
GR_NORM     .GAPI                                               :GammaRay Normalized
ILD         .OHMM                                               :          
SP          .MV                                                 :          
SP_NORM     .MV                                                 :SP Normalized
VSH_GR      .V/V                                                :Volume of Shale from GR
VSH_SP      .V/V                                                :Volume of Shale from SP
~A        DEPTH           ASFL           CILD             DT             GR        GR_NORM            ILD             SP        SP_NORM         VSH_GR         VSH_SP
# ...
      4619.0000         1.2568       1295.127       123.1417        -999.25        -999.25         0.7692       -74.6733      -7.326759        -999.25      0.8022888
      4619.5000         1.1599       1861.285       126.1238        -999.25        -999.25         0.7424       -73.1472       -5.80423        -999.25      0.8498678
      4620.0000         1.1016       1937.232       132.4062        -999.25        -999.25         0.7102       -71.0289      -3.689491        -999.25      0.9159534
      4620.5000         1.0269       2020.037        130.707        -999.25        -999.25         0.6529       -58.4871       8.848747        -999.25              1
      4621.0000         0.9452       2134.715       129.4204        -999.25        -999.25         0.5957       -60.5653       6.766983        -999.25              1
      4621.5000         0.8905       2214.582       128.0667        -999.25        -999.25         0.5405       -63.0034       4.325314        -999.25              1
      4622.0000         0.8496       2290.434       126.6771        -999.25        -999.25         0.5041       -82.9603      -15.63515        -999.25      0.5426517
      4622.5000          0.823       2381.121       120.8868        -999.25        -999.25         0.4676       -86.8322      -19.51061        -999.25      0.4215434
      4623.0000         0.8043       2484.539       116.4994        -999.25        -999.25         0.4312       -90.6139      -23.29588        -999.25      0.3032539
      4623.5000         0.7891       2653.574       113.5026        -999.25        -999.25         0.3948        -92.917      -25.60255        -999.25      0.2311704
      4624.0000         0.7761       3080.664       112.4651        -999.25        -999.25          0.371       -94.6182      -27.30731        -999.25      0.1778965
      4624.5000         0.7712       3036.004       107.6877        -999.25        -999.25         0.3486       -95.7159      -28.40857        -999.25      0.1434822
      4625.0000          0.794       2991.348        97.2577        -999.25        -999.25         0.3262       -95.2711      -27.96734        -999.25      0.1572707
      4625.5000         0.8409       2946.691        92.6058        -999.25        -999.25         0.3066       -93.5542        -26.254        -999.25      0.2108126
      4626.0000         0.8912       2561.418        93.9916        -999.25        -999.25         0.3355       -91.3531      -24.05647        -999.25      0.2794852
      4626.5000         0.9471       2466.422       116.8984        -999.25        -999.25         0.3644       -88.8179      -21.52483        -999.25      0.3585989
      4627.0000         1.0275       2354.973       133.2043        -999.25        -999.25         0.3977       -87.6577      -20.36819        -999.25      0.3947439
      4627.5000          1.122       2034.629       128.1902        -999.25        -999.25         0.4335       -87.8271      -20.54116        -999.25      0.3893387
      4628.0000         1.1585       1995.896       124.2043        -999.25        -999.25         0.4693         -88.65      -21.36763        -999.25      0.3635116
      4628.5000         1.1403       1975.453        120.948        -999.25        -999.25         0.5051       -89.5012      -22.22239        -999.25      0.3368003
      4629.0000         1.0999       1956.832       119.1925        -999.25        -999.25          0.541       -90.3616      -23.08636        -999.25      0.3098013
      4629.5000         1.0387       1938.213       120.9358        -999.25        -999.25         0.5581       -91.2432      -23.97152        -999.25        0.28214
      4630.0000         0.9317       1915.197       123.5115        -999.25        -999.25         0.5741       -92.1241      -24.85599        -999.25      0.2545004
      4630.5000         1.0403       1853.254        118.818        -999.25        -999.25         0.5901       -93.0057      -25.74115        -999.25      0.2268391
      4631.0000         1.2101       1774.516       108.0624        -999.25        -999.25         0.5954       -93.8265      -26.56551        -999.25      0.2010777
      4631.5000         1.2753       1716.783       105.8368        -999.25        -999.25         0.5976       -94.5494      -27.29198        -999.25      0.1783757
      4632.0000         1.4114       1694.455        103.894        -999.25        -999.25         0.5999       -95.2723      -28.01845        -999.25      0.1556735
      4632.5000         1.4615       2239.309        103.681        -999.25        -999.25         0.5931        -95.954      -28.70371        -999.25       0.134259
      4633.0000         1.4523       2091.234       105.0814        -999.25        -999.25         0.5752       -96.5559      -29.30917        -999.25      0.1153383
      4633.5000          1.192       1943.061       106.4207        -999.25        -999.25         0.5574       -97.1444      -29.90124        -999.25     0.09683633
      4634.0000         0.9589        1863.93       107.7587        -999.25        -999.25         0.5355       -97.6825      -30.44291        -999.25     0.07990909
      4634.5000          0.827       2282.598       106.2383        -999.25        -999.25         0.4897       -98.2202      -30.98417        -999.25     0.06299472
      4635.0000         0.7817       2870.203       100.6119        -999.25        -999.25         0.4439       -98.9447      -31.71223        -999.25     0.04024267
      4635.5000         0.7535       3130.707       108.0525        -999.25        -999.25         0.3994       -98.7028      -31.47389        -999.25     0.04769087
      4636.0000         0.7271       3319.918       111.5781        -999.25        -999.25         0.3591       -97.8497      -30.62436        -999.25     0.07423878
      4636.5000         0.6958        3400.91       114.2811        -999.25        -999.25         0.3187       -96.4313      -29.20953        -999.25      0.1184523
      4637.0000         0.6651       3306.402       114.5969        -999.25        -999.25         0.2876       -92.3479      -25.12969        -999.25      0.2459471
      4637.5000          0.784       3197.598       113.1476        -999.25        -999.25         0.2757       -89.1765      -21.96185        -999.25      0.3449421
      4638.0000         0.8337       3085.758       110.7922        -999.25        -999.25         0.2638       -87.4984      -20.28732        -999.25      0.3972714
      4638.5000         0.8829       2973.914       108.4393        -999.25        -999.25         0.2529       -85.7717      -18.56419        -999.25      0.4511192
      4639.0000         0.9316       2827.797       105.4156        -999.25        -999.25         0.3114       -83.7021      -16.49815        -999.25      0.5156827
      4639.5000         0.9843       2658.273       101.8386        -999.25        -999.25           0.37       -80.7692      -13.56882        -999.25      0.6072245
      4640.0000         1.0648       2237.547        96.4301        -999.25        -999.25         0.4945       -77.7194      -10.52258        -999.25      0.7024195
      4640.5000         1.4319       1045.885        89.5697        -999.25        -999.25         0.6417       -74.8569      -7.663651        -999.25      0.7917609
      4641.0000         1.6654       657.4785        80.2979        -999.25        -999.25         0.9821       -71.6276      -4.437912        -999.25      0.8925653
      4641.5000         1.3387       622.9805        81.1621        -999.25        -999.25         1.3781       -71.8461      -4.659973        -999.25      0.8856258
      4642.0000         1.2588         649.79        88.2428        -999.25        -999.25         1.3703       -72.0345      -4.851936        -999.25       0.879627
      4642.5000         1.2064       676.5996        93.6096        -999.25        -999.25         1.2136       -72.1262      -4.947205        -999.25      0.8766499
      4643.0000         0.9562        738.959       108.8335        -999.25        -999.25         1.0846       -72.2178      -5.042366        -999.25      0.8736761
