#------------------------------------------------------------------------------
# Created by    : vladimir.rabinovich
# Created on    : 09/19/2023 17:19:56
#------------------------------------------------------------------------------
~Version Information Section
VERS.           2.0     :   CWLS log ASCII Standard - VERSION 2.0
WRAP.           NO      :   One line per depth step
~Well Information Section
#MNEM       .UNIT                                         VALUE :DESCRIPTION
#------------------------------------------------------------------------------
STRT        .FT                                             748 :START DEPTH
STOP        .FT                                            7997 :STOP DEPTH
STEP        .FT                                             0.5 :STEP      
NULL        .                                           -999.25 :NULL      
COMP        .                                        EXXON CORP :COMPANY   
WELL        .                                     ST TR 00560-L :WELL      
FLD         .                                           WILDCAT :FIELD     
LOC         .                                                   :LOCATION  
CNTY        .                      MATAGORDA ISLAND LARGE BLOCK :LOCATION  
STAT        .                                             TEXAS :STATE     
CTRY        .                                     UNITED STATES :COUNTRY   
SRVC        .                                                   :SERVICE COMPANY
DATE        .                             9/13/2023 11:19:05 AM :LOG DATE  
API         .                                    42703302000000 :API NUMBER
UWI         .                                    42703302000000 :UNIQUE WELL ID
XCOORD      .                                  556028.985600478 :SURFACE X 
YCOORD      .                                   10283706.324983 :SURFACE Y 
LAT         .                                        28.2964478 :LATITUDE  
LON         .                                       -96.3697382 :LONGITUDE 
ELEV        .FT                                              92 :ELEVATION VALUE
ELEV_TYPE   .                                                KB :ELEVATION REFERENCE TYPE
~Curve Information Section
#MNEM       .UNIT                                      API CODE :CURVE DESCRIPTION
#------------------------------------------------------------------------------
DEPT        .FT                                                 :DEPTH     
ASFL        .OHMM                                               :          
CILD        .MMHO                                               :          
DT          .US/F                                               :          
GR          .GAPI                                               :          
GR_NORM     .GAPI                                               :GammaRay Normalized
ILD         .OHMM                                               :          
SP          .MV                                                 :          
SP_NORM     .MV                                                 :SP Normalized
VSH_GR      .V/V                                                :Volume of Shale from GR
VSH_SP      .V/V                                                :Volume of Shale from SP
~A        DEPTH           ASFL           CILD             DT             GR        GR_NORM            ILD             SP        SP_NORM         VSH_GR         VSH_SP
# ...
      3173.5000         1.0239       3150.242        -999.25        25.0272       42.92459         0.3215       -129.093      -46.45827      0.2111614              0
      3174.0000         1.0578       3198.844        -999.25        24.1416       41.15181         0.3292      -130.0452      -47.41046      0.1734427              0
      3174.5000           1.09       3242.055        -999.25        23.2566       39.38024         0.3369      -130.9753      -48.34056      0.1357497              0
      3175.0000         1.1219       3254.207        -999.25        22.5135        37.8927         0.3446       -131.937      -49.30226      0.1040999              0
      3175.5000         1.0886       3266.352        -999.25        21.8904        36.6454         0.3524      -132.9785      -50.34377     0.07756164              0
      3176.0000          1.017       3219.535        -999.25        22.6182       38.10229         0.3635      -134.0317      -51.39696      0.1085595              0
      3176.5000         0.9536       2993.637        -999.25        23.3166       39.50033         0.3776      -128.4141      -45.77936      0.1383049              0
      3177.0000         0.9008       2876.793        -999.25        23.7178       40.30346         0.3916      -122.7031      -40.06837      0.1553927              0
      3177.5000          0.841       2788.844        -999.25        23.9004       40.66898         0.4057      -115.0249      -32.39017      0.1631699      0.1951239
      3178.0000         0.7982       2656.523        -999.25        23.8513       40.57069         0.4198      -114.4121      -31.77737      0.1610786      0.2108368
      3178.5000         0.7682        2587.23        -999.25        23.8021        40.4722         0.4339      -114.0332      -31.39847      0.1589829      0.2205521
      3179.0000         0.7483       2534.086        -999.25         23.753       40.37393         0.4437      -113.9341      -31.29936      0.1568921      0.2230933
      3179.5000         0.7353        2505.93        -999.25        24.3316       41.53215         0.4528       -113.835      -31.20026       0.181535      0.2256343
      3180.0000         0.7281       2477.773        -999.25        25.0839       43.03809          0.462      -114.1648      -31.53007      0.2135764      0.2171778
      3180.5000         0.8648       2449.625        -999.25        27.0037       46.88112         0.4711      -116.5623      -33.92757       0.295343      0.1557034
      3181.0000         0.9483       2417.063        -999.25        27.8196       48.51437         0.4803      -118.8184      -36.18366       0.330093     0.09785481
      3181.5000         0.9983       2343.508        -999.25         28.291       49.45802         0.4837      -120.3386      -37.70387      0.3501706     0.05887526
      3182.0000          1.031       2269.809        -999.25         28.239       49.35392          0.487      -121.6311      -38.99637      0.3479558     0.02573414
      3182.5000         1.0628       2192.531        -999.25        27.8293       48.53379         0.4903      -122.5037      -39.86897      0.3305062    0.003359868
      3183.0000         1.0853       2131.148        -999.25        26.8539       46.58126         0.4937      -123.2571      -40.62237      0.2889629              0
      3183.5000         1.0974       2092.953        -999.25        25.6479       44.16709         0.4856      -124.0109      -41.37617      0.2375977              0
      3184.0000         1.1096        2064.25        -999.25        24.4425       41.75415         0.4769      -124.9403      -42.30556      0.1862584              0
      3184.5000         1.1182       2047.932        -999.25        21.6181       36.10031         0.4732      -125.7886      -43.15386     0.06596407              0
      3185.0000         1.1239       2056.227        -999.25        20.2708       33.40331         0.4694      -126.2307      -43.59596    0.008581039              0
      3185.5000         1.1035       2088.715        -999.25        20.1334       33.12826         0.4656      -126.6726      -44.03786     0.00272897              0
      3186.0000          1.083        2143.66        -999.25        20.4741       33.81028         0.4648      -127.0046      -44.36987     0.01723992              0
      3186.5000         1.0641       2222.746        -999.25        20.8145       34.49168         0.4657      -126.7792      -44.14446     0.03173796              0
      3187.0000         1.0476        2229.59        -999.25        21.1552       35.17369         0.4666      -125.8845      -43.24976     0.04624866              0
      3187.5000         1.0311       2228.258        -999.25        21.4957        35.8553         0.4676      -125.0725      -42.43777       0.060751              0
      3188.0000         1.0351        2226.93        -999.25        21.8363        36.5371         0.4685      -124.2606      -41.62586     0.07525749              0
      3188.5000         1.0429       2225.594        -999.25        22.3828       37.63107         0.4693      -123.4493      -40.81457     0.09853347              0
      3189.0000         1.0508       2224.266        -999.25        23.0361       38.93884         0.4622      -122.6373      -40.00256      0.1263582              0
      3189.5000         1.0693       2222.934        -999.25        23.6896       40.24701          0.455      -121.8071      -39.17236      0.1541916     0.02122146
      3190.0000          1.088       2221.602        -999.25        24.3429       41.55477         0.4479      -120.9635      -38.32877      0.1820163     0.04285216
      3190.5000         1.0542       2214.918        -999.25        25.3366       43.54394         0.4408        -120.12      -37.48527      0.2243391     0.06448032
      3191.0000         0.9164        2316.23        -999.25        26.3788        45.6302         0.4336      -118.8025      -36.16776      0.2687277      0.0982625
      3191.5000         0.8219       2386.676        -999.25        27.4203       47.71505         0.4265      -117.0946      -34.45986      0.3130862      0.1420548
      3192.0000         0.8086       2446.516        -999.25         28.059        48.9936         0.4193      -115.0907      -32.45596      0.3402894      0.1934368
      3192.5000         0.8269       2493.992        -999.25         28.144       49.16376         0.4122      -112.7627      -30.12797      0.3439098       0.253129
      3193.0000         0.8472       2541.496        -999.25        28.2289       47.37628         0.4049      -110.6598      -28.02506      0.3058783      0.3070497
      3193.5000         0.8948       2596.047        -999.25        28.1647       47.23957         0.3976      -110.1884      -27.55367      0.3029696      0.3191368
      3194.0000         0.9509       2645.875        -999.25        27.9643       46.81279         0.3903      -109.7169      -27.08217      0.2938891      0.3312264
      3194.5000         0.9704       2683.926        -999.25        27.7639       46.38605         0.3829      -111.4908      -28.85606      0.2848096       0.285742
      3195.0000           0.98       2622.195        -999.25        27.5635       45.95926         0.3756      -111.9954      -29.36066      0.2757289      0.2728035
      3195.5000         0.9599       2548.254        -999.25        27.3631       45.53251         0.3683       -111.863      -29.22826      0.2666491      0.2761984
      3196.0000         0.8885       2488.043        -999.25        27.2241       45.23652          0.361      -110.7185      -28.08376      0.2603514      0.3055445
      3196.5000         0.8599       2437.605        -999.25         27.184       45.15111         0.3537      -110.8452      -28.21046      0.2585343      0.3022958
      3197.0000         0.8356       2394.094        -999.25        27.1438       45.06551         0.3491      -114.4584      -31.82366      0.2567129      0.2096497
      3197.5000         0.8418       2385.523        -999.25        27.1037       44.98011         0.3556      -116.3351      -33.70036      0.2548959      0.1615292
