#------------------------------------------------------------------------------
# Created by    : vladimir.rabinovich
# Created on    : 09/19/2023 17:20:49
#------------------------------------------------------------------------------
~Version Information Section
VERS.           2.0     :   CWLS log ASCII Standard - VERSION 2.0
WRAP.           NO      :   One line per depth step
~Well Information Section
#MNEM       .UNIT                                         VALUE :DESCRIPTION
#------------------------------------------------------------------------------
STRT        .FT                                            2010 :START DEPTH
STOP        .FT                                            6610 :STOP DEPTH
STEP        .FT                                             0.5 :STEP      
NULL        .                                           -999.25 :NULL      
COMP        .                                      SHELL OIL CO :COMPANY   
WELL        .                                ST TR 00691-L SE/4 :WELL      
FLD         .                                           WILDCAT :FIELD     
LOC         .                                                   :LOCATION  
CNTY        .                      MATAGORDA ISLAND LARGE BLOCK :LOCATION  
STAT        .                                             TEXAS :STATE     
CTRY        .                                     UNITED STATES :COUNTRY   
SRVC        .                                                   :SERVICE COMPANY
DATE        .                             9/13/2023 11:12:05 AM :LOG DATE  
API         .                                    42703000190000 :API NUMBER
UWI         .                                    42703000190000 :UNIQUE WELL ID
XCOORD      .                                  412077.623085271 :SURFACE X 
YCOORD      .                                  10154908.2726125 :SURFACE Y 
LAT         .                                        27.9310704 :LATITUDE  
LON         .                                         -96.80379 :LONGITUDE 
ELEV        .FT                                              82 :ELEVATION VALUE
ELEV_TYPE   .                                                DF :ELEVATION REFERENCE TYPE
~Curve Information Section
#MNEM       .UNIT                                      API CODE :CURVE DESCRIPTION
#------------------------------------------------------------------------------
DEPT        .FT                                                 :DEPTH     
ASN         .OHMM                                               :          
CILD        .MMHO                                               :          
ILD         .OHMM                                               :          
SP          .MV                                                 :          
SP_NORM     .MV                                                 :SP Normalized
VSH_SP      .V/V                                                :Volume of Shale from SP
~A        DEPTH            ASN           CILD            ILD             SP        SP_NORM         VSH_SP
# ...
      2618.0000         0.7695         1021.8         1.0048       -77.1898        -5.4917      0.8873645
      2618.5000         0.7796       975.6182         1.0239       -77.3136        -5.6155       0.883371
      2619.0000         0.7866       958.0449         1.0481       -77.2223        -5.5242      0.8863161
      2619.5000         0.7936       940.4717         1.0658       -77.1311         -5.433      0.8892581
      2620.0000         0.7952       931.6748         1.0516       -77.0399        -5.3418         0.8922
      2620.5000         0.7927       932.2871         1.0374       -76.9486        -5.2505      0.8951452
      2621.0000         0.7809        946.374         1.0232        -76.772        -5.0739       0.900842
      2621.5000         0.7688       960.4609         1.0034       -76.5792        -4.8811      0.9070613
      2622.0000         0.7567        974.542         0.9822       -76.3865        -4.6884      0.9132774
      2622.5000         0.7446       1001.664         0.9611       -76.1936        -4.4955         0.9195
      2623.0000         0.7326       1029.838         0.9399       -76.0009        -4.3028      0.9257161
      2623.5000         0.7117       1066.172         0.9187       -75.8081          -4.11      0.9319355
      2624.0000         0.6906       1103.617         0.8975       -75.6154        -3.9173      0.9381516
      2624.5000         0.6695       1161.385         0.8764       -75.4226        -3.7245       0.944371
      2625.0000         0.6546       1231.189           0.85       -75.2241         -3.526      0.9507742
      2625.5000         0.6415       1336.252         0.8215       -74.9965        -3.2984      0.9581161
      2626.0000         0.6284       1377.896          0.793       -74.7687        -3.0706      0.9654645
      2626.5000         0.6152       1412.443         0.7645       -74.5409        -2.8428      0.9728129
      2627.0000         0.6027       1444.764          0.736       -74.3131         -2.615      0.9801613
      2627.5000          0.593       1464.461         0.7075       -74.0853        -2.3872      0.9875097
      2628.0000         0.5833        1484.01         0.7096       -73.8577        -2.1596      0.9948516
      2628.5000         0.5735       1497.436         0.7308       -73.6749        -1.9768              1
      2629.0000         0.5711       1476.523          0.752       -73.5402        -1.8421              1
      2629.5000         0.5863       1450.146         0.7732       -73.6031         -1.905              1
      2630.0000         0.6015       1423.771         0.7944       -73.8873        -2.1892      0.9938968
      2630.5000         0.6102       1372.465         0.8134       -74.1716        -2.4735      0.9847258
      2631.0000         0.6188       1304.617         0.8204       -74.4723        -2.7742      0.9750258
      2631.5000         0.6274       1279.275         0.8275        -74.887        -3.1889      0.9616484
      2632.0000          0.636       1264.521         0.8345       -75.3018        -3.6037      0.9482678
      2632.5000         0.6446       1251.498         0.8415       -75.7164        -4.0183      0.9348935
      2633.0000         0.6532       1243.074         0.8483       -76.0605        -4.3624      0.9237936
      2633.5000         0.6612       1234.652         0.8543       -76.1505        -4.4524      0.9208903
      2634.0000         0.6673        1226.23         0.8603       -76.1394        -4.4413      0.9212484
      2634.5000         0.6734       1217.807         0.8664       -75.9929        -4.2948      0.9259742
      2635.0000         0.6794       1209.385         0.8724       -75.8466        -4.1485      0.9306936
      2635.5000         0.6855       1203.566         0.8784       -75.7002        -4.0021      0.9354161
      2636.0000         0.6915           1198         0.8845        -75.554        -3.8559      0.9401323
      2636.5000          0.698       1191.254         0.8939       -75.4014        -3.7033      0.9450548
      2637.0000         0.7045        1181.16         0.9066        -75.239        -3.5409      0.9502935
      2637.5000         0.7111       1171.074         0.9193       -75.0767        -3.3786       0.955529
      2638.0000         0.7176       1160.982         0.9319       -74.9144        -3.2163      0.9607645
      2638.5000         0.7255        1120.99         0.9446       -74.9851         -3.287      0.9584839
      2639.0000         0.7376       1066.379         0.9584       -75.2365        -3.5384      0.9503742
      2639.5000         0.7497       1031.818          0.985       -75.5154        -3.8173      0.9413774
      2640.0000         0.7619       1001.052         1.0117       -75.9061         -4.208      0.9287742
      2640.5000          0.774       975.9121         1.0383       -76.2969        -4.5988      0.9161677
      2641.0000         0.7865       952.4355          1.065        -76.649        -4.9509      0.9048097
      2641.5000         0.8074       931.7246         1.0917       -76.8927        -5.1946      0.8969484
      2642.0000         0.8283       916.3281         1.1092       -77.1361         -5.438      0.8890968
      2642.5000         0.8492       916.6152         1.1266       -77.3796        -5.6815      0.8812419
      2643.0000         0.8752       937.4131         1.1116       -77.7546        -6.0565      0.8691452
      2643.5000         0.9022       970.6885         1.0723       -78.2528        -6.5547      0.8530742
      2644.0000         0.9305       1020.234          1.033       -79.3375        -7.6394      0.8180839
      2644.5000          0.954       1087.494         0.9938       -81.4766        -9.7785      0.7490807
      2645.0000          0.892       1182.305          0.934       -84.5546       -12.8565      0.6497903
      2645.5000         0.8298       1580.826         0.8712       -87.6548       -15.9567      0.5497839
      2646.0000         0.7775        1651.83         0.8084       -90.7538       -19.0557      0.4498161
      2646.5000         0.7307       1715.887         0.7455       -93.8453       -22.1472      0.3500903
      2647.0000         0.6934       1898.215         0.6843       -96.0778       -24.3797      0.2780742
      2647.5000         0.6541       1988.969         0.6487       -96.6433       -24.9452      0.2598323
      2648.0000         0.5711       2111.617          0.613       -97.0308       -25.3327      0.2473322
      2648.5000         0.5033       2246.922         0.5774        -97.444       -25.7459      0.2340032
      2649.0000         0.4636       2382.273         0.5418       -97.8759       -26.1778       0.220071
      2649.5000         0.4413       2517.578         0.5062       -98.3076       -26.6095      0.2061451
      2650.0000         0.4221       2652.883         0.4818       -99.4214       -27.7233      0.1702161
      2650.5000          0.417       2788.188         0.4577      -100.8872       -29.1891      0.1229322
      2651.0000         0.4119       2923.488         0.4336      -101.5502       -29.8521      0.1015451
      2651.5000         0.4075       3058.844         0.4105      -102.2075       -30.5094     0.08034196
      2652.0000         0.4054       3194.145         0.4096      -102.7523       -31.0542     0.06276777
      2652.5000         0.4032       3129.871         0.4088      -103.0242       -31.3261     0.05399679
      2653.0000         0.4011       3102.859          0.408      -103.2959       -31.5978     0.04523228
      2653.5000         0.3998       3076.359         0.4072      -103.5676       -31.8695     0.03646777
      2654.0000         0.3987       3053.813         0.4063      -103.7333       -32.0352     0.03112264
      2654.5000         0.3981        3031.27         0.4055      -103.7052       -32.0071     0.03202906
      2655.0000         0.3978       3009.906         0.4046       -103.677       -31.9789     0.03293868
      2655.5000         0.3976       2991.711         0.4025      -103.6488       -31.9507     0.03384836
