#------------------------------------------------------------------------------
# Created by    : vladimir.rabinovich
# Created on    : 09/19/2023 17:20:46
#------------------------------------------------------------------------------
~Version Information Section
VERS.           2.0     :   CWLS log ASCII Standard - VERSION 2.0
WRAP.           NO      :   One line per depth step
~Well Information Section
#MNEM       .UNIT                                         VALUE :DESCRIPTION
#------------------------------------------------------------------------------
STRT        .FT                                            1000 :START DEPTH
STOP        .FT                                            6719 :STOP DEPTH
STEP        .FT                                             0.5 :STEP      
NULL        .                                           -999.25 :NULL      
COMP        .                                 CALIFORNIA CO THE :COMPANY   
WELL        .                                     ST TR 00695-L :WELL      
FLD         .                                           WILDCAT :FIELD     
LOC         .                                                   :LOCATION  
CNTY        .                      MATAGORDA ISLAND LARGE BLOCK :LOCATION  
STAT        .                                             TEXAS :STATE     
CTRY        .                                     UNITED STATES :COUNTRY   
SRVC        .                                                   :SERVICE COMPANY
DATE        .                             9/13/2023 11:12:01 AM :LOG DATE  
API         .                                    42703000270000 :API NUMBER
UWI         .                                    42703000270000 :UNIQUE WELL ID
XCOORD      .                                   404842.11633791 :SURFACE X 
YCOORD      .                                  10151340.1845366 :SURFACE Y 
LAT         .                                        27.9206537 :LATITUDE  
LON         .                                       -96.8258101 :LONGITUDE 
ELEV        .FT                                              11 :ELEVATION VALUE
ELEV_TYPE   .                                                KB :ELEVATION REFERENCE TYPE
~Curve Information Section
#MNEM       .UNIT                                      API CODE :CURVE DESCRIPTION
#------------------------------------------------------------------------------
DEPT        .FT                                                 :DEPTH     
ASN         .OHMM                                               :          
CILD        .MMHO                                               :          
ILD         .OHMM                                               :          
SP          .MV                                                 :          
SP_NORM     .MV                                                 :SP Normalized
VSH_SP      .V/V                                                :Volume of Shale from SP
~A        DEPTH            ASN           CILD            ILD             SP        SP_NORM         VSH_SP
      1000.0000         1.4084       1544.914         0.6268        -54.681        -5.6244        0.91252
      1000.5000         1.3791       1575.371          0.615       -54.9477        -5.8911        0.90363
      1001.0000         1.3582       1614.811         0.5935       -55.1568        -6.1002        0.89666
      1001.5000         1.3432       1661.521         0.5706        -55.366        -6.3094      0.8896866
      1002.0000         1.3314       1708.234         0.5476       -55.0795        -6.0229      0.8992367
      1002.5000         1.3197       1754.408         0.5247       -54.7668        -5.7102        0.90966
      1003.0000         1.3131       1800.309         0.5101       -54.4543        -5.3977      0.9200767
      1003.5000         1.3083       1837.615          0.496       -54.1417        -5.0851      0.9304966
      1004.0000         1.3038       1866.313          0.501       -53.8291        -4.7725      0.9409167
      1004.5000         1.3001       1833.041         0.5203       -52.9069        -3.8503      0.9716567
      1005.0000         1.2947       1786.072         0.5391       -51.6804        -2.6238              1
      1005.5000         1.2882       1741.385         0.5558       -50.7324        -1.6758              1
      1006.0000         1.3082       1700.016         0.5725       -51.1508        -2.0942              1
      1006.5000         1.3322       1658.646         0.5892       -51.5692        -2.5126              1
      1007.0000         1.3349       1622.053         0.6058       -51.9875        -2.9309              1
      1007.5000         1.3364       1588.738         0.6189       -52.4385        -3.3819        0.98727
      1008.0000          1.338       1567.998         0.6289       -53.0148        -3.9582        0.96806
      1008.5000         1.3383       1553.172          0.639       -53.5911        -4.5345        0.94885
      1009.0000          1.332        1543.35         0.6416       -54.1673        -5.1107      0.9296433
      1009.5000         1.3256       1540.045         0.6382       -54.1564        -5.0998      0.9300067
      1010.0000         1.3193       1536.738         0.6349       -53.6888        -4.6322      0.9455934
      1010.5000         1.3131       1557.449         0.6315       -53.2211        -4.1645      0.9611833
      1011.0000         1.3099       1591.344         0.6281       -52.7534        -3.6968      0.9767733
      1011.5000         1.3066       1600.232         0.6248       -52.2856         -3.229      0.9923667
      1012.0000         1.3126        1602.76         0.6188       -51.8179        -2.7613              1
      1012.5000         1.3285       1605.287         0.6121       -51.2801        -2.2235              1
      1013.0000         1.3606       1608.205         0.6055        -50.726        -1.6694              1
      1013.5000          1.376       1611.598         0.5989       -50.1719        -1.1153              1
      1014.0000         1.3906       1614.992         0.5922        -49.639        -0.5824              1
      1014.5000         1.4005       1618.385         0.5856       -49.3074        -0.2508              1
      1015.0000         1.4083       1621.779         0.5789       -48.9758         0.0808              1
      1015.5000          1.416       1625.172         0.5723       -48.7215         0.3351              1
      1016.0000         1.4358       1628.566         0.5674       -48.7033         0.3533              1
      1016.5000         1.4626       1631.959         0.5628       -48.6851         0.3715              1
      1017.0000         1.4941       1655.373         0.5578       -48.6669         0.3897              1
      1017.5000         1.5382       1707.078         0.5527        -48.623         0.4336              1
      1018.0000          1.588       1788.104         0.5477        -48.575         0.4816              1
      1018.5000         1.6344        1828.33         0.5426        -48.527         0.5296              1
      1019.0000         1.6654        1842.91         0.5375       -49.8579        -0.8013              1
      1019.5000         1.6965       1853.518         0.5421       -51.4041        -2.3475              1
      1020.0000         1.7286       1864.121         0.5548       -52.9502        -3.8936      0.9702134
      1020.5000         1.7613       1810.539         0.5675       -54.4966          -5.44      0.9186667
      1021.0000         1.7979       1760.664         0.5802       -55.7203        -6.6637      0.8778766
      1021.5000         1.8384       1715.377         0.5929       -56.3392        -7.2826      0.8572467
      1022.0000         1.8364       1670.652         0.6005       -56.9581        -7.9015      0.8366166
      1022.5000         1.7694       1633.498         0.6064       -57.1983        -8.1417        0.82861
      1023.0000         1.7282       1649.295         0.6124       -57.0271        -7.9705      0.8343167
      1023.5000          1.687        1665.09         0.6183       -56.3649        -7.3083        0.85639
      1024.0000          1.639       1680.813         0.6242       -55.4586         -6.402         0.8866
      1024.5000         1.5824       1695.039         0.6301       -54.5523        -5.4957        0.91681
      1025.0000         1.5264       1709.266          0.636       -53.7125        -4.6559      0.9448034
      1025.5000         1.4714        1717.58         0.6419       -53.7534        -4.6968        0.94344
      1026.0000         1.4164        1721.07         0.6457       -53.7944        -4.7378      0.9420733
      1026.5000         1.3489       1724.561          0.639       -53.8353        -4.7787        0.94071
      1027.0000         1.2852       1728.943         0.6323       -53.8763        -4.8197      0.9393433
      1027.5000         1.2332       1736.664         0.6256       -53.9172        -4.8606        0.93798
      1028.0000          1.187       1744.385         0.6189       -53.9583        -4.9017        0.93661
      1028.5000          1.159       1775.574         0.6122        -54.025        -4.9684      0.9343867
      1029.0000         1.1371       1817.807         0.6055       -54.1461        -5.0895        0.93035
      1029.5000         1.1254       1859.818         0.5992       -54.2673        -5.2107        0.92631
      1030.0000         1.1138       1900.426         0.5931       -54.5018        -5.4452      0.9184933
      1030.5000         1.1022       1941.039          0.587       -54.8266          -5.77      0.9076667
      1031.0000         1.0905       1962.479         0.5809       -55.1512        -6.0946      0.8968467
      1031.5000         1.0884       1977.914         0.5751       -55.4776         -6.421      0.8859667
      1032.0000         1.0868       1992.168           0.57       -55.8356         -6.779      0.8740333
      1032.5000         1.0972       2005.039          0.565       -56.1937        -7.1371      0.8620967
      1033.0000         1.1112       2017.906         0.5599       -56.4539        -7.3973      0.8534234
      1033.5000         1.1302       2020.467         0.5548       -56.5132        -7.4566      0.8514467
      1034.0000         1.1615       2016.352         0.5498       -56.5724        -7.5158      0.8494734
      1034.5000         1.1892       2014.072         0.5445       -56.4517        -7.3951      0.8534967
      1035.0000         1.2006       2011.795         0.5393       -56.0255        -6.9689      0.8677033
      1035.5000         1.2051       2009.516         0.5341       -55.7675        -6.7109      0.8763033
      1036.0000         1.2099       2006.607         0.5288       -55.5095        -6.4529      0.8849033
      1036.5000         1.2154       2002.732         0.5236       -55.4341        -6.3775      0.8874167
      1037.0000          1.221       1998.857         0.5202       -55.4395        -6.3829      0.8872367
      1037.5000         1.2266       1994.982         0.5175       -55.4449        -6.3883      0.8870566
