#------------------------------------------------------------------------------
# Created by    : vladimir.rabinovich
# Created on    : 09/19/2023 17:20:09
#------------------------------------------------------------------------------
~Version Information Section
VERS.           2.0     :   CWLS log ASCII Standard - VERSION 2.0
WRAP.           NO      :   One line per depth step
~Well Information Section
#MNEM       .UNIT                                         VALUE :DESCRIPTION
#------------------------------------------------------------------------------
STRT        .FT                                            1853 :START DEPTH
STOP        .FT                                            6238 :STOP DEPTH
STEP        .FT                                             0.5 :STEP      
NULL        .                                           -999.25 :NULL      
COMP        .               LOUISIANA LAND & EXPLORATION CO THE :COMPANY   
WELL        .                                          SL 79258 :WELL      
FLD         .                                           WILDCAT :FIELD     
LOC         .                                                   :LOCATION  
CNTY        .                      MATAGORDA ISLAND LARGE BLOCK :LOCATION  
STAT        .                                             TEXAS :STATE     
CTRY        .                                     UNITED STATES :COUNTRY   
SRVC        .                                                   :SERVICE COMPANY
DATE        .                             9/13/2023 11:12:01 AM :LOG DATE  
API         .                                    42703301870000 :API NUMBER
UWI         .                                    42703301870000 :UNIQUE WELL ID
XCOORD      .                                  470651.272343367 :SURFACE X 
YCOORD      .                                  10209272.4173218 :SURFACE Y 
LAT         .                                        28.0852496 :LATITUDE  
LON         .                                       -96.6277134 :LONGITUDE 
ELEV        .FT                                              82 :ELEVATION VALUE
ELEV_TYPE   .                                                KB :ELEVATION REFERENCE TYPE
~Curve Information Section
#MNEM       .UNIT                                      API CODE :CURVE DESCRIPTION
#------------------------------------------------------------------------------
DEPT        .FT                                                 :DEPTH     
ASFL        .OHMM                                               :          
CILD        .MMHO                                               :          
ILD         .OHMM                                               :          
SP          .MV                                                 :          
SP_NORM     .MV                                                 :SP Normalized
VSH_SP      .V/V                                                :Volume of Shale from SP
~A        DEPTH           ASFL           CILD            ILD             SP        SP_NORM         VSH_SP
# ...
      3867.0000         0.7074       3284.199         0.3083      -117.4297      -48.06452              0
      3867.5000         0.6885       3441.852          0.291      -117.5793       -48.2415              0
      3868.0000         0.6447       3602.254         0.2732      -112.9136      -43.60317     0.05326284
      3868.5000         0.6192       3735.973         0.2555      -108.8846      -39.60155      0.1421878
      3869.0000         0.5983       3872.938         0.2624      -105.6128      -36.35713       0.214286
      3869.5000         0.5997       3964.391         0.2719      -102.8931       -33.6648      0.2741155
      3870.0000         0.6545       3867.188         0.2839      -104.4391      -35.23819      0.2391513
      3870.5000         0.6949       3784.379         0.3176      -110.0756      -40.90206      0.1132875
      3871.0000         0.7178       3558.617         0.3513       -103.152      -34.00584       0.266537
      3871.5000         0.7228       3242.523         0.3851      -100.2598      -31.14102      0.3301995
      3872.0000         0.7278       3042.266         0.4188       -97.8632      -28.77179      0.3828491
      3872.5000         0.8104       2955.086         0.4525       -96.0854      -27.02138      0.4217472
      3873.0000         0.8873       2867.906         0.5151       -94.3064      -25.26974      0.4606723
      3873.5000         0.9675       2692.219         0.5989       -93.1901      -24.18082      0.4848706
      3874.0000         1.5513        1825.82         0.7541       -92.0824       -23.1005      0.5088778
      3874.5000         1.9103       1980.033         1.0058       -91.0352      -22.08068      0.5315405
      3875.0000         1.9677       1034.416         1.4311       -93.2426      -24.31546      0.4818787
      3875.5000         2.2467       922.4668         1.5556       -96.0632      -27.16344      0.4185903
      3876.0000         2.6689       802.5576          1.672      -102.8536      -33.98121      0.2670842
      3876.5000         2.6476       720.5859         1.7406      -107.8787      -39.03369      0.1548069
      3877.0000         2.2553       646.4287         1.6568      -110.5798      -41.76217     0.09417403
      3877.5000         2.1583       576.1533         1.4964      -112.1641      -43.37384     0.05835911
      3878.0000         2.0559       457.7432         1.3608       -113.604      -44.84112     0.02575294
      3878.5000         1.3205       2450.332         1.2431      -114.7444       -46.0089              0
      3879.0000         0.5527       2852.523         1.1253      -115.5994      -46.89128              0
      3879.5000         0.6019       2516.777         0.9112       -116.307      -47.62625              0
      3880.0000         0.6122       2162.156         0.6642      -114.9255      -46.27213              0
      3880.5000         0.6226       2926.188         0.4364      -111.7277      -43.10171      0.0644065
      3881.0000         0.6327       3036.023         0.2615      -107.8936      -39.29498      0.1490004
      3881.5000         0.6422       3983.605         0.2704      -103.0731      -34.50186      0.2555142
      3882.0000         0.6517       4160.125         0.2794       -98.2009      -29.65704       0.363177
      3882.5000         0.6612       3955.891         0.2884       -85.2415      -16.72501      0.6505553
      3883.0000         0.6706       3739.266         0.2974        -84.146       -15.6569      0.6742911
      3883.5000         0.6825       3114.164           0.34       -82.2407      -13.77897      0.7160229
      3884.0000         0.6946       2621.352         0.3877       -79.3312      -10.89685        0.78007
      3884.5000         0.7067       2481.195         0.4355        -75.105      -6.698029      0.8733771
      3885.0000         0.7188       2222.504         0.4832       -72.6073      -4.227699      0.9282733
      3885.5000         0.7536       1895.801          0.531       -71.7909      -3.438683       0.945807
      3886.0000          0.803       1594.994         0.5923       -71.1813      -2.856453      0.9587455
      3886.5000         0.8535       1508.502         0.6554       -70.5719      -2.274437      0.9716792
      3887.0000         0.8766       1399.648         0.6987       -70.0828      -1.812714      0.9819397
      3887.5000         0.8997       1209.563         0.7365       -69.6038      -1.382553      0.9914988
      3888.0000         0.9132        1145.43         0.7744       -69.1251     -0.9595337              1
      3888.5000         0.9261       1111.424         0.8263       -68.6465     -0.5366211              1
      3889.0000         0.9391       1090.033         0.8926       -76.5746      -8.520401        0.83288
      3889.5000         0.9553       1068.645         0.9588       -81.9349      -13.93639      0.7125248
      3890.0000         0.9715        1043.68         1.0321       -84.0443      -16.10146      0.6644119
      3890.5000         0.9879       1013.775         1.1056       -84.9363      -17.04915      0.6433523
      3891.0000         1.0474       983.8965         1.1791       -84.5732      -16.74173      0.6501838
      3891.5000         1.3668       936.5713         1.2856       -84.2107      -16.43491      0.6570019
      3892.0000         1.6207       879.7129         1.3892       -83.8495       -16.1294      0.6637911
      3892.5000         1.8561       826.3184         1.4821       -83.4883      -15.82388      0.6705806
      3893.0000         1.9557       775.4795         1.5347       -83.1268      -15.51806      0.6773764
      3893.5000         2.0414       724.6406          1.571       -82.6167      -15.06364      0.6874745
      3894.0000         2.3316       577.0879         1.6026        -82.688      -15.19063      0.6846527
      3894.5000         2.8012       526.2236         1.6199       -82.9434      -15.50171      0.6777398
      3895.0000         2.6066       476.6143         1.6356       -84.6077      -17.22169      0.6395181
      3895.5000         2.4203       490.9883         1.5788       -95.6588      -28.32848      0.3927005
      3896.0000          2.151       571.6328         1.4627      -101.1055      -33.83086      0.2704254
      3896.5000         1.7352       1434.246         1.3466      -104.0865      -36.86754      0.2029436
      3897.0000          1.632       1494.104         1.2291      -108.3866      -41.22332      0.1061484
      3897.5000         1.4348       1567.277         1.1116      -109.8932      -42.78561     0.07143097
      3898.0000         1.1746       1646.299         0.8672      -111.4243      -44.37239     0.03616909
      3898.5000         1.0555       1584.527         0.7165      -113.4166      -46.42037              0
      3899.0000         1.1145       1436.408         0.6903      -106.5571      -39.61655      0.1418543
      3899.5000         1.2048       793.8838          0.908       -103.078      -36.19314      0.2179303
      3900.0000           2.72       761.6455         1.2038      -101.4452      -34.61601      0.2529775
      3900.5000         2.7575       729.3828          1.589      -101.7651       -34.9916      0.2446311
      3901.0000         2.0631       698.3242         1.7363       -102.757      -36.03918      0.2213515
      3901.5000         2.0023       777.5928         1.6251      -103.7278      -37.06567      0.1985407
      3902.0000         1.9818       1176.145         1.4812       -104.698      -38.09155      0.1757434
      3902.5000         1.8354       1444.174         1.2679      -105.8661      -39.31532      0.1485484
      3903.0000         1.5644       1521.918         1.0749      -107.1125      -40.61742       0.119613
      3903.5000         1.2125       1606.199         0.9037      -108.7219      -42.28249     0.08261126
      3904.0000         1.0021        1698.98         0.8098      -107.3671      -40.98338      0.1114804
      3904.5000         1.0181       1749.156         0.7097      -105.2269      -38.89886      0.1578032
