#------------------------------------------------------------------------------
# Created by    : vladimir.rabinovich
# Created on    : 09/19/2023 17:20:46
#------------------------------------------------------------------------------
~Version Information Section
VERS.           2.0     :   CWLS log ASCII Standard - VERSION 2.0
WRAP.           NO      :   One line per depth step
~Well Information Section
#MNEM       .UNIT                                         VALUE :DESCRIPTION
#------------------------------------------------------------------------------
STRT        .FT                                            1000 :START DEPTH
STOP        .FT                                            6719 :STOP DEPTH
STEP        .FT                                             0.5 :STEP      
NULL        .                                           -999.25 :NULL      
COMP        .                                 CALIFORNIA CO THE :COMPANY   
WELL        .                                     ST TR 00695-L :WELL      
FLD         .                                           WILDCAT :FIELD     
LOC         .                                                   :LOCATION  
CNTY        .                      MATAGORDA ISLAND LARGE BLOCK :LOCATION  
STAT        .                                             TEXAS :STATE     
CTRY        .                                     UNITED STATES :COUNTRY   
SRVC        .                                                   :SERVICE COMPANY
DATE        .                             9/13/2023 11:12:01 AM :LOG DATE  
API         .                                    42703000270000 :API NUMBER
UWI         .                                    42703000270000 :UNIQUE WELL ID
XCOORD      .                                   404842.11633791 :SURFACE X 
YCOORD      .                                  10151340.1845366 :SURFACE Y 
LAT         .                                        27.9206537 :LATITUDE  
LON         .                                       -96.8258101 :LONGITUDE 
ELEV        .FT                                              11 :ELEVATION VALUE
ELEV_TYPE   .                                                KB :ELEVATION REFERENCE TYPE
~Curve Information Section
#MNEM       .UNIT                                      API CODE :CURVE DESCRIPTION
#------------------------------------------------------------------------------
DEPT        .FT                                                 :DEPTH     
ASN         .OHMM                                               :          
CILD        .MMHO                                               :          
ILD         .OHMM                                               :          
SP          .MV                                                 :          
SP_NORM     .MV                                                 :SP Normalized
VSH_SP      .V/V                                                :Volume of Shale from SP
~A        DEPTH            ASN           CILD            ILD             SP        SP_NORM         VSH_SP
# ...
      2140.0000          1.421       1017.847          1.078       -56.2909       -11.0079      0.8123354
      2140.5000         1.4229       1114.125         1.0484       -56.9132       -11.6302      0.7993708
      2141.0000          1.395       1202.543         1.0176       -58.0239       -12.7409      0.7762312
      2141.5000         1.3671       1296.895         0.9868       -59.1345       -13.8515      0.7530938
      2142.0000         1.3391       1393.324         0.9259       -60.2452       -14.9622      0.7299542
      2142.5000         1.3014       1563.297         0.8634       -61.3558       -16.0728      0.7068167
      2143.0000         1.2624       1947.615         0.8008       -64.2222       -18.9392         0.6471
      2143.5000         1.0528       1992.086         0.7383       -67.3689       -22.0859      0.5815437
      2144.0000         0.9936       2032.627         0.6597       -76.1166       -30.8336         0.3993
      2144.5000         0.9744       2130.797         0.5804        -81.762        -36.479      0.2816875
      2145.0000         0.9676       2182.418         0.5104       -83.1372       -37.8542      0.2530375
      2145.5000         0.9666       2174.406         0.4613       -82.8391       -37.5561      0.2592479
      2146.0000         0.9728       2166.395         0.4126       -81.5933       -36.3103      0.2852021
      2146.5000         0.9838       2110.977         0.4252       -80.3467       -35.0637      0.3111729
      2147.0000          0.997       2078.438         0.4378       -79.1007       -33.8177      0.3371313
      2147.5000         1.0109       2070.422         0.4503       -77.8542       -32.5712         0.3631
      2148.0000         1.0102       2055.023         0.4629       -78.4116       -33.1286      0.3514875
      2148.5000         0.9636       2046.113         0.4755       -79.2157       -33.9327      0.3347354
      2149.0000         0.9169       2039.699         0.4761       -79.9153       -34.6323      0.3201604
      2149.5000         0.8702       2040.646          0.469       -80.2616       -34.9786      0.3129458
      2150.0000         0.8207       2043.303         0.4619       -79.6606       -34.3776      0.3254666
      2150.5000         0.7679       2103.766         0.4549       -79.0596       -33.7766      0.3379875
      2151.0000         0.7473        2296.34         0.4417       -78.4584       -33.1754      0.3505125
      2151.5000         0.7282       2427.371         0.4274        -77.876        -32.593      0.3626459
      2152.0000         0.7137       2520.059         0.4132       -77.3306       -32.0476      0.3740083
      2152.5000         0.7078       2612.742         0.3899       -77.8651       -32.5821      0.3628729
      2153.0000          0.702       2706.957         0.3656       -78.8096       -33.5266      0.3431958
      2153.5000         0.6962       2801.391         0.3413       -79.9696       -34.6866      0.3190292
      2154.0000         0.6903       2945.047          0.317       -81.1296       -35.8466      0.2948625
      2154.5000         0.6845       3127.922         0.2927       -82.8998       -37.6168      0.2579834
      2155.0000         0.6786       3249.703          0.287       -84.5299       -39.2469      0.2240229
      2155.5000         0.6727       3299.348         0.2852       -85.3823       -40.0993      0.2062646
      2156.0000         0.6665       3335.066         0.2833        -85.132        -39.849      0.2114792
      2156.5000         0.6603           3369         0.2815       -84.8816       -39.5986      0.2166959
      2157.0000         0.6541       3394.102         0.2797       -84.6312       -39.3482      0.2219125
      2157.5000         0.6479       3402.539         0.2778       -84.3809       -39.0979      0.2271271
      2158.0000         0.6439       3410.977          0.276       -84.1305       -38.8475      0.2323437
      2158.5000         0.6402       3376.887         0.3099       -84.2363       -38.9533      0.2301396
      2159.0000         0.6366       3287.375         0.3597       -84.4077       -39.1247      0.2265688
      2159.5000          0.633       3191.637         0.4094       -84.6155       -39.3325      0.2222396
      2160.0000         0.6461       3068.828         0.4592       -82.5049       -37.2219      0.2662104
      2160.5000         0.6648       2700.781         0.5315       -75.3392       -30.0562      0.4154958
      2161.0000         0.6978       2586.648         0.6197       -68.1737       -22.8907      0.5647771
      2161.5000         0.7391       1761.283         0.7079       -63.3137       -18.0307      0.6660271
      2162.0000         0.7942       1644.449         0.7961       -60.2632       -14.9802      0.7295792
      2162.5000         0.8752       1530.166         0.8847         -53.71         -8.427      0.8661042
      2163.0000         0.9469       1415.932         0.9733       -52.8476        -7.5646      0.8840708
      2163.5000         0.9737       995.4951         1.0105       -52.2346        -6.9516      0.8968416
      2164.0000         0.9834       995.0645          1.023       -51.6213        -6.3383      0.9096187
      2164.5000         0.9917       994.6348         1.0356       -51.0916        -5.8086      0.9206542
      2165.0000          0.994       994.2041         1.0358       -50.8281        -5.5451      0.9261438
      2165.5000         0.9964       993.7734         1.0301       -50.5646        -5.2816      0.9316334
      2166.0000         0.9988       993.3428         1.0243       -50.3012        -5.0182      0.9371209
      2166.5000         1.0048       998.0469         1.0211        -50.124         -4.841      0.9483455
      2167.0000         1.0163       1004.465         1.0204       -49.9468        -4.6638      0.9515673
      2167.5000         1.0277       1010.886         1.0061       -49.7695        -4.4865      0.9547909
      2168.0000         1.0425       1017.304          0.964       -51.1113        -5.8283      0.9303945
      2168.5000         1.0534       1042.959         0.9212       -52.4791        -7.1961      0.9055254
      2169.0000         1.0559       1113.324         0.8231       -53.8469        -8.5639      0.8806564
      2169.5000         1.0537        1287.65          0.725       -55.2146        -9.9316      0.8557891
      2170.0000         1.0449       1677.844         0.6573       -58.1476       -12.8646      0.8024618
      2170.5000         1.0265       1791.328         0.6482       -62.0078       -16.7248      0.7322764
      2171.0000         1.0081       1935.658          0.672        -65.868        -20.585      0.6620909
      2171.5000         0.9896       2001.549         0.6958       -72.8724       -27.5894      0.5347382
      2172.0000         0.9689       2233.098         0.7197       -87.5286       -42.2456      0.2682618
      2172.5000          0.944       2334.957         0.7435       -95.3165       -50.0335      0.1266636
      2173.0000         0.9214       2414.246         0.7673       -97.5309       -52.2479     0.08640185
      2173.5000         0.9098        2470.59         0.8091         -99.55        -54.267     0.04969094
      2174.0000         0.9281       2485.742         0.8556       -100.189        -54.906     0.03807276
      2174.5000         0.9634       2466.352         0.9022        -99.835        -54.552     0.04450912
      2175.0000         0.9986        2488.16         0.9288       -98.8218       -53.5388     0.06293092
      2175.5000         1.0335       2509.973         0.9536       -97.8086       -52.5256     0.08135272
      2176.0000         1.0679       2519.043         0.9785       -96.7954       -51.5124     0.09977452
      2176.5000         1.1023        2492.66         0.9188       -95.7822       -50.4992      0.1181964
      2177.0000         1.1401       2460.379          0.733       -95.6802       -50.3972      0.1200509
      2177.5000         1.1975       2419.695         0.5227       -97.0554       -51.7724     0.09504727
