#------------------------------------------------------------------------------
# Created by    : vladimir.rabinovich
# Created on    : 09/19/2023 17:20:09
#------------------------------------------------------------------------------
~Version Information Section
VERS.           2.0     :   CWLS log ASCII Standard - VERSION 2.0
WRAP.           NO      :   One line per depth step
~Well Information Section
#MNEM       .UNIT                                         VALUE :DESCRIPTION
#------------------------------------------------------------------------------
STRT        .FT                                            1853 :START DEPTH
STOP        .FT                                            6238 :STOP DEPTH
STEP        .FT                                             0.5 :STEP      
NULL        .                                           -999.25 :NULL      
COMP        .               LOUISIANA LAND & EXPLORATION CO THE :COMPANY   
WELL        .                                          SL 79258 :WELL      
FLD         .                                           WILDCAT :FIELD     
LOC         .                                                   :LOCATION  
CNTY        .                      MATAGORDA ISLAND LARGE BLOCK :LOCATION  
STAT        .                                             TEXAS :STATE     
CTRY        .                                     UNITED STATES :COUNTRY   
SRVC        .                                                   :SERVICE COMPANY
DATE        .                             9/13/2023 11:12:01 AM :LOG DATE  
API         .                                    42703301870000 :API NUMBER
UWI         .                                    42703301870000 :UNIQUE WELL ID
XCOORD      .                                  470651.272343367 :SURFACE X 
YCOORD      .                                  10209272.4173218 :SURFACE Y 
LAT         .                                        28.0852496 :LATITUDE  
LON         .                                       -96.6277134 :LONGITUDE 
ELEV        .FT                                              82 :ELEVATION VALUE
ELEV_TYPE   .                                                KB :ELEVATION REFERENCE TYPE
~Curve Information Section
#MNEM       .UNIT                                      API CODE :CURVE DESCRIPTION
#------------------------------------------------------------------------------
DEPT        .FT                                                 :DEPTH     
ASFL        .OHMM                                               :          
CILD        .MMHO                                               :          
ILD         .OHMM                                               :          
SP          .MV                                                 :          
SP_NORM     .MV                                                 :SP Normalized
VSH_SP      .V/V                                                :Volume of Shale from SP
~A        DEPTH           ASFL           CILD            ILD             SP        SP_NORM         VSH_SP
# ...
      2157.0000         0.8603       2654.297         0.4241       -90.1691      -41.69259     0.05366063
      2157.5000         0.8579        2656.43         0.4162       -90.6127      -42.14606     0.04311486
      2158.0000         0.8526       2638.559         0.4083       -91.1421      -42.68532     0.03057391
      2158.5000         0.8474       2620.688         0.4004       -91.9802      -43.53329      0.0108537
      2159.0000         0.8369        2602.82         0.3985       -91.3242      -42.88716     0.02588006
      2159.5000         0.8258       2595.906         0.3999       -89.9465      -41.51933     0.05769011
      2160.0000         0.8147       2599.602         0.4013       -88.1694      -39.75209      0.0987886
      2160.5000         0.8015       2570.539         0.4028       -86.8047      -38.39725      0.1302964
      2161.0000         0.7824       2527.539         0.4042       -85.8972      -37.49962      0.1511717
      2161.5000         0.7622       2476.969         0.4056       -84.9902      -36.60248      0.1720353
      2162.0000         0.7713       2465.223         0.4064       -83.4458      -35.06795      0.2077221
      2162.5000         0.7896        2537.43         0.4035       -82.2191      -33.85112      0.2360206
      2163.0000         0.8079       2562.441         0.4006       -81.9996      -33.64148      0.2408957
      2163.5000         0.8262       2594.742         0.3977       -83.9266      -35.57835      0.1958524
      2164.0000         0.8445       2633.023         0.3948       -86.4561      -38.11771      0.1367974
      2164.5000         0.8622       2675.535         0.3913       -87.1625      -38.83398      0.1201401
      2165.0000         0.8793        2741.41         0.3874       -87.8658      -39.54714      0.1035548
      2165.5000         0.8963        2814.02         0.3834       -88.5222      -40.21341     0.08806024
      2166.0000         0.9129       2882.563         0.3794       -89.3713      -41.07238     0.06808427
      2166.5000         0.9282       2924.996         0.3754       -88.4338      -40.14474     0.08965719
      2167.0000          0.925       2986.637         0.3715        -86.926      -38.64681      0.1244928
      2167.5000         0.9065       3025.262         0.3807       -85.4004      -37.13107      0.1597426
      2168.0000         0.8913       2928.695         0.3898       -84.3279      -36.06844      0.1844548
      2168.5000         0.8762       2833.945          0.399       -83.2803       -35.0307      0.2085884
      2169.0000         0.8611        2755.66         0.4081       -82.2327      -33.99297      0.2327217
      2169.5000         0.8459       2651.281         0.4329       -77.5559      -29.32603       0.341255
      2170.0000         0.8308       2399.223         0.4594       -73.7415       -25.5215      0.4297326
      2170.5000         0.8163       1969.123         0.4859       -71.8051      -23.59497      0.4745356
      2171.0000         0.8155       1859.754         0.5081       -82.1532      -33.95293      0.2336528
      2171.5000          0.846       1925.385         0.5278       -84.1383       -35.9479      0.1872583
      2172.0000         0.8871       2032.715         0.5481       -84.8118      -36.63126      0.1713661
      2172.5000         0.9225       2176.555         0.5316       -85.5087      -37.33803      0.1549296
      2173.0000         0.9153        2276.07          0.515       -86.0361       -37.8753      0.1424349
      2173.5000         0.9082       2348.016         0.4984       -86.5637      -38.41276      0.1299359
      2174.0000          0.901       2416.965         0.4819       -87.0796      -38.93852      0.1177088
      2174.5000         0.8938       2475.742         0.4653       -87.5787      -39.44749      0.1058723
      2175.0000         0.8869       2551.473         0.4554       -88.0779      -39.95656     0.09403344
      2175.5000         0.8804       2638.293          0.449       -88.5758      -40.46432     0.08222509
      2176.0000         0.8738       2672.289         0.4426       -89.0726      -40.97099     0.07044211
      2176.5000         0.8673       2671.152         0.4361       -89.5695      -41.47776     0.05865683
      2177.0000         0.8608        2664.82         0.4297       -90.0559      -41.97402     0.04711577
      2177.5000         0.8543       2658.496         0.4233       -90.4497      -42.37769     0.03772824
      2178.0000         0.8415       2652.164         0.4184       -90.8434      -42.78125     0.02834302
      2178.5000         0.8273       2642.969         0.4139       -91.3083      -43.25601     0.01730205
      2179.0000         0.8132        2647.25         0.4094       -91.7751      -43.73269    0.006216626
      2179.5000         0.7991       2786.867          0.405       -91.8832      -43.85065    0.003473237
      2180.0000         0.7854       2880.254         0.4005       -91.7993      -43.77662    0.005194996
      2180.5000         0.7739       2926.633          0.396       -91.3901      -43.37728     0.01448192
      2181.0000         0.7625           2973         0.3915        -90.981      -42.97805     0.02376627
      2181.5000         0.7511       3008.457         0.3871       -90.5719      -42.57881     0.03305089
      2182.0000         0.7397       3039.844         0.3833       -90.1591      -42.17588     0.04242139
      2182.5000         0.7283       3071.285         0.3794       -89.6437      -41.67034      0.0541781
      2183.0000         0.7169       3103.254         0.3756       -89.1284      -41.16491     0.06593234
      2183.5000         0.7052       3123.527         0.3718        -88.613      -40.65937     0.07768897
      2184.0000         0.6924       3127.836         0.3679       -88.0804      -40.13664     0.08984561
      2184.5000         0.6796       3132.141         0.3641       -88.3257       -40.3918     0.08391154
      2185.0000         0.6671       3136.449         0.3602       -88.6627      -40.73867     0.07584497
      2185.5000         0.6582       3140.754         0.3564       -89.0605      -41.14634      0.0663642
      2186.0000         0.6494       3143.766         0.3526       -89.4583        -41.554      0.0568837
      2186.5000         0.6439       3146.477         0.3522       -89.9056      -42.01117     0.04625187
      2187.0000         0.6414       3149.191         0.3518        -90.359      -42.47443     0.03547828
      2187.5000         0.6473       3151.902         0.3514       -90.8123       -42.9376       0.024707
      2188.0000         0.6536       3154.617          0.351       -91.5229      -43.65807     0.00795187
      2188.5000         0.6533       3163.785         0.3506       -92.2904      -44.43543              0
      2189.0000         0.6531       3174.773         0.3502       -91.4647      -43.61959    0.008846638
      2189.5000         0.6528       3185.758         0.3498       -90.5697      -42.73446      0.0294311
      2190.0000         0.6512       3196.746         0.3519        -89.038      -41.21263     0.06482253
      2190.5000         0.6476       3118.488         0.3598       -86.9908      -39.17529      0.1122025
      2191.0000          0.644       3053.496         0.3677       -85.0885      -37.28286      0.1562126
      2191.5000         0.6403       3020.176         0.3756       -78.3721      -30.57632      0.3121785
      2192.0000         0.6393       2986.844         0.3836       -77.1411      -29.35519       0.340577
      2192.5000         0.6424        2935.23         0.3905       -76.1033      -28.32726      0.3644823
      2193.0000         0.6455       2787.555         0.3967       -75.3861      -27.61992       0.380932
      2193.5000         0.6581       2696.406          0.403       -74.6686      -26.91229      0.3973886
      2194.0000         0.6716       2632.016         0.4092       -73.1448      -25.39835      0.4325965
      2194.5000         0.6851       2478.813         0.4154        -71.155      -23.41842      0.4786414
