#------------------------------------------------------------------------------
# Created by    : vladimir.rabinovich
# Created on    : 09/19/2023 17:20:09
#------------------------------------------------------------------------------
~Version Information Section
VERS.           2.0     :   CWLS log ASCII Standard - VERSION 2.0
WRAP.           NO      :   One line per depth step
~Well Information Section
#MNEM       .UNIT                                         VALUE :DESCRIPTION
#------------------------------------------------------------------------------
STRT        .FT                                            1853 :START DEPTH
STOP        .FT                                            6238 :STOP DEPTH
STEP        .FT                                             0.5 :STEP      
NULL        .                                           -999.25 :NULL      
COMP        .               LOUISIANA LAND & EXPLORATION CO THE :COMPANY   
WELL        .                                          SL 79258 :WELL      
FLD         .                                           WILDCAT :FIELD     
LOC         .                                                   :LOCATION  
CNTY        .                      MATAGORDA ISLAND LARGE BLOCK :LOCATION  
STAT        .                                             TEXAS :STATE     
CTRY        .                                     UNITED STATES :COUNTRY   
SRVC        .                                                   :SERVICE COMPANY
DATE        .                             9/13/2023 11:12:01 AM :LOG DATE  
API         .                                    42703301870000 :API NUMBER
UWI         .                                    42703301870000 :UNIQUE WELL ID
XCOORD      .                                  470651.272343367 :SURFACE X 
YCOORD      .                                  10209272.4173218 :SURFACE Y 
LAT         .                                        28.0852496 :LATITUDE  
LON         .                                       -96.6277134 :LONGITUDE 
ELEV        .FT                                              82 :ELEVATION VALUE
ELEV_TYPE   .                                                KB :ELEVATION REFERENCE TYPE
~Curve Information Section
#MNEM       .UNIT                                      API CODE :CURVE DESCRIPTION
#------------------------------------------------------------------------------
DEPT        .FT                                                 :DEPTH     
ASFL        .OHMM                                               :          
CILD        .MMHO                                               :          
ILD         .OHMM                                               :          
SP          .MV                                                 :          
SP_NORM     .MV                                                 :SP Normalized
VSH_SP      .V/V                                                :Volume of Shale from SP
~A        DEPTH           ASFL           CILD            ILD             SP        SP_NORM         VSH_SP
# ...
      2727.0000         1.2431       736.9805         1.2917       -41.0646      -0.923893              1
      2727.5000         1.2241         733.79          1.304       -40.5102     -0.3807907              1
      2728.0000         1.2052       730.6006         1.3118       -40.2059    -0.08778381              1
      2728.5000         1.1893       732.5713         1.2727       -39.9136      0.1932144              1
      2729.0000         1.1781       736.0908         1.2336       -39.8897      0.2058182              1
      2729.5000          1.167       744.5068         1.1886       -40.5139     -0.4296799              1
      2730.0000         1.1554       760.6016         1.1275       -41.0042     -0.9312744              1
      2730.5000         1.1333       777.5986         1.0664        -41.467      -1.405373      0.9909917
      2731.0000         1.1112       802.1025         0.9568       -46.4836       -6.43327      0.8792607
      2731.5000         1.0842       828.1123         0.8239       -56.9097      -16.87067      0.6473185
      2732.0000         1.0537       857.0937         0.6888       -59.4887      -19.46096      0.5897564
      2732.5000         0.9945       927.9219         0.5766       -64.4447      -24.42826      0.4793719
      2733.0000         0.9055       1074.713         0.5224       -68.5094      -28.50426      0.3887943
      2733.5000         0.8636       1479.113         0.4925       -75.0631      -35.06926      0.2429053
      2734.0000         0.8223       1630.426         0.4626       -78.7111      -38.72855      0.1615877
      2734.5000          0.782       1805.918         0.4388       -81.4468      -41.47555      0.1005433
      2735.0000         0.7466       1944.748         0.4181       -83.7941      -43.83415     0.04813004
      2735.5000         0.7065       2634.328         0.3974       -85.3887      -45.44005     0.01244337
      2736.0000         0.6368       3480.086         0.3816       -86.2905      -46.35314              0
      2736.5000         0.6121       3567.656         0.3735       -86.1401      -46.21404              0
      2737.0000         0.5954        3619.75         0.3654        -84.951      -45.03624     0.02141698
      2737.5000         0.6082           3667         0.3574       -84.0439      -44.14043     0.04132368
      2738.0000         0.6224       3733.344         0.3493        -83.218      -43.32584     0.05942586
      2738.5000          0.646        3738.43         0.3412        -82.392      -42.51113      0.0775305
      2739.0000         0.6683       3673.242         0.3351       -81.6372      -41.76763     0.09405272
      2739.5000         0.6576       3558.715         0.3326       -81.0828      -41.22453      0.1061217
      2740.0000          0.647       3446.914         0.3301        -80.528      -40.68102      0.1181995
      2740.5000         0.6297       3369.563         0.3276       -79.9713      -40.13562      0.1303196
      2741.0000         0.6106       3285.082         0.3251       -79.3864      -39.56202      0.1430663
      2741.5000         0.5916       3266.113         0.3226       -78.8014      -38.98832      0.1558152
      2742.0000         0.5726       3278.211         0.3201       -78.2164      -38.41461      0.1685642
      2742.5000         0.5504       3292.223         0.3194       -77.2058      -37.41531      0.1907708
      2743.0000         0.5318       3306.234         0.3235       -76.7557      -36.97651      0.2005221
      2743.5000         0.5448        3320.25         0.3276       -78.0059        -38.238      0.1724888
      2744.0000         0.5578       3334.262         0.3317       -78.5665       -38.8099        0.15978
      2744.5000         0.5708       3348.277         0.3358       -79.1272       -39.3819       0.147069
      2745.0000         0.5838       3362.289         0.3399       -79.6877      -39.95369      0.1343624
      2745.5000         0.6078       3375.488          0.344        -80.248       -40.5253      0.1216601
      2746.0000          0.594       3388.145         0.3481       -80.8352      -41.12379      0.1083603
      2746.5000         0.5798       3400.805         0.3511       -81.6067      -41.90659     0.09096476
      2747.0000         0.5659       3413.457         0.3497       -82.3782      -42.68938     0.07356932
      2747.5000          0.552       3426.117         0.3483       -83.5598      -43.88228     0.04706039
      2748.0000         0.5395       3438.109         0.3469       -82.4792      -42.81298     0.07082265
      2748.5000         0.5507       3449.781         0.3455       -81.3981      -41.74318     0.09459601
      2749.0000         0.5743       3448.363         0.3441       -80.3169      -40.67328      0.1183716
      2749.5000         0.6066       3394.254         0.3426       -75.4613      -35.82898      0.2260228
      2750.0000         0.6447       3266.309          0.341       -75.8336      -36.21257      0.2174984
      2750.5000         0.6596       3159.449         0.3388       -77.6139      -38.00417      0.1776852
      2751.0000         0.6471       3094.234         0.3367       -78.1877      -38.58926       0.164683
      2751.5000         0.6346       3029.367         0.3345       -78.6044      -39.01726       0.155172
      2752.0000         0.6221        2968.82         0.3324       -79.0211      -39.44526      0.1456608
      2752.5000         0.6097       2946.238         0.3302       -79.4379      -39.87335      0.1361477
      2753.0000         0.5994       2976.391         0.3282       -79.8164      -40.26315      0.1274855
      2753.5000         0.5892       3097.945         0.3287       -80.0385      -40.49655      0.1222989
      2754.0000         0.5789       3334.965         0.3292       -80.2604      -40.72975      0.1171167
      2754.5000         0.5687       3399.293         0.3297       -80.4824      -40.96304      0.1119324
      2755.0000         0.5588       3442.516         0.3303       -80.7921      -41.28404      0.1047991
      2755.5000         0.5492       3482.418         0.3305       -80.0031      -40.50634      0.1220814
      2756.0000         0.5445       3538.441          0.328       -76.6633      -37.17784      0.1960481
      2756.5000         0.5448       3486.105         0.3256       -73.4993      -34.02514      0.2661081
      2757.0000          0.566       3433.766         0.3232       -71.5027      -32.03983      0.3102259
      2757.5000         0.6064       3378.801         0.3208       -75.1605      -35.70893      0.2286904
      2758.0000         0.6443       3303.363         0.3184       -77.7587      -38.31842      0.1707017
      2758.5000         0.6814       3255.523         0.3186       -79.4261      -39.99713      0.1333972
      2759.0000         0.7143       3254.516         0.3206       -80.3798      -40.96212      0.1119529
      2759.5000          0.746       3278.559         0.3225       -80.1696      -40.76322      0.1163729
      2760.0000         0.7613       3302.602         0.3245       -79.6389      -40.24382      0.1279152
      2760.5000         0.7148       3402.145         0.3264       -79.2168      -39.83301      0.1370442
      2761.0000         0.6608        3467.48         0.3325       -78.8586      -39.48611      0.1447532
      2761.5000         0.6158       3520.406         0.3486       -78.5603      -39.19911      0.1511308
      2762.0000         0.5892       3701.621         0.3647        -78.262      -38.91211      0.1575088
      2762.5000         0.5723       3434.871         0.3807       -77.0677      -37.72911      0.1837976
      2763.0000         0.5975       3269.945         0.4043       -76.3986       -37.0713      0.1984156
      2763.5000         0.6339       3044.672         0.4312       -75.2943      -35.97829      0.2227046
      2764.0000         0.6781       2904.125          0.458       -68.1321       -28.8274      0.3816133
      2764.5000         0.7222       2768.781         0.5184       -56.7543      -17.46089      0.6342024
