#------------------------------------------------------------------------------
# Created by    : vladimir.rabinovich
# Created on    : 09/19/2023 17:20:54
#------------------------------------------------------------------------------
~Version Information Section
VERS.           2.0     :   CWLS log ASCII Standard - VERSION 2.0
WRAP.           NO      :   One line per depth step
~Well Information Section
#MNEM       .UNIT                                         VALUE :DESCRIPTION
#------------------------------------------------------------------------------
STRT        .FT                                            2835 :START DEPTH
STOP        .FT                                            6351 :STOP DEPTH
STEP        .FT                                             0.5 :STEP      
NULL        .                                           -999.25 :NULL      
COMP        .                                   PENNZOIL CO INC :COMPANY   
WELL        .                                     ST TR 00659-L :WELL      
FLD         .                                           WILDCAT :FIELD     
LOC         .                                                   :LOCATION  
CNTY        .                      MATAGORDA ISLAND LARGE BLOCK :LOCATION  
STAT        .                                             TEXAS :STATE     
CTRY        .                                     UNITED STATES :COUNTRY   
SRVC        .                                                   :SERVICE COMPANY
DATE        .                             9/13/2023 11:19:13 AM :LOG DATE  
API         .                                    42703300020000 :API NUMBER
UWI         .                                    42703300020000 :UNIQUE WELL ID
XCOORD      .                                  437819.375414617 :SURFACE X 
YCOORD      .                                  10187782.3810297 :SURFACE Y 
LAT         .                                        28.0235144 :LATITUDE  
LON         .                                       -96.7273206 :LONGITUDE 
ELEV        .FT                                              73 :ELEVATION VALUE
ELEV_TYPE   .                                                KB :ELEVATION REFERENCE TYPE
~Curve Information Section
#MNEM       .UNIT                                      API CODE :CURVE DESCRIPTION
#------------------------------------------------------------------------------
DEPT        .FT                                                 :DEPTH     
ASN         .OHMM                                               :          
CILD        .MMHO                                               :          
ILD         .OHMM                                               :          
SP          .MV                                                 :          
SP_NORM     .MV                                                 :SP Normalized
VSH_SP      .V/V                                                :Volume of Shale from SP
~A        DEPTH            ASN           CILD            ILD             SP        SP_NORM         VSH_SP
# ...
      4925.0000         1.4765       661.4297          1.503       -49.4859      -1.293129       0.993338
      4925.5000         1.5513       665.8936         1.5061       -51.2005      -3.007729      0.9543698
      4926.0000         1.5846       676.0684         1.5092       -52.5571      -4.364326       0.923538
      4926.5000         1.5987          687.5         1.4899       -53.7022       -5.50943       0.897513
      4927.0000         1.6026       708.3418         1.4644       -54.6014      -6.408627      0.8770767
      4927.5000         1.6062       730.9805         1.4389       -55.8586      -7.665829      0.8485039
      4928.0000         1.6061       762.4551         1.3917       -57.4492      -9.256428      0.8123539
      4928.5000         1.6057       801.0684         1.3438       -58.9561      -10.76333      0.7781062
      4929.0000         1.6021       841.7031         1.2939       -59.5924      -11.39963      0.7636448
      4929.5000         1.5958       881.4395         1.2424       -60.1656      -11.97283      0.7506176
      4930.0000         1.5872        917.457         1.0758       -60.8589      -12.66613      0.7348608
      4930.5000         1.5661       962.3604         0.9992       -61.5779      -13.38513      0.7185198
      4931.0000         1.5284       1046.275         0.9588        -57.682      -9.489227       0.807063
      4931.5000         1.3339       1099.789         0.9336       -56.4893      -8.296528      0.8341698
      4932.0000         1.1291       1128.768         0.9085       -55.5013      -7.308529      0.8566244
      4932.5000         1.0496       1152.531         0.8774       -54.6459      -6.453129      0.8760653
      4933.0000         1.0227       1177.266         0.8433        -53.788      -5.595226      0.8955631
      4933.5000         0.9982       1184.525         0.8334       -52.9125      -4.719727      0.9154608
      4934.0000         0.9804       1189.578         0.8357       -52.0371       -3.84433      0.9353561
      4934.5000         0.9669       1191.723         0.8502       -51.2136      -3.020828      0.9540721
      4935.0000         0.9563       1192.594         0.8645       -50.4083      -2.215527      0.9723744
      4935.5000         0.9432       1186.869         0.8783       -49.6799      -1.487129      0.9889289
      4936.0000         0.9389       1180.398          0.892       -49.0667     -0.8739281              1
      4936.5000         0.9374       1173.928         0.9057       -48.8539      -0.661129              1
      4937.0000         0.9379       1153.654         0.9226       -49.1661     -0.9733276              1
      4937.5000         0.9384       1132.313         0.9426       -49.4787      -1.285927      0.9935017
      4938.0000         0.9383       1094.549         0.9627        -49.791      -1.598228      0.9864039
      4938.5000         0.9352       1044.154         0.9827       -50.1032      -1.910427      0.9793085
      4939.0000         0.9588       1005.966         1.0091       -50.5131      -2.320328      0.9699926
      4939.5000           1.03       965.0557         1.0415       -50.9264      -2.733627      0.9605994
      4940.0000         1.0719       926.1436         1.0739       -51.3397      -3.146927      0.9512062
      4940.5000         1.1047       898.2627         1.1063       -51.0791       -2.88633      0.9571289
      4941.0000         1.1295       877.7207         1.1387       -49.2081      -1.015327      0.9996517
      4941.5000         1.1516       860.8477         1.1679       -48.1368     0.05597305              1
      4942.0000         1.1672       846.6016         1.1908        -47.593      0.5997734              1
      4942.5000         1.1813       853.5342         1.1525        -47.986      0.2067719              1
      4943.0000         1.1939       871.3311         1.1105       -48.5698     -0.3770294              1
      4943.5000         1.1997       899.3613         1.0685       -49.1543     -0.9615288              1
      4944.0000         1.1768        927.416         1.0266       -49.7381      -1.545326      0.9876062
      4944.5000         1.1289       967.1777         0.9847       -50.4615      -2.268726      0.9711653
      4945.0000         1.0894       1045.326         0.9429       -51.1955      -3.002728      0.9544834
      4945.5000         1.0424       1088.309          0.901       -51.9094      -3.716629      0.9382584
      4946.0000         1.0001       1117.361         0.8647       -52.1954      -4.002628      0.9317585
      4946.5000          0.963       1157.197         0.8291       -52.4811      -4.288326      0.9252653
      4947.0000         0.9279       1180.586         0.8943       -51.8087      -3.615929       0.940547
      4947.5000         0.9138        1192.99         0.9171       -50.7424      -2.549629      0.9647812
      4948.0000         0.9385       1169.129         0.9345       -49.5811      -1.388329      0.9911743
      4948.5000         0.9507       1140.475         0.9519       -48.6099     -0.4171295              1
      4949.0000         0.9595       1095.248         0.9693       -48.0223      0.1704712              1
      4949.5000         0.9683           1062         0.9808       -48.1202      0.0725708              1
      4950.0000          0.974       1032.572         0.9796       -48.5479     -0.3551292              1
      4950.5000         0.9795       1013.104         0.9783       -49.0141     -0.8213272              1
      4951.0000         0.9851       1003.376         0.9771        -49.451      -1.258228      0.9941311
      4951.5000           0.99        1003.44         0.9758       -49.5914      -1.398628      0.9909403
      4952.0000          0.994       1005.301         0.9746       -49.7317      -1.538929      0.9877516
      4952.5000         0.9981       1007.162          0.972        -49.872       -1.67923      0.9845629
      4953.0000         1.0021       1013.815          0.959       -50.0123      -1.819527      0.9813744
      4953.5000         0.9957       1027.418          0.946       -49.8232      -1.630428      0.9856721
      4954.0000         0.9894       1044.928          0.933       -49.5759      -1.383129      0.9912925
      4954.5000         0.9831       1080.096         0.9201       -49.3286       -1.13583       0.996913
      4955.0000         0.9719       1114.217         0.9071       -49.0385     -0.8457298              1
      4955.5000         0.9572        1136.73         0.8878       -48.6324     -0.4396286              1
      4956.0000         0.9365       1165.559          0.868       -48.2263    -0.03352737              1
      4956.5000         0.9058       1188.123         0.8715       -48.3158     -0.1230278              1
      4957.0000         0.8886       1197.559         0.8816       -48.6224     -0.4296265              1
      4957.5000         0.8762       1192.566           0.89       -48.9293     -0.7365265              1
      4958.0000         0.8672       1171.688          0.907       -49.2916      -1.098827      0.9977539
      4958.5000         0.9046       1147.912         0.9323       -49.7218       -1.52903      0.9879766
      4959.0000         0.9378       1116.688         0.9576       -49.7766      -1.583828      0.9867312
      4959.5000         0.9644       1085.438         0.9829       -49.2822      -1.089428      0.9979675
      4960.0000         0.9844       1051.543         0.9945       -48.7879     -0.5951271              1
      4960.5000         0.9942       1019.257         1.0006       -48.2407    -0.04792786              1
      4961.0000         1.0039       1002.974         1.0068       -47.6644      0.5283737              1
      4961.5000         1.0111       1000.115          1.013       -47.0881       1.104671              1
      4962.0000         1.0165       997.2607         1.0192       -46.6106       1.582172              1
      4962.5000         1.0218       994.4023         1.0228       -46.3633       1.829472              1
