#------------------------------------------------------------------------------
# Created by    : vladimir.rabinovich
# Created on    : 09/19/2023 17:20:46
#------------------------------------------------------------------------------
~Version Information Section
VERS.           2.0     :   CWLS log ASCII Standard - VERSION 2.0
WRAP.           NO      :   One line per depth step
~Well Information Section
#MNEM       .UNIT                                         VALUE :DESCRIPTION
#------------------------------------------------------------------------------
STRT        .FT                                            1000 :START DEPTH
STOP        .FT                                            6719 :STOP DEPTH
STEP        .FT                                             0.5 :STEP      
NULL        .                                           -999.25 :NULL      
COMP        .                                 CALIFORNIA CO THE :COMPANY   
WELL        .                                     ST TR 00695-L :WELL      
FLD         .                                           WILDCAT :FIELD     
LOC         .                                                   :LOCATION  
CNTY        .                      MATAGORDA ISLAND LARGE BLOCK :LOCATION  
STAT        .                                             TEXAS :STATE     
CTRY        .                                     UNITED STATES :COUNTRY   
SRVC        .                                                   :SERVICE COMPANY
DATE        .                             9/13/2023 11:12:01 AM :LOG DATE  
API         .                                    42703000270000 :API NUMBER
UWI         .                                    42703000270000 :UNIQUE WELL ID
XCOORD      .                                   404842.11633791 :SURFACE X 
YCOORD      .                                  10151340.1845366 :SURFACE Y 
LAT         .                                        27.9206537 :LATITUDE  
LON         .                                       -96.8258101 :LONGITUDE 
ELEV        .FT                                              11 :ELEVATION VALUE
ELEV_TYPE   .                                                KB :ELEVATION REFERENCE TYPE
~Curve Information Section
#MNEM       .UNIT                                      API CODE :CURVE DESCRIPTION
#------------------------------------------------------------------------------
DEPT        .FT                                                 :DEPTH     
ASN         .OHMM                                               :          
CILD        .MMHO                                               :          
ILD         .OHMM                                               :          
SP          .MV                                                 :          
SP_NORM     .MV                                                 :SP Normalized
VSH_SP      .V/V                                                :Volume of Shale from SP
~A        DEPTH            ASN           CILD            ILD             SP        SP_NORM         VSH_SP
# ...
      6320.0000          0.757       1961.965         0.4923       -72.5016       -28.5275      0.6599038
      6320.5000         0.7908       1995.107         0.4899       -77.2421       -33.2718      0.5990795
      6321.0000         0.8176        2006.75         0.5015       -91.2266         -47.26      0.4197436
      6321.5000         0.8444       2014.637         0.5172       -92.8922       -48.9294       0.398341
      6322.0000         0.8712       2002.594         0.5329       -94.5577       -50.5987      0.3769397
      6322.5000          0.898       1912.549         0.5807       -95.8773       -51.9221      0.3599731
      6323.0000         0.9262       1811.521         0.7169       -96.2931       -52.3417      0.3545936
      6323.5000          0.953       1674.758         0.7584       -94.4009       -50.4533      0.3788038
      6324.0000         0.9334       1551.768         0.7994       -92.5112       -48.5674       0.402982
      6324.5000         0.9185       1406.816         0.7881       -90.6216       -46.6815      0.4271603
      6325.0000         0.9157         1579.5         0.7769       -88.0697       -44.1334      0.4598282
      6325.5000         0.9129       2051.141         0.7656       -84.9999       -41.0674      0.4991359
      6326.0000           0.91       2112.234         0.7543       -81.9276       -37.9989      0.5384756
      6326.5000         0.9072       2173.383         0.7431       -74.4063       -30.4814      0.6348538
      6327.0000         0.8613        2237.52         0.7032       -72.9921        -29.071      0.6529359
      6327.5000         0.7683       2324.973          0.591       -74.9889       -31.0715      0.6272885
      6328.0000         0.7455       2412.422         0.4648        -83.053       -39.1394      0.5238538
      6328.5000          0.741       2797.961          0.425        -89.317       -45.4072      0.4434974
      6329.0000         0.7421       2940.816         0.3853       -92.1503       -48.2443      0.4071243
      6329.5000         0.7433       3307.984         0.3455       -94.9811       -51.0789      0.3707833
      6330.0000         0.7445       3463.719         0.3468       -97.6487       -53.7503      0.3365346
      6330.5000         0.7456       3561.801         0.3614       -98.9421       -55.0475      0.3199039
      6331.0000         0.7427       3450.539         0.3761      -100.2368       -56.3459      0.3032577
      6331.5000         0.7336       2650.313         0.3907      -101.5302       -57.6431      0.2866269
      6332.0000         0.7244       2125.414         0.4054      -102.7925       -58.9092      0.2703949
      6332.5000         0.7152       2026.656         0.4495      -103.9974       -60.1179      0.2548987
      6333.0000         0.7278       2005.719         0.5461       -105.027       -61.1513        0.24165
      6333.5000         0.7734        1984.75         0.6244       -94.7047       -50.8328      0.3739384
      6334.0000         0.8177       1963.813         0.7026       -82.7941       -38.9259       0.526591
      6334.5000         0.8587       1262.963         0.7808       -77.5482       -33.6838      0.5937974
      6335.0000         0.8925       1179.506         0.8448       -74.4436        -30.583      0.6335513
      6335.5000         0.8959       1119.809         0.8864       -73.9724       -30.1156      0.6395436
      6336.0000         0.8974       1078.131         0.9089       -74.6041       -30.7511      0.6313962
      6336.5000         0.9791       1173.416         0.8808        -75.236       -31.3868      0.6232461
      6337.0000         1.2647       1274.844         0.8275       -75.8677       -32.0223      0.6150987
      6337.5000         1.6131        1530.75         0.7741       -76.4995       -32.6578      0.6069513
      6338.0000            1.8         1788.5         0.7207       -77.1312       -33.2933      0.5988038
      6338.5000         1.9006         2046.5         0.6674       -78.1407       -34.3066      0.5858129
      6339.0000         1.9455        2202.98         0.6158        -79.347       -35.5167      0.5702987
      6339.5000         1.7817       2269.367         0.5693       -80.7151       -36.8886      0.5527102
      6340.0000         1.5091       2335.754         0.5228       -83.9119       -40.0892      0.5116769
      6340.5000         0.9611       2279.148         0.5123       -87.9427       -44.1238      0.4599513
      6341.0000         0.8856       2056.133         0.5073       -94.2241       -50.4089      0.3793731
      6341.5000         0.8642       1963.688         0.5023       -77.1375       -33.3261      0.5983834
      6342.0000         0.8671       1912.938         0.4974       -73.6718       -29.8642      0.6427667
      6342.5000           0.87        1862.25         0.4924       -70.1763       -26.3725      0.6875321
      6343.0000         0.8729       1811.563         0.5202        -63.484        -19.684      0.7732821
      6343.5000         0.8758       1760.311           0.55       -64.3802        -20.584      0.7617436
      6344.0000         0.8787       1689.531         0.5796       -63.8687       -20.0762      0.7682539
      6344.5000         0.8813       1618.854         0.5968       -62.3437        -18.555      0.7877564
      6345.0000         0.8839       1571.684         0.6139       -60.8201       -17.0352       0.807241
      6345.5000         0.8917       1536.744         0.6311        -59.259       -15.4779      0.8272064
      6346.0000         0.9008       1530.092         0.6482       -57.4689       -13.6916      0.8501077
      6346.5000         0.9099       1545.902         0.6475       -55.8145        -12.041      0.8712692
      6347.0000         0.9191       1561.727         0.6437       -55.3604       -11.5907      0.8770423
      6347.5000         0.9203       1573.443           0.64       -55.3776       -11.6116      0.8767744
      6348.0000         0.9194       1583.588         0.6362       -55.3948       -11.6326      0.8765051
      6348.5000         0.9161       1593.734         0.6324        -55.412       -11.6536      0.8762359
      6349.0000         0.9128       1597.189         0.6287       -55.4162       -11.6616      0.8761333
      6349.5000         0.9094        1486.68         0.6271       -54.6176       -10.8668      0.8863231
      6350.0000          0.906       1424.686         0.6308       -53.8116       -10.0646      0.8966077
      6350.5000         0.9036       1372.227         0.6372       -52.9477        -9.2045      0.9076346
      6351.0000         0.9025       1342.303         0.6527        -52.085        -8.3455      0.9186474
      6351.5000         0.9339       1312.379         0.6681       -51.2522        -7.5165      0.9292756
      6352.0000         0.9653       1289.219         0.6836       -50.8663        -7.1344      0.9341744
      6352.5000         0.9799       1272.172         0.6991       -52.4012        -8.6731      0.9144474
      6353.0000         0.9803       1255.152         0.7146       -53.6074        -9.8831      0.8989346
      6353.5000         0.9807       1274.893         0.7301       -54.8137       -11.0932      0.8834205
      6354.0000         0.9811       1316.871         0.7327       -56.0187        -12.302      0.8679231
      6354.5000          0.979       1361.295         0.7261       -57.1553       -13.4423      0.8533038
      6355.0000         0.9756       1397.758         0.7185       -58.1723       -14.4631      0.8402166
      6355.5000         0.9721       1423.639         0.7032       -58.8121       -15.1067      0.8319654
      6356.0000         0.9686       1436.078          0.688       -57.7067       -14.0051      0.8460885
      6356.5000         0.9652       1445.938         0.6728       -56.6013       -12.9035      0.8602116
      6357.0000         0.9565       1455.795         0.6575       -55.4958       -11.8018      0.8743359
      6357.5000         0.9433       1465.652         0.6423       -54.3904       -10.7001      0.8884603
