#------------------------------------------------------------------------------
# Created by    : vladimir.rabinovich
# Created on    : 09/19/2023 17:20:54
#------------------------------------------------------------------------------
~Version Information Section
VERS.           2.0     :   CWLS log ASCII Standard - VERSION 2.0
WRAP.           NO      :   One line per depth step
~Well Information Section
#MNEM       .UNIT                                         VALUE :DESCRIPTION
#------------------------------------------------------------------------------
STRT        .FT                                            2835 :START DEPTH
STOP        .FT                                            6351 :STOP DEPTH
STEP        .FT                                             0.5 :STEP      
NULL        .                                           -999.25 :NULL      
COMP        .                                   PENNZOIL CO INC :COMPANY   
WELL        .                                     ST TR 00659-L :WELL      
FLD         .                                           WILDCAT :FIELD     
LOC         .                                                   :LOCATION  
CNTY        .                      MATAGORDA ISLAND LARGE BLOCK :LOCATION  
STAT        .                                             TEXAS :STATE     
CTRY        .                                     UNITED STATES :COUNTRY   
SRVC        .                                                   :SERVICE COMPANY
DATE        .                             9/13/2023 11:19:13 AM :LOG DATE  
API         .                                    42703300020000 :API NUMBER
UWI         .                                    42703300020000 :UNIQUE WELL ID
XCOORD      .                                  437819.375414617 :SURFACE X 
YCOORD      .                                  10187782.3810297 :SURFACE Y 
LAT         .                                        28.0235144 :LATITUDE  
LON         .                                       -96.7273206 :LONGITUDE 
ELEV        .FT                                              73 :ELEVATION VALUE
ELEV_TYPE   .                                                KB :ELEVATION REFERENCE TYPE
~Curve Information Section
#MNEM       .UNIT                                      API CODE :CURVE DESCRIPTION
#------------------------------------------------------------------------------
DEPT        .FT                                                 :DEPTH     
ASN         .OHMM                                               :          
CILD        .MMHO                                               :          
ILD         .OHMM                                               :          
SP          .MV                                                 :          
SP_NORM     .MV                                                 :SP Normalized
VSH_SP      .V/V                                                :Volume of Shale from SP
~A        DEPTH            ASN           CILD            ILD             SP        SP_NORM         VSH_SP
# ...
      6331.0000         0.9532       1233.809         0.8288       -42.3067      -1.208649       0.995258
      6331.5000         0.9413       1276.836         0.7916       -42.7197      -1.626614      0.9857588
      6332.0000          0.929       1312.412         0.7696       -43.1327      -2.044586      0.9762594
      6332.5000         0.9145       1338.363          0.755       -43.5457      -2.462555      0.9667601
      6333.0000         0.8999       1357.334         0.7459       -43.4715      -2.393326      0.9683335
      6333.5000          0.885       1374.449         0.7368       -43.0569      -1.983692      0.9776434
      6334.0000         0.8696       1387.371         0.7342       -42.5876      -1.519363      0.9881963
      6334.5000         0.8538       1386.969         0.7317       -41.5611     -0.4978333              1
      6335.0000         0.8343       1386.566         0.7292       -41.9037     -0.8454018              1
      6335.5000         0.8198       1390.404         0.7267       -42.2463       -1.19297      0.9956143
      6336.0000           0.82       1395.963         0.7242       -42.5787      -1.530342      0.9879467
      6336.5000         0.8203       1401.529         0.7214        -42.784      -1.740612      0.9831679
      6337.0000         0.8205       1408.504         0.7187       -42.9894      -1.950977      0.9783869
      6337.5000         0.8202       1418.611         0.7159       -43.1948       -2.16135      0.9736057
      6338.0000         0.8199       1428.721         0.7132       -43.2897      -2.261219      0.9713359
      6338.5000         0.8126        1438.83         0.7105       -43.0729      -2.049389      0.9761503
      6339.0000         0.7988       1449.773         0.7077       -42.8564      -1.837856      0.9809578
      6339.5000         0.7802       1461.029          0.705       -42.6396      -1.626026      0.9857721
      6340.0000          0.768       1473.582         0.7025       -42.4228      -1.414196      0.9905865
      6340.5000         0.7582       1487.443         0.7114         -42.22      -1.216366      0.9950826
      6341.0000         0.7697       1418.039         0.7203       -42.0225      -1.023834      0.9994583
      6341.5000            0.8       1362.346         0.7292       -41.8248     -0.8311043              1
      6342.0000         0.8267       1318.867         0.7475       -41.6273     -0.6385765              1
      6342.5000         0.8509       1282.445         0.7677       -41.2598     -0.2760429              1
      6343.0000         0.8747       1258.215         0.7879       -40.8456      0.1331863              1
      6343.5000         0.8902       1240.625         0.8081       -40.8875     0.08631516              1
      6344.0000         0.9055       1227.775         0.8216        -41.024    -0.05515289              1
      6344.5000         0.9193       1214.924         0.8278       -41.1608     -0.1969223              1
      6345.0000         0.9202       1204.416         0.8341       -41.6941     -0.7302437              1
      6345.5000         0.9153        1197.43         0.8403       -42.7579      -1.794044      0.9819536
      6346.0000         0.9085       1191.682         0.8465         -42.98      -2.016144      0.9769058
      6346.5000         0.8972       1190.613         0.8462       -42.5257      -1.561844      0.9872308
      6347.0000         0.8859       1189.545         0.8451       -42.0708      -1.106945      0.9975694
      6347.5000         0.8767       1188.475         0.8441       -41.6165     -0.6526451              1
      6348.0000         0.8697        1187.98          0.843       -41.1622     -0.1983452              1
      6348.5000         0.8639       1189.568         0.8419       -41.0006    -0.03674316              1
      6349.0000         0.8732       1191.156         0.8409       -41.1559     -0.1920433              1
      6349.5000         0.8837       1192.744         0.8401       -41.2999     -0.3360443              1
      6350.0000         0.9055        1194.33         0.8413       -41.4316     -0.4677429              1
      6350.5000         0.9273       1195.918         0.8425       -41.5635     -0.5996437              1
      6351.0000         0.9377       1197.506         0.8438       -41.6952     -0.7313461              1
