#------------------------------------------------------------------------------
# Created by    : vladimir.rabinovich
# Created on    : 09/19/2023 17:20:49
#------------------------------------------------------------------------------
~Version Information Section
VERS.           2.0     :   CWLS log ASCII Standard - VERSION 2.0
WRAP.           NO      :   One line per depth step
~Well Information Section
#MNEM       .UNIT                                         VALUE :DESCRIPTION
#------------------------------------------------------------------------------
STRT        .FT                                             556 :START DEPTH
STOP        .FT                                            7001 :STOP DEPTH
STEP        .FT                                             0.5 :STEP      
NULL        .                                           -999.25 :NULL      
COMP        .                          HUMBLE OIL & REFINING CO :COMPANY   
WELL        .                                     ST TR 00598-L :WELL      
FLD         .                                           WILDCAT :FIELD     
LOC         .                                                   :LOCATION  
CNTY        .                      MATAGORDA ISLAND LARGE BLOCK :LOCATION  
STAT        .                                             TEXAS :STATE     
CTRY        .                                     UNITED STATES :COUNTRY   
SRVC        .                                                   :SERVICE COMPANY
DATE        .                             9/13/2023 11:12:05 AM :LOG DATE  
API         .                                    42703000080000 :API NUMBER
UWI         .                                    42703000080000 :UNIQUE WELL ID
XCOORD      .                                  502144.869554487 :SURFACE X 
YCOORD      .                                  10234432.9570627 :SURFACE Y 
LAT         .                                        28.1568958 :LATITUDE  
LON         .                                       -96.5324651 :LONGITUDE 
ELEV        .FT                                              15 :ELEVATION VALUE
ELEV_TYPE   .                                                KB :ELEVATION REFERENCE TYPE
~Curve Information Section
#MNEM       .UNIT                                      API CODE :CURVE DESCRIPTION
#------------------------------------------------------------------------------
DEPT        .FT                                                 :DEPTH     
ASN         .OHMM                                               :          
CALI        .IN                                                 :          
CILD        .MMHO                                               :          
DT          .US/F                                               :          
ILD         .OHMM                                               :          
SP          .MV                                                 :          
SP_NORM     .MV                                                 :SP Normalized
VSH_SP      .V/V                                                :Volume of Shale from SP
~A        DEPTH            ASN           CALI           CILD             DT            ILD             SP        SP_NORM         VSH_SP
# ...
      3122.5000         1.1157         8.9532       760.5547       100.8813         1.1271       -51.7637        -6.4807      0.7513786
      3123.0000         1.1402         9.0339       771.2646       102.2466         1.1074        -51.897         -6.614      0.7418572
      3123.5000         1.1182          9.105       800.2295       107.8258         1.0876       -52.0304        -6.7474      0.7323286
      3124.0000         1.0489         9.1415       861.6787       111.1788         1.0588       -51.9681        -6.6851      0.7367786
      3124.5000         1.0207         9.2397       935.2568       118.9031         1.0231       -51.7004        -6.4174         0.7559
      3125.0000          0.995          9.635       994.9219        125.951         0.9873       -51.4327        -6.1497      0.7750214
      3125.5000         0.9606        10.1358       1048.154       134.4763         0.9515       -51.1605        -5.8775      0.7944643
      3126.0000         0.9372         10.519        1092.83       143.0269         0.9158       -50.7712        -5.4882      0.8222714
      3126.5000         0.9199        10.7763       1126.916       148.7869           0.88       -50.3818        -5.0988      0.8500857
      3127.0000         0.9059        11.0726       1145.654       150.2651         0.8442       -49.9926        -4.7096      0.8778857
      3127.5000         0.8943        11.3172       1158.168       151.4409         0.8273       -49.6588        -4.3758      0.9017286
      3128.0000         0.8876        11.5018       1170.912        155.676         0.8159       -49.4219        -4.1389        0.91865
      3128.5000          0.879         11.707       1183.658       161.8374         0.8044       -49.1849        -3.9019      0.9355786
      3129.0000         0.8705        11.5404       1208.344       160.1934          0.793       -49.1266        -3.8436      0.9397429
      3129.5000         0.8487        10.0013       1237.906       148.1455         0.7815       -49.2562        -3.9732      0.9304857
      3130.0000         0.8277         9.2124       1260.146       139.7922         0.7701       -49.7543        -4.4713      0.8949071
      3130.5000         0.8194         8.9099       1272.012       125.3645         0.7586       -50.3273        -5.0443      0.8539786
      3131.0000          0.825         9.5697       1258.754       126.7596         0.7471        -51.038         -5.755      0.8032143
      3131.5000         0.8307        10.1405       1245.494       139.8672         0.7429       -51.8624        -6.5794      0.7443286
      3132.0000         0.8303         10.156       1232.736       150.1958         0.7521        -52.679         -7.396          0.686
      3132.5000         0.8276        10.0571       1225.104       162.1326         0.7613       -52.1331        -6.8501      0.7249929
      3133.0000         0.8249        10.0459       1217.471         166.29         0.7705       -51.5872        -6.3042      0.7639857
      3133.5000         0.8234        10.0141       1209.842       165.1143         0.7797        -51.041         -5.758          0.803
      3134.0000         0.8295         9.9299       1170.148       163.2283         0.7888       -50.5692        -5.2862         0.8367
      3134.5000         0.8356         9.4872       1108.553       161.3152          0.798       -50.2375        -4.9545      0.8603929
      3135.0000         0.8418          9.294       1087.572       159.8164         0.8148       -49.9056        -4.6226         0.8841
      3135.5000         0.8542         9.3086        1070.26       162.2148         0.8324        -49.574         -4.291      0.9077857
      3136.0000         0.8674         9.4374       1058.119       159.2288         0.8499       -49.2883        -4.0053      0.9281929
      3136.5000         0.8763         9.5098       1045.973       159.3318         0.8675        -49.123          -3.84           0.94
      3137.0000         0.8798         9.4583       1033.824       159.0032         0.8851       -48.9576        -3.6746      0.9518143
      3137.5000         0.8833         9.2891       1017.491       157.6553         0.9027       -48.8016        -3.5186      0.9629571
      3138.0000         0.8913         9.1895       989.7988       156.8223         0.9232       -48.8605        -3.5775        0.95875
      3138.5000         0.9056         9.2036        948.999        154.231         0.9473       -48.9194        -3.6364      0.9545429
      3139.0000         0.9198         9.2386        913.543       152.8215         0.9714       -48.9547        -3.6717      0.9520214
      3139.5000          0.934         9.4147       870.5059       151.2512         0.9955        -48.914         -3.631      0.9549286
      3140.0000         0.9513          9.541       838.1553       149.8877         1.0197       -48.8732        -3.5902      0.9578429
      3140.5000         0.9687         9.6661       815.5547       146.6506         1.0406       -48.8325        -3.5495        0.96075
      3141.0000         0.9864         9.8507       806.1143       141.4519          1.057       -48.7918        -3.5088      0.9636571
      3141.5000         1.0049        10.4708       802.8926       129.2129         1.0734       -48.8065        -3.5235      0.9626071
      3142.0000         1.0076        12.9517       816.5518       127.8253         1.0825       -48.8342        -3.5512      0.9606286
      3142.5000         0.9923        13.5233       846.5186       130.2373         1.0589       -48.8618        -3.5788      0.9586571
      3143.0000          0.977        13.5052       891.8047       135.3298         1.0353       -48.8893        -3.6063      0.9566929
      3143.5000         0.9617        13.0395       982.3281       144.2822         1.0116       -48.9169        -3.6339      0.9547215
      3144.0000          0.937         12.196       1046.809       148.8755         0.9881       -48.9644        -3.6814      0.9513286
      3144.5000          0.903        11.7285       1073.695       149.2744         0.9649       -49.0118        -3.7288      0.9479429
      3145.0000         0.8765        11.3408       1068.816       151.4771         0.9417       -49.0593        -3.7763        0.94455
      3145.5000         0.8638        11.0702       1063.939       154.3284         0.9186       -49.1068        -3.8238      0.9411572
      3146.0000         0.8675        10.6718       1055.588       156.1025         0.9084       -49.0604        -3.7774      0.9444714
      3146.5000         0.8764        10.4992        1041.82       154.7102          0.902       -48.9478        -3.6648      0.9525143
      3147.0000         0.8852         10.326       1028.055       153.8298         0.8973       -48.8352        -3.5522      0.9605572
      3147.5000         0.8936        10.1461       1014.288       152.7786         0.9011       -48.7226        -3.4396         0.9686
      3148.0000         0.8984         9.9228       1003.806       152.3821         0.9049       -48.5476        -3.2646         0.9811
      3148.5000         0.9032         9.7272        1000.03       153.2664         0.9086        -48.322         -3.039      0.9972143
      3149.0000         0.9062         9.7899       1001.548            153         0.9124       -48.0964        -2.8134              1
      3149.5000         0.9044        10.0419       1014.862       154.6597         0.9161       -47.8708        -2.5878              1
      3150.0000         0.9026        10.3701       1028.176       156.0249         0.9199       -47.6804        -2.3974              1
      3150.5000         0.9009        10.1175       1040.451       157.7761         0.9236       -47.5732        -2.2902              1
      3151.0000         0.8991         9.8094       1044.447       159.7778         0.9274       -47.7657        -2.4827              1
      3151.5000         0.9014         9.6561       1048.443       159.3486         0.9312       -47.9976        -2.7146              1
