#------------------------------------------------------------------------------
# Created by    : vladimir.rabinovich
# Created on    : 09/19/2023 17:20:45
#------------------------------------------------------------------------------
~Version Information Section
VERS.           2.0     :   CWLS log ASCII Standard - VERSION 2.0
WRAP.           NO      :   One line per depth step
~Well Information Section
#MNEM       .UNIT                                         VALUE :DESCRIPTION
#------------------------------------------------------------------------------
STRT        .FT                                            1401 :START DEPTH
STOP        .FT                                            4951 :STOP DEPTH
STEP        .FT                                             0.5 :STEP      
NULL        .                                           -999.25 :NULL      
COMP        .                      GULF ENERGY EXPLORATION CORP :COMPANY   
WELL        .                                ST TR 00596-L NE/4 :WELL      
FLD         .                        SHERMAN OFFSHORE SOUTHWEST :FIELD     
LOC         .                                                   :LOCATION  
CNTY        .                      MATAGORDA ISLAND LARGE BLOCK :LOCATION  
STAT        .                                             TEXAS :STATE     
CTRY        .                                     UNITED STATES :COUNTRY   
SRVC        .                                                   :SERVICE COMPANY
DATE        .                             9/13/2023 11:12:01 AM :LOG DATE  
API         .                                    42703301240000 :API NUMBER
UWI         .                                    42703301240000 :UNIQUE WELL ID
XCOORD      .                                    480210.3272994 :SURFACE X 
YCOORD      .                                  10243409.1849528 :SURFACE Y 
LAT         .                                        28.1797739 :LATITUDE  
LON         .                                       -96.6012532 :LONGITUDE 
ELEV        .FT                                              82 :ELEVATION VALUE
ELEV_TYPE   .                                                KB :ELEVATION REFERENCE TYPE
~Curve Information Section
#MNEM       .UNIT                                      API CODE :CURVE DESCRIPTION
#------------------------------------------------------------------------------
DEPT        .FT                                                 :DEPTH     
ASN         .OHMM                                               :          
CILD        .MMHO                                               :          
ILD         .OHMM                                               :          
SP          .MV                                                 :          
SP_NORM     .MV                                                 :SP Normalized
VSH_SP      .V/V                                                :Volume of Shale from SP
~A        DEPTH            ASN           CILD            ILD             SP        SP_NORM         VSH_SP
# ...
      2351.0000         0.7983       3806.314         0.2427       -58.6813       -39.8134              0
      2351.5000         0.7984       3985.657         0.2525       -56.1169        -37.249     0.04863887
      2352.0000         0.8004       4001.699         0.2632       -53.5526       -34.6847      0.1198694
      2352.5000         0.8044       3977.607         0.2747       -50.9883       -32.1204         0.1911
      2353.0000         0.8104       3728.436         0.2873        -48.424       -29.5561      0.2623305
      2353.5000         0.8224       3479.265         0.3012       -45.8597       -26.9918      0.3335611
      2354.0000         0.8343       3230.093         0.3164       -43.0836       -24.2157       0.410675
      2354.5000         0.8363       2980.922         0.3333       -43.8752       -25.0073      0.3886861
      2355.0000         0.8971        2731.75          0.352       -45.9104       -27.0425      0.3321528
      2355.5000         0.9579       2482.579          0.373       -47.9456       -29.0777      0.2756194
      2356.0000         1.0187       2167.211         0.3967       -49.9808       -31.1129      0.2190861
      2356.5000         1.0795       2175.133         0.4597        -52.016       -33.1481      0.1625527
      2357.0000         1.1403       2265.751         0.4414       -53.9764       -35.1085      0.1080972
      2357.5000         1.2011       2356.369         0.4244       -54.3696       -35.5017     0.09717496
      2358.0000         1.2435       2446.987         0.4087       -54.4652       -35.5973     0.09451941
      2358.5000         1.2435       2537.605         0.4033       -54.6601       -35.7922     0.08910561
      2359.0000         1.2125       2628.223         0.3836       -55.5491       -36.6812     0.06441116
      2359.5000         1.1815       2718.841         0.3738       -56.6364       -37.7685      0.0342083
      2360.0000         1.1505       2809.459         0.3542       -57.1288       -38.2609     0.02053059
      2360.5000         1.1195       2900.077         0.3247       -57.3253       -38.4574     0.01507219
      2361.0000         1.0929       2990.695         0.3052       -57.5202       -38.6523    0.009658284
      2361.5000         1.0731       3081.313         0.2955       -57.5167       -38.6488    0.009755558
      2362.0000         1.0403       3139.171         0.2958       -56.5924       -37.7245     0.03543059
      2362.5000         1.0074       3139.149         0.3061       -55.6681       -36.8002     0.06110552
      2363.0000           0.98       3104.428         0.3263       -54.7439        -35.876     0.08677779
      2363.5000          0.992       3069.708         0.3265       -53.8196       -34.9517      0.1124528
      2364.0000         1.0041       3034.987         0.3268        -53.033       -34.1651      0.1343028
      2364.5000         1.0161       2984.181         0.3172       -54.2052       -35.3373      0.1017417
      2365.0000         1.0238       2988.107         0.3075       -55.3774       -36.5095     0.06918059
      2365.5000         1.0069       3064.231         0.2979       -56.5495       -37.6816     0.03662226
      2366.0000           0.99       3140.354         0.2982       -57.7217       -38.8538    0.004061063
      2366.5000         0.9731       3216.479         0.2775       -58.9673       -40.0994              0
      2367.0000         0.9562       3292.602         0.2762       -59.2631       -40.3952              0
      2367.5000         0.9393       3368.726         0.2751       -59.5571       -40.6892              0
      2368.0000         0.9209        3444.85         0.2704       -59.6527       -40.7848              0
      2368.5000          0.915       3520.974         0.2658         -59.55       -40.6821              0
      2369.0000         0.9011       3614.656         0.2614       -59.3482       -40.4803              0
      2369.5000          0.868       3626.533         0.2551       -56.9927       -38.1248     0.02431107
      2370.0000         0.8349       3630.475         0.2645       -54.6373       -35.7694     0.08973885
      2370.5000          0.816       3405.997         0.2746       -52.2818       -33.4139      0.1551695
      2371.0000          0.814       3181.518         0.2855       -49.8087       -30.9408      0.2238667
      2371.5000          0.816       2876.439         0.2974       -49.6086       -30.7407       0.229425
      2372.0000          0.818       2832.801         0.3102       -48.7108       -29.8429      0.2543639
      2372.5000         0.8375        2609.48         0.3243        -48.509       -29.6411      0.2599694
      2373.0000         0.8569       2416.129         0.3396       -48.4063       -29.5384      0.2628222
      2373.5000         0.8764       2400.228         0.3565       -48.4028       -29.5349      0.2629194
      2374.0000         0.8958       2388.293         0.3751       -49.0934       -30.2255      0.2437361
      2374.5000         0.9153       2372.392         0.3976       -49.4866       -30.6187      0.2328139
      2375.0000         0.9347       2344.575         0.4123       -49.6814       -30.8135      0.2274028
      2375.5000         0.9593       2344.542         0.4026       -49.3804       -30.5125      0.2357639
      2376.0000         0.9553        2356.44         0.3929       -48.8828       -30.0149      0.2495861
      2376.5000         0.9453       2465.753         0.3734       -47.4753       -28.6074      0.2886833
      2377.0000         0.9316       2575.067         0.3538       -46.8907       -28.0228      0.3049222
      2377.5000         0.9316       2684.381         0.3442       -48.3763       -29.5084      0.2636555
      2378.0000         0.9462       2793.695         0.3246       -49.8619        -30.994      0.2223889
      2378.5000         0.9608       2903.009         0.2952       -51.3476       -32.4797      0.1811195
      2379.0000         0.9754       3012.323         0.2954       -52.8332       -33.9653      0.1398527
      2379.5000           0.99       3121.636         0.2858       -54.9058       -36.0379     0.08228058
      2380.0000         1.0013        3230.95         0.2761        -55.499       -36.6311     0.06580278
      2380.5000         0.9993       3340.264         0.2764        -55.793       -36.9251     0.05763616
      2381.0000         0.9792       3407.207         0.2767       -56.2871       -37.4192     0.04391108
      2381.5000         0.9591       3419.081          0.277       -56.6803       -37.8124     0.03298886
      2382.0000          0.939       3442.804         0.2773       -56.7759        -37.908     0.03033331
      2382.5000         0.9189       3466.576         0.2776       -56.9708       -38.1029      0.0249194
      2383.0000         0.8984       3506.157         0.2778       -57.4631       -38.5952     0.01124446
      2383.5000         0.8925       3553.697         0.2781       -57.0629        -38.195     0.02236112
      2384.0000         0.8866       3617.122         0.2782       -56.8243       -37.9564     0.02898884
      2384.5000         0.8886       3625.003         0.2786       -56.5857       -37.7178     0.03561666
      2385.0000         0.9035       3543.487         0.2789       -56.3564       -37.4885     0.04198615
      2385.5000         0.9224        3461.97         0.2792       -56.0359        -37.168     0.05088891
      2386.0000         0.9264       3380.454         0.2795       -55.7544       -36.8865      0.0587083
      2386.5000         0.9423       3298.938         0.2997       -55.6427       -36.7748     0.06181113
      2387.0000         0.9661       3217.421            0.3       -54.7557       -35.8878     0.08645005
      2387.5000         0.9899       3135.905         0.3102       -55.2426       -36.3747     0.07292504
      2388.0000         1.0136       3054.389         0.3104       -55.7295       -36.8616     0.05940003
      2388.5000         1.0374       2972.872         0.3206       -56.2164       -37.3485     0.04587502
