#------------------------------------------------------------------------------
# Created by    : vladimir.rabinovich
# Created on    : 09/19/2023 17:20:49
#------------------------------------------------------------------------------
~Version Information Section
VERS.           2.0     :   CWLS log ASCII Standard - VERSION 2.0
WRAP.           NO      :   One line per depth step
~Well Information Section
#MNEM       .UNIT                                         VALUE :DESCRIPTION
#------------------------------------------------------------------------------
STRT        .FT                                            2010 :START DEPTH
STOP        .FT                                            6610 :STOP DEPTH
STEP        .FT                                             0.5 :STEP      
NULL        .                                           -999.25 :NULL      
COMP        .                                      SHELL OIL CO :COMPANY   
WELL        .                                ST TR 00691-L SE/4 :WELL      
FLD         .                                           WILDCAT :FIELD     
LOC         .                                                   :LOCATION  
CNTY        .                      MATAGORDA ISLAND LARGE BLOCK :LOCATION  
STAT        .                                             TEXAS :STATE     
CTRY        .                                     UNITED STATES :COUNTRY   
SRVC        .                                                   :SERVICE COMPANY
DATE        .                             9/13/2023 11:12:05 AM :LOG DATE  
API         .                                    42703000190000 :API NUMBER
UWI         .                                    42703000190000 :UNIQUE WELL ID
XCOORD      .                                  412077.623085271 :SURFACE X 
YCOORD      .                                  10154908.2726125 :SURFACE Y 
LAT         .                                        27.9310704 :LATITUDE  
LON         .                                         -96.80379 :LONGITUDE 
ELEV        .FT                                              82 :ELEVATION VALUE
ELEV_TYPE   .                                                DF :ELEVATION REFERENCE TYPE
~Curve Information Section
#MNEM       .UNIT                                      API CODE :CURVE DESCRIPTION
#------------------------------------------------------------------------------
DEPT        .FT                                                 :DEPTH     
ASN         .OHMM                                               :          
CILD        .MMHO                                               :          
ILD         .OHMM                                               :          
SP          .MV                                                 :          
SP_NORM     .MV                                                 :SP Normalized
VSH_SP      .V/V                                                :Volume of Shale from SP
~A        DEPTH            ASN           CILD            ILD             SP        SP_NORM         VSH_SP
# ...
      6266.0000         0.9414       1152.576         0.9153       -52.6158        -10.849      0.8330377
      6266.5000         0.9949       1170.475         0.9093       -50.1892        -8.4362      0.8785623
      6267.0000         1.0612       1175.166         0.9533       -47.8856        -6.1465      0.9217641
      6267.5000         1.1275       1178.463         0.9973       -45.9728        -4.2476      0.9575924
      6268.0000         1.1937       1173.387         1.0412       -44.5297        -2.8184      0.9845585
      6268.5000         1.2601       1168.303         1.0852       -43.6594         -1.962              1
      6269.0000         1.3264       1090.014         1.1193       -43.4777        -1.7942              1
      6269.5000         1.3927       905.5811         1.0914       -46.2679        -4.5983      0.9509755
      6270.0000         1.4589        914.585         1.0636       -50.8702        -9.2145      0.8638774
      6270.5000         1.5253       949.4756         1.0357       -55.5808       -13.9389      0.7747377
      6271.0000         1.5916       984.3164         1.0079        -58.327        -16.699      0.7226604
      6271.5000         1.6232       1022.143         0.9696       -59.3817       -17.7676      0.7024981
      6272.0000         1.5092       1060.557         0.9245       -60.4364       -18.8362      0.6823359
      6272.5000         1.3951        1097.99         0.8794       -61.8562       -20.2699      0.6552849
      6273.0000         1.2809       1133.957         0.8343       -63.3239       -21.7515      0.6273302
      6273.5000         1.1668       1175.258         0.8102         -61.85       -20.2915      0.6548774
      6274.0000         1.0845       1223.264         0.8056       -58.8433       -17.2986      0.7113472
      6274.5000         1.0305       1261.139         0.8093       -57.3817       -15.8509      0.7386622
      6275.0000         0.9873       1295.637         0.8161       -55.9459        -14.429      0.7654906
      6275.5000         0.9674       1305.963         0.8265       -54.5089       -13.0059      0.7923415
      6276.0000         0.9576       1262.654         0.8402       -52.9157       -11.4266      0.8221396
      6276.5000         0.9629       1223.752          0.854       -50.9415        -9.4663      0.8591264
      6277.0000         0.9683        1184.85         0.8677       -48.9673         -7.506      0.8961132
      6277.5000         0.9736       1160.016         0.8814       -47.3926        -5.9451      0.9255642
      6278.0000         0.9789       1135.891         0.8951       -45.9052        -4.4716       0.953366
      6278.5000         0.9924        1133.52         0.9086       -44.6016        -3.1819         0.9777
      6279.0000         1.0088       1131.615          0.919       -44.0005        -2.5947      0.9887792
      6279.5000         1.0253       1129.711         0.9293       -43.3987        -2.0068      0.9998717
      6280.0000         1.0418       1110.494         0.9397        -42.797         -1.419              1
      6280.5000         1.0566        1085.66         0.9501       -43.0872        -1.7231              1
      6281.0000         1.0712       1044.896         0.9605       -43.7823         -2.432      0.9918491
      6281.5000         1.0859         1004.6         0.9708       -44.4768        -3.1404       0.978483
      6282.0000         1.1032       993.7607         0.9762       -45.1713        -3.8488       0.965117
      6282.5000         1.1211       1007.426         0.9747       -45.8665        -4.5579      0.9517378
      6283.0000         1.1397       1016.491         0.9732        -46.561        -5.2663      0.9383717
      6283.5000          1.167       1025.568         0.9717       -47.6311        -6.3503      0.9179189
      6284.0000         1.1943        1027.92         0.9702        -47.116        -5.8491      0.9273755
      6284.5000         1.1677       1025.492         0.9686       -46.1044        -4.8514         0.9462
      6285.0000         1.1349       1026.889         0.9635       -45.1812         -3.942      0.9633585
      6285.5000         1.1032        1035.66         0.9535        -44.258        -3.0327      0.9805151
      6286.0000         1.0921       1045.484         0.9434       -43.3348        -2.1234      0.9976717
      6286.5000         1.1067       1055.309         0.9334       -42.4129        -1.2154              1
      6287.0000         1.1213        1065.51         0.9233       -41.5499        -0.3663              1
      6287.5000         1.0949       1078.686         0.9133       -40.9021         0.2676              1
      6288.0000         1.0616       1091.873         0.9033       -41.1719        -0.0161              1
      6288.5000          1.032       1108.219         0.8951       -41.7257        -0.5837              1
      6289.0000         0.9999       1134.006         0.8879       -42.1947        -1.0666              1
      6289.5000         0.9676       1159.795         0.8808       -42.6126        -1.4984              1
      6290.0000         0.9431       1188.543         0.8736         -43.03        -1.9297              1
      6290.5000         0.9365       1198.773         0.8664       -43.7743        -2.6879      0.9870207
      6291.0000           0.93       1197.166         0.8592       -44.5635         -3.491      0.9718679
      6291.5000         0.9328       1195.557         0.8515       -45.3521        -4.2935      0.9567264
      6292.0000         0.9369       1193.949         0.8431       -46.3256        -5.2808      0.9380981
      6292.5000         0.9533       1192.342         0.8347       -47.9053        -6.8744      0.9080302
      6293.0000         1.0071       1195.113         0.8263       -49.5181        -8.5011      0.8773378
      6293.5000         1.0288         1204.9         0.8179       -51.1874       -10.1843      0.8455793
      6294.0000          1.017       1214.676         0.8092       -52.8568       -11.8676      0.8138189
      6294.5000         1.0023       1229.844         0.8003       -54.0135       -13.0382      0.7917321
      6295.0000         0.9843       1250.568         0.7915       -54.8334        -13.872          0.776
      6295.5000         0.9664       1270.877         0.7826       -53.8708       -12.9233         0.7939
      6296.0000         0.9413        1290.67         0.7738       -52.9096       -11.9759      0.8117755
      6296.5000         0.8896       1308.605         0.7703       -51.9471       -11.0273      0.8296736
      6297.0000         0.8492       1309.186         0.7688       -50.7461        -9.8402      0.8520717
      6297.5000         0.8822       1304.348         0.7673       -49.3201        -8.4281      0.8787151
      6298.0000         0.9052       1296.549         0.7703       -47.8929        -7.0148      0.9053811
      6298.5000         0.9082       1288.744          0.775        -46.467        -5.6028      0.9320226
      6299.0000         0.9022       1279.758         0.7796       -45.7774        -4.9271      0.9447717
      6299.5000         0.8863       1261.922         0.7843       -45.2427        -4.4062         0.9546
      6300.0000          0.863       1255.168         0.7771       -44.7086         -3.886      0.9644151
      6300.5000         0.8433       1294.902         0.7656       -44.4847         -3.676      0.9683774
      6301.0000         0.8237       1334.637          0.754       -44.5417        -3.7469      0.9670396
      6301.5000         0.8087       1374.373         0.7424       -44.5987        -3.8178      0.9657019
      6302.0000          0.795       1414.156         0.7309       -44.6557        -3.8887      0.9643642
      6302.5000         0.7812       1453.891         0.7154       -44.7128        -3.9597      0.9630245
      6303.0000         0.7709       1493.625         0.6968       -44.6089        -3.8696      0.9647245
      6303.5000         0.7619        1533.41         0.6783       -44.3643        -3.6389      0.9690773
