#------------------------------------------------------------------------------
# Created by    : vladimir.rabinovich
# Created on    : 09/19/2023 17:20:45
#------------------------------------------------------------------------------
~Version Information Section
VERS.           2.0     :   CWLS log ASCII Standard - VERSION 2.0
WRAP.           NO      :   One line per depth step
~Well Information Section
#MNEM       .UNIT                                         VALUE :DESCRIPTION
#------------------------------------------------------------------------------
STRT        .FT                                            1401 :START DEPTH
STOP        .FT                                            4951 :STOP DEPTH
STEP        .FT                                             0.5 :STEP      
NULL        .                                           -999.25 :NULL      
COMP        .                      GULF ENERGY EXPLORATION CORP :COMPANY   
WELL        .                                ST TR 00596-L NE/4 :WELL      
FLD         .                        SHERMAN OFFSHORE SOUTHWEST :FIELD     
LOC         .                                                   :LOCATION  
CNTY        .                      MATAGORDA ISLAND LARGE BLOCK :LOCATION  
STAT        .                                             TEXAS :STATE     
CTRY        .                                     UNITED STATES :COUNTRY   
SRVC        .                                                   :SERVICE COMPANY
DATE        .                             9/13/2023 11:12:01 AM :LOG DATE  
API         .                                    42703301240000 :API NUMBER
UWI         .                                    42703301240000 :UNIQUE WELL ID
XCOORD      .                                    480210.3272994 :SURFACE X 
YCOORD      .                                  10243409.1849528 :SURFACE Y 
LAT         .                                        28.1797739 :LATITUDE  
LON         .                                       -96.6012532 :LONGITUDE 
ELEV        .FT                                              82 :ELEVATION VALUE
ELEV_TYPE   .                                                KB :ELEVATION REFERENCE TYPE
~Curve Information Section
#MNEM       .UNIT                                      API CODE :CURVE DESCRIPTION
#------------------------------------------------------------------------------
DEPT        .FT                                                 :DEPTH     
ASN         .OHMM                                               :          
CILD        .MMHO                                               :          
ILD         .OHMM                                               :          
SP          .MV                                                 :          
SP_NORM     .MV                                                 :SP Normalized
VSH_SP      .V/V                                                :Volume of Shale from SP
~A        DEPTH            ASN           CILD            ILD             SP        SP_NORM         VSH_SP
# ...
      3491.0000         2.0587       1015.178          0.985       -63.1702       -48.4194              0
      3491.5000         2.2171         937.18          1.067       -63.0753       -48.3148              0
      3492.0000          2.296       859.1823         1.1639       -62.8815       -48.1114              0
      3492.5000         2.3351       808.8754         1.2363       -62.7865       -48.0067              0
      3493.0000         2.3544       813.0013           1.23       -62.5927       -47.8033     0.00427611
      3493.5000         2.3441       829.0562         1.2062       -62.3989       -47.5998    0.008699997
      3494.0000         2.2938       886.5117          1.128        -62.302       -47.4933     0.01101519
      3494.5000         2.2735       943.9672         1.0594        -61.999       -47.1806     0.01781306
      3495.0000         2.2232       1001.423         0.9986       -61.9145       -47.0865     0.01985873
      3495.5000         2.1129       1058.878         0.9444       -61.6218       -46.7841     0.02643262
      3496.0000         2.0028       1100.143          0.909       -61.2296       -46.3822      0.0351696
      3496.5000         1.9027       1116.205         0.8959       -61.1355       -46.2785     0.03742392
      3497.0000         1.8726       1140.298          0.877       -60.8187        -45.952     0.04452175
      3497.5000         1.8123        1160.26         0.8619       -60.5523        -45.676     0.05052177
      3498.0000         1.6724       1160.416         0.8618       -60.4554       -45.5694     0.05283911
      3498.5000         1.6618       1076.429          0.929         -60.13       -45.2344      0.0601217
      3499.0000         1.9437       992.4421         1.0076       -59.8722       -44.9669     0.06593696
      3499.5000         2.2072       908.4551         1.1008       -59.5797       -44.6648     0.07250438
      3500.0000         2.1966       824.4681         1.2129        -59.386       -44.4614      0.0769261
      3500.5000          2.061       740.4812         1.3505       -59.3056       -44.3714     0.07888263
      3501.0000         1.9316       652.7964         1.5319       -59.3835       -44.4396     0.07739996
      3501.5000         1.8023       565.1116         1.7696       -59.4799       -44.5264     0.07551301
      3502.0000         1.6729       579.5734         1.7254       -59.6752        -44.712     0.07147823
      3502.5000         1.5436       716.9978         1.3947        -59.672       -44.6992     0.07175653
      3503.0000         1.4242       854.4223         1.1704       -59.7694       -44.7869     0.06985001
      3503.5000         1.3849       991.8467         1.0082       -59.8658       -44.8737     0.06796306
      3504.0000         1.3457       1129.271         0.8855       -59.9623       -44.9605     0.06607611
      3504.5000          1.327       1266.696         0.7895       -60.0588       -45.0474     0.06418692
      3505.0000         1.3271        1404.12         0.7122       -60.2541        -45.233     0.06015214
      3505.5000         1.3272       1541.544         0.6487       -60.3505       -45.3198     0.05826519
      3506.0000         1.3293       1722.429         0.5806        -60.447       -45.4066     0.05637824
      3506.5000         1.3394       1726.275         0.5793       -60.6423       -45.5923     0.05234129
      3507.0000         1.3873       1652.857          0.605       -60.7388       -45.6791     0.05045435
      3507.5000         1.4352       1579.439         0.6331       -60.8341       -45.7648     0.04859128
      3508.0000          1.483       1506.021          0.664       -61.0295       -45.9505     0.04455434
      3508.5000         1.5309       1432.603          0.698       -61.1259       -46.0373     0.04266739
      3509.0000         1.5686       1359.185         0.7357       -61.0248       -45.9265     0.04507612
      3509.5000         1.5767       1285.767         0.7777       -60.9248       -45.8169     0.04745873
      3510.0000         1.5848       1212.349         0.8248       -60.8225       -45.7049      0.0498935
      3510.5000         2.1677       1138.931          0.878       -60.7214       -45.5942         0.0523
      3511.0000         2.1776       1065.513         0.9385       -60.4226       -45.2857     0.05900648
      3511.5000         2.3672        967.886         1.0332       -59.6297       -44.4832     0.07645217
      3512.0000          2.557       963.7785         1.0376       -59.2321       -44.0759      0.0853065
      3512.5000         2.7468       901.8815         1.1088        -58.538       -43.3722      0.1006043
      3513.0000         2.9366       839.9846         1.1905       -56.4592       -41.2837      0.1460065
      3513.5000         3.1264       778.0876         1.2852       -56.1615       -40.9764       0.152687
      3514.0000         3.3162       716.1906         1.3963        -53.985       -38.7902      0.2002131
      3514.5000         3.5059       654.2937         1.5284       -51.9073       -36.7029      0.2455891
      3515.0000         3.6637       588.2286         1.9735       -49.0365       -33.8224      0.3082087
      3515.5000         3.3816        584.119         1.9442       -47.8481       -32.6244      0.3342521
      3516.0000         3.0995       773.3103         1.2931       -46.6597       -31.4263      0.3602978
      3516.5000         2.8174       962.5016          1.039       -45.8666       -30.6235        0.37775
      3517.0000         2.5353       1151.693         0.8683       -45.9642       -30.7115      0.3758369
      3517.5000         2.2532       1340.884         0.7458       -46.5547       -31.2923      0.3632109
      3518.0000         1.9711       1530.075         0.6536       -47.2441       -31.9721      0.3484326
      3518.5000         1.6689       1719.267         0.5816       -50.9949       -35.7132      0.2671044
      3519.0000         1.3214       1908.458          0.524       -50.9937       -35.7024      0.2673391
      3519.5000         0.9685       2097.649         0.4767       -50.0694       -34.7684      0.2876435
      3520.0000         0.9705       2252.242          0.444       -49.1452       -33.8346      0.3079435
      3520.5000         0.9955       2252.116          0.444       -48.2209       -32.9006      0.3282478
      3521.0000         1.0204       2164.949         0.4619       -47.2269        -31.897      0.3500652
      3521.5000         1.0453       2077.783         0.4813       -47.1269       -31.7873        0.35245
      3522.0000         1.0702       1990.616         0.5024       -47.1244       -31.7752       0.352713
      3522.5000         1.0951       1903.449         0.5254       -48.0056       -32.6467      0.3337674
      3523.0000           1.12       1813.094         0.5515       -48.8868       -33.5183      0.3148196
      3523.5000         1.1384       1808.861         0.5528        -49.768       -34.3898      0.2467488
      3524.0000         1.1384       1816.949         0.5504       -50.6493       -35.2615      0.2264767
      3524.5000         1.1173       1824.254         0.5482       -51.7566       -36.3591      0.2009512
      3525.0000         1.0961       1874.508         0.5335       -52.3485       -36.9414      0.1874093
      3525.5000          1.075       1924.762         0.5195       -52.7415       -37.3247      0.1784954
      3526.0000         1.0539       1975.016         0.5063       -52.8379       -37.4115      0.1764768
      3526.5000         1.0327        2025.27         0.4938       -52.9344       -37.4983      0.1744582
      3527.0000         1.0116       2075.524         0.4818       -52.8331       -37.3874      0.1770372
      3527.5000         0.9904       2125.778         0.4704       -52.7319       -37.2765      0.1796163
      3528.0000         0.9693       2176.032         0.4596       -52.6306       -37.1656      0.1821954
      3528.5000         0.9482       2226.286         0.4492        -52.826       -37.3513      0.1778768
