#------------------------------------------------------------------------------
# Created by    : vladimir.rabinovich
# Created on    : 09/19/2023 17:20:46
#------------------------------------------------------------------------------
~Version Information Section
VERS.           2.0     :   CWLS log ASCII Standard - VERSION 2.0
WRAP.           NO      :   One line per depth step
~Well Information Section
#MNEM       .UNIT                                         VALUE :DESCRIPTION
#------------------------------------------------------------------------------
STRT        .FT                                             695 :START DEPTH
STOP        .FT                                            9139 :STOP DEPTH
STEP        .FT                                             0.5 :STEP      
NULL        .                                           -999.25 :NULL      
COMP        .                   COASTAL STATES GAS TRANSMISSION :COMPANY   
WELL        .                                     ST TR 00592-L :WELL      
FLD         .                                           WILDCAT :FIELD     
LOC         .                                                   :LOCATION  
CNTY        .                      MATAGORDA ISLAND LARGE BLOCK :LOCATION  
STAT        .                                             TEXAS :STATE     
CTRY        .                                     UNITED STATES :COUNTRY   
SRVC        .                                                   :SERVICE COMPANY
DATE        .                             9/13/2023 11:12:01 AM :LOG DATE  
API         .                                    42703000420000 :API NUMBER
UWI         .                                    42703000420000 :UNIQUE WELL ID
XCOORD      .                                  562172.631053371 :SURFACE X 
YCOORD      .                                   10240692.584136 :SURFACE Y 
LAT         .                                        28.1787665 :LATITUDE  
LON         .                                       -96.3469802 :LONGITUDE 
ELEV        .FT                                              11 :ELEVATION VALUE
ELEV_TYPE   .                                                KB :ELEVATION REFERENCE TYPE
~Curve Information Section
#MNEM       .UNIT                                      API CODE :CURVE DESCRIPTION
#------------------------------------------------------------------------------
DEPT        .FT                                                 :DEPTH     
ASN         .OHMM                                               :          
CALI        .IN                                                 :          
CILD        .MMHO                                               :          
DT          .US/F                                               :          
ILD         .OHMM                                               :          
SP          .MV                                                 :          
SP_NORM     .MV                                                 :SP Normalized
VSH_SP      .V/V                                                :Volume of Shale from SP
~A        DEPTH            ASN           CALI           CILD             DT            ILD             SP        SP_NORM         VSH_SP
# ...
      6300.0000          1.131        10.3645       959.3232       105.8335         0.9525       -39.7806    -0.08003998              1
      6300.5000         1.1342        10.4291       955.2256       106.1304         0.9576        -39.874     -0.1945801              1
      6301.0000         1.1374        10.4923       955.8389       105.9509         0.9628       -39.9673      -0.309021              1
      6301.5000         1.1406        10.5529       956.4512       106.1639         0.9679       -40.0608     -0.4236603              1
      6302.0000         1.1448        10.6136       958.0225          107.4         0.9731       -40.1154     -0.4994011              1
      6302.5000         1.1498        10.6742       964.4961       107.1177         0.9654       -40.1693       -0.57444              1
      6303.0000         1.1548        10.6702       970.9707       105.7341          0.956       -40.2231     -0.6493797              1
      6303.5000         1.1595        10.6507       979.6758       104.5599         0.9467        -40.277     -0.7244225              1
      6304.0000         1.1635        10.6392       991.9824       103.2965         0.9368       -40.3661     -0.8346634              1
      6304.5000         1.1592        10.6308       1009.305       101.7805         0.9259       -40.5994       -1.07629      0.9987069
      6305.0000         1.1394        10.6676       1033.918       101.7235         0.9149       -40.8328      -1.305428      0.9948233
      6305.5000         1.1197        10.8528       1054.006       106.8378          0.904        -41.066      -1.534359      0.9909431
      6306.0000         1.1018        10.8344       1073.516       107.3053          0.893       -41.2997      -1.763794      0.9870543
      6306.5000         1.0851        10.7182       1091.441       107.0236         0.8864       -41.3347      -1.794529      0.9865334
      6307.0000         1.0741         10.604       1108.713       106.7783         0.8814       -41.2496      -1.705158      0.9880481
      6307.5000         1.0658        10.4899       1119.662       105.8282         0.8764       -41.1644      -1.615692      0.9895645
      6308.0000         1.0547        10.4301       1130.611       106.5045         0.8714       -41.0793      -1.526329      0.9910792
      6308.5000         1.0372        10.3719       1141.836       108.2139         0.8664       -40.9891      -1.431862      0.9926803
      6309.0000          1.021        10.3254       1155.174        109.538         0.8572       -40.7277      -1.166195      0.9971831
      6309.5000          1.011        10.3306       1164.854       110.7976         0.8446       -40.4659     -0.9001312              1
      6310.0000         1.0049         10.358       1171.447       112.3174          0.832       -40.2043     -0.6342659              1
      6310.5000         1.0147         10.289       1179.838       113.7382         0.8195       -39.9426     -0.3682976              1
      6311.0000          1.023        10.1355       1189.682        114.698         0.8111       -39.6811     -0.1025314              1
      6311.5000         1.0291        10.0957       1198.957       113.5424         0.8055       -39.5646     0.01823044              1
      6312.0000         1.0231        10.1665       1207.758       111.9817         0.7998       -39.4794      0.1077003              1
      6312.5000         1.0122        10.2236       1216.557       110.3567         0.7942       -39.3943      0.1970673              1
      6313.0000         0.9948        10.2619       1227.857       109.2679         0.7889       -39.3091      0.2865295              1
      6313.5000         0.9775        10.2726       1239.787       109.3236         0.7931       -39.2308      0.3690987              1
      6314.0000         0.9722        10.2011       1249.424       110.7035         0.7973       -39.1758      0.4283638              1
      6314.5000         0.9731        10.1281       1257.645       112.6555         0.8016        -39.121      0.4874306              1
      6315.0000         0.9739        10.0529       1265.727       115.3309         0.8095        -39.066      0.5466957              1
      6315.5000         0.9752         9.9861       1270.895       117.0328         0.8223        -39.011      0.6059608              1
      6316.0000          0.981         9.9682       1271.969        118.015          0.835       -38.9561      0.6651268              1
      6316.5000         0.9869         9.9633       1268.057        117.262         0.8477       -38.9734      0.6520958              1
      6317.0000         0.9927         9.9585        1258.77       116.2042         0.8605       -39.0319      0.5978622              1
      6317.5000         0.9985         9.9578       1242.238       114.8553         0.8753       -39.0904      0.5436249              1
      6318.0000         1.0118         9.9615       1216.494       113.8942         0.8928       -39.1489      0.4893951              1
      6318.5000         1.0288         9.9997       1163.697       113.6465         0.9103       -39.3538      0.2887573              1
      6319.0000         1.0458        10.0722       1117.035       115.4152         0.9247       -39.9945     -0.3476753              1
      6319.5000         1.0717        10.1501       1075.602       114.2212         0.9295       -41.1689      -1.517811      0.9912236
      6320.0000         1.1031        10.2312       1048.324       114.7413         0.9343       -42.9417      -3.286343      0.9612485
      6320.5000         1.1777        10.2473       1019.612        114.589          0.939       -47.9357      -8.276077      0.8766767
      6321.0000         1.2578         9.9578       992.0078       115.0715         0.9416       -50.6505      -10.98661      0.8307353
      6321.5000         1.3011         9.8824       972.9883       114.8721         0.9442       -57.1438      -17.47564      0.7207518
      6322.0000          1.343          9.829       1090.889       111.5829         0.9386       -63.2825      -23.61008      0.6167783
      6322.5000         1.3892         9.8024       1194.018       105.0133         0.9101        -69.634      -29.95732       0.509198
      6323.0000         1.3381         9.7718       1226.072        99.4395         0.8816       -73.8049      -34.12395      0.4385772
      6323.5000         1.2267         9.7198       1260.994        93.8657         0.8535       -76.1323      -36.44708       0.399202
      6324.0000         1.1971          9.672       1297.852        91.5222         0.8292       -71.1534      -31.46391      0.4836625
      6324.5000         1.1783          9.665       1334.357        90.9437          0.805       -66.8938      -27.20005      0.5559314
      6325.0000         1.1691         9.7028       1379.762        91.3439         0.8173       -64.0347      -24.33668       0.604463
      6325.5000         1.1609         9.7405       1418.002        90.7444         0.8434       -61.5605      -21.85822      0.6464708
      6326.0000         1.1646         9.7623       1442.516         94.329         0.8695       -60.1214      -20.41485      0.6709348
      6326.5000          1.173         9.7258       1401.082        98.4486         0.8955        -60.299      -20.58818      0.6679969
      6327.0000         1.2044         9.6893       1359.648       103.8638         0.9452       -60.4764      -20.76132      0.6650624
      6327.5000         1.2707         9.6528       1268.889       107.9364         1.0041       -60.2047      -20.48536      0.6697397
      6328.0000         1.3597         9.6222       1115.023        107.877          1.063       -59.9296      -20.20599      0.6744748
      6328.5000         1.4077         9.6111       802.9697       107.2256         1.1203       -59.6541      -19.92622      0.6792166
      6329.0000         1.4614         9.6594       749.9209       107.4144         1.1768       -46.1934      -6.461258      0.9074363
