#------------------------------------------------------------------------------
# Created by    : vladimir.rabinovich
# Created on    : 09/19/2023 17:22:56
#------------------------------------------------------------------------------
~Version Information Section
VERS.           2.0     :   CWLS log ASCII Standard - VERSION 2.0
WRAP.           NO      :   One line per depth step
~Well Information Section
#MNEM       .UNIT                                         VALUE :DESCRIPTION
#------------------------------------------------------------------------------
STRT        .FT                                             513 :START DEPTH
STOP        .FT                                           16000 :STOP DEPTH
STEP        .FT                                             0.5 :STEP      
NULL        .                                           -999.25 :NULL      
COMP        .              PENNZOIL EXPLORATION & PRODUCTION CO :COMPANY   
WELL        .                                ST TR 00486-L SE/4 :WELL      
FLD         .                                           WILDCAT :FIELD     
LOC         .                                                   :LOCATION  
CNTY        .                      MATAGORDA ISLAND LARGE BLOCK :LOCATION  
STAT        .                                             TEXAS :STATE     
CTRY        .                                     UNITED STATES :COUNTRY   
SRVC        .                                                   :SERVICE COMPANY
DATE        .                             9/13/2023 11:19:05 AM :LOG DATE  
API         .                                    42703302080000 :API NUMBER
UWI         .                                    42703302080000 :UNIQUE WELL ID
XCOORD      .                                  648049.134083277 :SURFACE X 
YCOORD      .                                  10318924.3450998 :SURFACE Y 
LAT         .                                        28.3999658 :LATITUDE  
LON         .                                       -96.0869402 :LONGITUDE 
ELEV        .FT                                              47 :ELEVATION VALUE
ELEV_TYPE   .                                                KB :ELEVATION REFERENCE TYPE
~Curve Information Section
#MNEM       .UNIT                                      API CODE :CURVE DESCRIPTION
#------------------------------------------------------------------------------
DEPT        .FT                                                 :DEPTH     
SFL         .OHMM                                               :          
SP          .MV                                                 :          
SP_NORM     .MV                                                 :SP Normalized
VSH_SP      .V/V                                                :Volume of Shale from SP
~A        DEPTH            SFL             SP        SP_NORM         VSH_SP
# ...
     10795.0000         2.9862       -80.1174      -32.37547      0.5452831
     10795.5000         2.2153       -77.7766      -30.03467      0.5792077
     10796.0000         2.0096       -76.3922      -28.65026      0.5992716
     10796.5000         2.3851       -77.8364      -30.09447      0.5783411
     10797.0000          3.323       -79.5388      -31.79687      0.5536686
     10797.5000          3.734       -80.1193      -32.37737      0.5452556
     10798.0000         3.2225       -80.3641      -32.62216      0.5417078
     10798.5000         2.4822       -80.4005      -32.65856      0.5411803
     10799.0000         2.1986       -80.4611      -32.71916       0.540302
     10799.5000         2.6639       -80.6648      -32.92287      0.5373498
     10800.0000         3.1199       -80.8354      -33.09347      0.5348773
     10800.5000         2.7244       -80.2411      -32.49916      0.5434904
     10801.0000         2.1701       -77.7391      -29.99716      0.5797513
     10801.5000         1.9039       -76.5682      -28.82626      0.5967208
     10802.0000         1.9164       -76.5128      -28.77087      0.5975237
     10802.5000         2.2709       -77.1436      -29.40166      0.5883816
     10803.0000         2.5709       -77.7766      -30.03467      0.5792077
     10803.5000         2.5996       -78.2302      -30.48827      0.5726338
     10804.0000         2.5256        -77.865      -30.12306      0.5779266
     10804.5000         2.4848       -77.4601      -29.71816      0.5837948
     10805.0000         2.6105       -77.1417      -29.39977      0.5884092
     10805.5000         2.5603       -77.3262      -29.58427      0.5857353
     10806.0000         2.5845       -77.3448      -29.60287      0.5854657
     10806.5000         2.8722       -77.2616      -29.51966      0.5866716
     10807.0000         2.8915       -75.2783      -27.53636       0.615415
     10807.5000         2.3972       -73.6229      -25.88097      0.6394063
     10808.0000         2.1095       -72.5516      -24.80966      0.6549324
     10808.5000         2.1039       -71.9656      -24.22366      0.6634251
     10809.0000         2.2955       -72.0505      -24.30856      0.6621947
     10809.5000         2.6774        -71.884      -24.14207      0.6646077
     10810.0000         2.8195       -70.8662      -23.12427      0.6793584
     10810.5000         2.4891       -69.2744      -21.53246       0.702428
     10811.0000         2.1365        -67.619      -19.87707      0.7264193
     10811.5000          2.153       -66.7219      -18.97997      0.7394208
     10812.0000         2.4517       -66.1929      -18.45097      0.7470875
     10812.5000         2.8576       -66.7949      -19.05296      0.7383628
     10813.0000         2.7185       -67.7183      -19.97636      0.7249802
     10813.5000         2.5886       -68.8662      -21.12427      0.7083439
     10814.0000         2.8589       -70.4055      -22.66357      0.6860353
     10814.5000         4.2824       -70.9215      -23.17957       0.678557
     10815.0000         4.2687       -70.2202      -22.47826      0.6887208
     10815.5000         3.1842       -69.0563      -21.31436      0.7055889
     10816.0000         2.3742       -68.6302      -20.88827      0.7117642
     10816.5000         1.9627       -68.6976      -20.95567      0.7107875
     10817.0000         1.9441        -69.443      -21.70107      0.6999846
     10817.5000          2.008       -71.9299      -24.18797      0.6639425
     10818.0000         2.0077       -77.2971      -29.55516      0.5861571
     10818.5000         1.7953        -83.949      -36.20706      0.4897527
     10819.0000         1.8807       -90.6758      -42.93386      0.3922629
     10819.5000         2.4754        -97.073      -49.33106      0.2995498
     10820.0000         3.1494      -101.3727      -53.63077      0.2372352
     10820.5000         3.6641      -104.7361      -56.99416      0.1884904
     10821.0000          4.114      -106.3148      -58.57286      0.1656107
     10821.5000         4.5222       -106.444      -58.70206      0.1637382
     10822.0000         4.7652      -105.5919      -57.84997      0.1760874
     10822.5000         4.7545      -103.8297      -56.08776      0.2016267
     10823.0000         4.1834       -99.6273      -51.88536       0.262531
     10823.5000         3.0096       -91.1852      -43.44327      0.3848802
     10824.0000         2.6955          -85.2      -37.45806      0.4716223
     10824.5000         2.6428       -79.9039      -32.16196      0.5483773
     10825.0000         2.5794       -74.1809      -26.43896      0.6313193
     10825.5000         2.4248        -69.634      -21.89207      0.6972164
     10826.0000         2.1292       -66.2632      -18.52126      0.7460687
     10826.5000         2.1484       -63.7125      -15.97057      0.7830353
     10827.0000         2.1715        -61.926      -14.18406      0.8089266
     10827.5000         1.9177       -60.5833      -12.84137       0.828386
     10828.0000         1.7458        -59.675      -11.93306      0.8415498
     10828.5000         1.8071       -59.1852      -11.44326      0.8486484
     10829.0000         1.9731       -58.9816      -11.23967       0.851599
     10829.5000         2.1861       -58.9952      -11.25327      0.8514019
     10830.0000          2.265       -59.0344      -11.29247      0.8508338
     10830.5000         2.2741       -59.1155      -11.37357      0.8496585
     10831.0000         2.2405       -58.9128      -11.17086      0.8525962
     10831.5000         2.1649       -57.9202      -10.17826      0.8669817
     10832.0000         2.0734       -56.4689      -8.726963       0.888015
     10832.5000         2.0441       -55.0606      -7.318665      0.9084252
     10833.0000         2.0654       -53.7797      -6.037766      0.9269889
     10833.5000         2.1078       -53.2993      -5.557365      0.9339512
     10834.0000         2.1631       -52.8807      -5.138763      0.9400179
     10834.5000         2.2096       -52.6382      -4.896263      0.9435324
     10835.0000         2.2055       -52.4119      -4.669964      0.9468121
     10835.5000         2.1488       -52.2478      -4.505863      0.9491904
     10836.0000         2.0058       -52.1593      -4.417366       0.950473
     10836.5000         1.9578       -52.2756      -4.533665      0.9487875
     10837.0000         1.9245        -52.392      -4.650063      0.9471005
     10837.5000         1.9033       -52.3744      -4.632465      0.9473556
     10838.0000            1.9       -52.3404      -4.598465      0.9478483
     10838.5000         1.9105       -52.1579      -4.415966      0.9504932
     10839.0000         1.9132       -51.7843      -4.042366      0.9559078
     10839.5000         1.9452        -51.244      -3.502064      0.9637382
     10840.0000         2.0398       -50.5081      -2.766163      0.9744034
     10840.5000         2.1577       -50.0745      -2.332565      0.9806874
     10841.0000         2.3005       -50.3638      -2.621864      0.9764947
     10841.5000          2.508       -50.9144      -3.172462       0.968515
     10842.0000           2.68       -51.4709      -3.728966      0.9604498
     10842.5000          2.724       -51.4613      -3.719364      0.9605889
     10843.0000         2.4433       -51.4465      -3.704563      0.9608034
     10843.5000         2.2125       -51.3407      -3.598763      0.9623368
     10844.0000         2.1039       -51.2351      -3.493164      0.9638672
     10844.5000         2.0814       -51.0956      -3.353664      0.9658889
     10845.0000          2.149       -50.9294      -3.187466      0.9682976
     10845.5000         2.3364       -50.7964      -3.054462      0.9702252
     10846.0000         2.6035       -50.7559      -3.013966      0.9708121
     10846.5000         2.7073        -50.681      -2.939064      0.9718976
     10847.0000         2.6935       -50.5338      -2.791862       0.974031
     10847.5000         2.6723       -50.3105      -2.568565      0.9772671
