#------------------------------------------------------------------------------
# Created by    : vladimir.rabinovich
# Created on    : 09/19/2023 17:20:54
#------------------------------------------------------------------------------
~Version Information Section
VERS.           2.0     :   CWLS log ASCII Standard - VERSION 2.0
WRAP.           NO      :   One line per depth step
~Well Information Section
#MNEM       .UNIT                                         VALUE :DESCRIPTION
#------------------------------------------------------------------------------
STRT        .FT                                            2835 :START DEPTH
STOP        .FT                                            6351 :STOP DEPTH
STEP        .FT                                             0.5 :STEP      
NULL        .                                           -999.25 :NULL      
COMP        .                                   PENNZOIL CO INC :COMPANY   
WELL        .                                     ST TR 00659-L :WELL      
FLD         .                                           WILDCAT :FIELD     
LOC         .                                                   :LOCATION  
CNTY        .                      MATAGORDA ISLAND LARGE BLOCK :LOCATION  
STAT        .                                             TEXAS :STATE     
CTRY        .                                     UNITED STATES :COUNTRY   
SRVC        .                                                   :SERVICE COMPANY
DATE        .                             9/13/2023 11:19:13 AM :LOG DATE  
API         .                                    42703300020000 :API NUMBER
UWI         .                                    42703300020000 :UNIQUE WELL ID
XCOORD      .                                  437819.375414617 :SURFACE X 
YCOORD      .                                  10187782.3810297 :SURFACE Y 
LAT         .                                        28.0235144 :LATITUDE  
LON         .                                       -96.7273206 :LONGITUDE 
ELEV        .FT                                              73 :ELEVATION VALUE
ELEV_TYPE   .                                                KB :ELEVATION REFERENCE TYPE
~Curve Information Section
#MNEM       .UNIT                                      API CODE :CURVE DESCRIPTION
#------------------------------------------------------------------------------
DEPT        .FT                                                 :DEPTH     
ASN         .OHMM                                               :          
CILD        .MMHO                                               :          
ILD         .OHMM                                               :          
SP          .MV                                                 :          
SP_NORM     .MV                                                 :SP Normalized
VSH_SP      .V/V                                                :Volume of Shale from SP
~A        DEPTH            ASN           CILD            ILD             SP        SP_NORM         VSH_SP
# ...
      5381.0000         1.1749       1415.416         0.9731       -52.6998      -4.391071      0.9229302
      5381.5000         1.1191       1555.176         0.8727       -54.6171      -6.297901      0.8795931
      5382.0000         0.9464       1656.232         0.7783       -58.1513      -9.821629      0.7995085
      5382.5000         0.7885       2000.018          0.687       -68.6589      -20.31876      0.5609373
      5383.0000         0.7083       2012.914         0.6007       -70.8165      -22.46588      0.5121391
      5383.5000          0.629       2073.715         0.5146        -72.745      -24.38391      0.4685474
      5384.0000          0.586        2670.82         0.4541        -74.959      -26.58744      0.4184673
      5384.5000         0.5543       2740.102         0.4155       -78.6158      -30.23377      0.3355962
      5385.0000         0.5309       2923.105         0.3928       -80.7321       -32.3396      0.2877364
      5385.5000         0.5051        2999.82         0.3702        -81.851      -33.44802       0.262545
      5386.0000         0.4782       3218.418         0.3507       -82.9698      -34.55635      0.2373556
      5386.5000         0.4695       3282.934         0.3359       -84.2375      -35.81358      0.2087822
      5387.0000         0.4636       3416.512         0.3212       -85.1387      -36.70431      0.1885385
      5387.5000         0.4528       3527.543         0.3147       -85.6849      -37.24003      0.1763629
      5388.0000         0.4409       3758.582         0.3083       -86.2312      -37.77586      0.1641849
      5388.5000         0.4178       3845.125         0.3018       -86.7825      -38.31669      0.1518934
      5389.0000         0.3899        3950.52         0.2953       -87.3363      -38.86002       0.139545
      5389.5000         0.3695        -999.25         0.2927         -87.89      -39.40324       0.127199
      5390.0000         0.3467        -999.25         0.2907       -88.4438      -39.94658      0.1148506
      5390.5000         0.3105        -999.25         0.2888       -88.9989       -40.4912      0.1024727
      5391.0000         0.3093        -999.25         0.2868       -89.7141      -41.19593     0.08645613
      5391.5000         0.3081        -999.25         0.2849       -90.4293      -41.90065     0.07043969
      5392.0000         0.3069        -999.25         0.2814        -91.271      -42.73189       0.051548
      5392.5000         0.3057        -999.25         0.2743       -92.2172      -43.66761      0.0302815
      5393.0000         0.3045        -999.25         0.2672       -93.1257      -44.56564    0.009871829
      5393.5000         0.3034        -999.25         0.2601       -94.0175      -45.44697              0
      5394.0000         0.3024        -999.25          0.253       -94.9098      -46.32879              0
      5394.5000         0.3014        -999.25         0.2636       -95.6694      -47.07793              0
      5395.0000         0.3009        -999.25         0.2754       -96.3427      -47.74075              0
      5395.5000         0.3022        -999.25         0.2873       -97.0142      -48.40178              0
      5396.0000          0.304        -999.25         0.3041       -96.5173      -47.89441              0
      5396.5000         0.3081       3915.703         0.3437       -96.0198      -47.38643              0
      5397.0000         0.3124       3820.934         0.3833       -95.5229      -46.87906              0
      5397.5000         0.3209        -999.25         0.4229       -94.5862      -45.93188              0
      5398.0000         0.3299        -999.25          0.481        -93.376      -44.71122    0.006563273
      5398.5000         0.3438        -999.25         0.5629       -92.1646      -43.48934     0.03433314
      5399.0000          0.362        -999.25         0.6448       -88.1398      -39.45407      0.1260438
      5399.5000         0.4008        -999.25         0.7541       -83.9673       -35.2711      0.2211114
      5400.0000         0.4252           2139         0.8744       -80.7709      -32.06422      0.2939949
      5400.5000         0.4997       1840.818         0.9593       -77.6372      -28.92006      0.3654533
      5401.0000         0.5971       1707.188         1.0381       -70.4685      -21.74088      0.5286164
      5401.5000         0.7312       1537.127         1.1196       -52.3306       -3.59251      0.9410793
      5402.0000         0.7998       1164.076         1.2045       -51.2393      -2.490738      0.9661196
      5402.5000          0.843       988.4287         1.2632       -48.2782       0.480835              1
      5403.0000         0.8871       929.7471         1.3101       -47.3427       1.426807              1
      5403.5000         0.9145       777.2813         1.3001       -46.4961       2.283878              1
      5404.0000         0.9504       781.8965         1.2836       -45.1432       3.647251              1
      5404.5000         0.9875        790.002         1.2673       -45.2224       3.578522              1
      5405.0000          1.009       798.2793         1.2512       -45.4855       3.325897              1
      5405.5000         1.0309       806.5566         1.2352        -45.749       3.072868              1
      5406.0000         1.0533        814.834         1.2249       -46.0121        2.82024              1
      5406.5000         1.0762        819.958         1.2277       -46.3459        2.49691              1
      5407.0000         1.0993       818.4883         1.2304       -46.7436       2.109688              1
      5407.5000         1.1227       812.2197         1.2296       -47.1112        1.75256              1
      5408.0000         1.1443       805.9512          1.221       -47.4497        1.42453              1
      5408.5000          1.163       802.7832         1.2124       -48.2607      0.6240044              1
      5409.0000         1.1819       799.7168         1.2008       -49.4071     -0.5119247              1
      5409.5000         1.2157       796.6514         1.1685       -50.4058      -1.500153      0.9886329
      5410.0000          1.242       808.5898         1.1362       -51.9051      -2.988983      0.9547958
      5410.5000         1.2625       892.3965          1.104       -53.6534      -4.726807      0.9152998
      5411.0000         1.2877       920.3154         1.0681       -55.6608      -6.723736      0.8699151
      5411.5000           1.32       939.3271         1.0318       -57.7258      -8.778263      0.8232213
      5412.0000         1.3509       953.7109         0.9956       -58.9686      -10.01059      0.7952138
      5412.5000         1.3913        967.084          0.962       -59.9772      -11.00872      0.7725292
      5413.0000          1.434        986.583         0.9309        -60.842      -11.86304      0.7531126
      5413.5000         1.4075       1013.753         0.8996        -60.919      -11.92957      0.7516006
      5414.0000         1.3083       1059.686         0.8684       -59.9522       -10.9523      0.7738113
      5414.5000         1.1672       1183.039         0.8313       -60.8809      -11.87053      0.7529425
      5415.0000         1.0807       1257.889         0.7826       -62.1436      -13.12276      0.7244828
      5415.5000         0.9977       1325.553         0.7342       -63.4051      -14.37379      0.6960503
      5416.0000         0.9545       1366.619         0.6888       -67.0645      -18.02271      0.6131201
      5416.5000         0.9421       1399.504         0.6672       -71.4597      -22.40744      0.5134673
      5417.0000         0.9968       1430.441          0.654       -74.6035      -25.54077      0.4422553
      5417.5000          1.035       1458.686         0.6841       -76.9082        -27.835      0.3901137
      5418.0000         1.0737       1487.303         0.7168       -77.6722      -28.58853       0.372988
      5418.5000         1.1258        1326.65         0.7496       -78.7648      -29.67065      0.3483943
