#------------------------------------------------------------------------------
# Created by    : vladimir.rabinovich
# Created on    : 09/19/2023 17:20:49
#------------------------------------------------------------------------------
~Version Information Section
VERS.           2.0     :   CWLS log ASCII Standard - VERSION 2.0
WRAP.           NO      :   One line per depth step
~Well Information Section
#MNEM       .UNIT                                         VALUE :DESCRIPTION
#------------------------------------------------------------------------------
STRT        .FT                                             556 :START DEPTH
STOP        .FT                                            7001 :STOP DEPTH
STEP        .FT                                             0.5 :STEP      
NULL        .                                           -999.25 :NULL      
COMP        .                          HUMBLE OIL & REFINING CO :COMPANY   
WELL        .                                     ST TR 00598-L :WELL      
FLD         .                                           WILDCAT :FIELD     
LOC         .                                                   :LOCATION  
CNTY        .                      MATAGORDA ISLAND LARGE BLOCK :LOCATION  
STAT        .                                             TEXAS :STATE     
CTRY        .                                     UNITED STATES :COUNTRY   
SRVC        .                                                   :SERVICE COMPANY
DATE        .                             9/13/2023 11:12:05 AM :LOG DATE  
API         .                                    42703000080000 :API NUMBER
UWI         .                                    42703000080000 :UNIQUE WELL ID
XCOORD      .                                  502144.869554487 :SURFACE X 
YCOORD      .                                  10234432.9570627 :SURFACE Y 
LAT         .                                        28.1568958 :LATITUDE  
LON         .                                       -96.5324651 :LONGITUDE 
ELEV        .FT                                              15 :ELEVATION VALUE
ELEV_TYPE   .                                                KB :ELEVATION REFERENCE TYPE
~Curve Information Section
#MNEM       .UNIT                                      API CODE :CURVE DESCRIPTION
#------------------------------------------------------------------------------
DEPT        .FT                                                 :DEPTH     
ASN         .OHMM                                               :          
CALI        .IN                                                 :          
CILD        .MMHO                                               :          
DT          .US/F                                               :          
ILD         .OHMM                                               :          
SP          .MV                                                 :          
SP_NORM     .MV                                                 :SP Normalized
VSH_SP      .V/V                                                :Volume of Shale from SP
~A        DEPTH            ASN           CALI           CILD             DT            ILD             SP        SP_NORM         VSH_SP
# ...
      6102.0000         1.3782          9.231       782.3164       104.7252         1.2339       -43.6271         -5.626      0.8273333
      6102.5000         1.3828         9.0363       794.2793       100.9603         1.2264       -43.9149        -5.9154      0.8135524
      6103.0000         1.3873         8.7774       806.2432        96.5369         1.2189       -44.2638         -6.266      0.7968572
      6103.5000         1.3936          8.729       821.7354        96.6586         1.1925       -44.7501        -6.7539      0.7736238
      6104.0000         1.4027          8.766       839.7656        89.6554         1.1626       -45.2585         -7.264      0.7493333
      6104.5000         1.4119         8.7656       857.7959        88.2253         1.1326         -45.77        -7.7771         0.7249
      6105.0000         1.4211         8.6897       875.8018        89.0537         1.1026       -46.2864        -8.2952      0.7002286
      6105.5000         1.3949         8.6352       893.4932        91.8824         1.0727       -46.4895        -8.4999      0.6904809
      6106.0000         1.3362         8.6666        883.125        99.1952         1.0858       -46.4566        -8.4687      0.6919667
      6106.5000         1.3041           8.75       872.7686       101.3647         1.1066        -46.335        -8.3487       0.697681
      6107.0000         1.2795         8.9711       846.5811       104.2996         1.1262       -46.1858        -8.2012      0.7047048
      6107.5000          1.255         9.3511       816.2979       105.6691         1.1458        -46.006         -8.023      0.7131905
      6108.0000         1.2709         9.5002       826.5449       106.6802         1.1654       -45.8264        -7.8451      0.7216619
      6108.5000         1.3141         9.4277       849.7236        104.975         1.1851       -45.6435        -7.6638      0.7302952
      6109.0000         1.3401         9.3802        872.877       100.3461         1.1451       -45.4518        -7.4738      0.7393429
      6109.5000         1.3186         9.3291       896.0557          99.28         1.0921        -45.429        -7.4526      0.7403524
      6110.0000          1.295         9.0226       919.2334       103.5319         1.0392       -45.6254        -7.6507      0.7309191
      6110.5000          1.192         8.6346       1012.743       105.8263         0.9863       -47.0512        -9.0781      0.6629476
      6111.0000         1.1042         8.4978       1105.262       104.5668         0.9516        -48.699       -10.7276         0.5844
      6111.5000         1.0686         8.4707       1183.473       105.8575         0.9205       -49.7915       -11.8217         0.5323
      6112.0000         1.0631         8.4496       1235.871       104.6604         0.8893       -50.9351        -12.967      0.4777619
      6112.5000         1.0641         8.4525       1240.367       104.3663         0.8581       -52.0409       -14.0744      0.4250286
      6113.0000         1.0952         8.4763       1197.732        102.517         0.8306       -52.9501       -14.9853      0.3816524
      6113.5000         1.1265          8.616       1155.051       102.9976         0.8788       -52.9288       -14.9656      0.3825905
      6114.0000          1.158          8.743       1082.736       104.1458         0.9271       -51.2481       -13.2866      0.4625429
      6114.5000         1.1902         8.8328       1006.846       104.7384         1.0117       -49.4529        -11.493      0.5479524
      6115.0000         1.2535         9.2143       843.7539       108.2281         1.1037        -47.497        -9.5388      0.6410095
      6115.5000         1.3161         9.3968       786.3281       108.2057         1.1957       -45.6799        -7.7233      0.7274619
      6116.0000         1.3745         9.4292       751.5732       104.4581         1.2162       -44.3317        -6.3768       0.791581
      6116.5000         1.4377         9.3634       737.7725        103.829          1.236       -43.4341        -5.4808      0.8342476
      6117.0000         1.4965         9.3008       726.9209        97.0854         1.2558       -42.8909        -4.9393      0.8600333
      6117.5000         1.5124         9.3038       716.8848        94.9371         1.2647       -42.5576        -4.6076      0.8758286
      6118.0000         1.4785         9.3837       722.3945        96.2668         1.2654       -42.4907        -4.5424      0.8789333
      6118.5000         1.4623         9.4823       727.9111        97.1929         1.2661       -42.6313        -4.6847      0.8721572
      6119.0000         1.4679         9.5145       733.4219       102.1188         1.2669        -42.772         -4.827      0.8653809
      6119.5000         1.4789         9.4981       738.9326       106.5228         1.2676       -42.8177        -4.8744      0.8631238
      6120.0000          1.491         9.4962       744.4492       105.8563         1.2684       -42.7708        -4.8291      0.8652809
      6120.5000          1.503         9.5016       749.4277       105.5941         1.2796       -42.4997        -4.5597      0.8781095
      6121.0000         1.5076         9.3984       743.9775       104.1885          1.299       -42.2031        -4.2647      0.8921571
      6121.5000         1.5013         9.2968       738.5215       100.2039         1.3183       -42.0352        -4.0985      0.9000714
      6122.0000          1.495         9.2657       733.0713        98.0342         1.3377       -41.9292        -3.9941      0.9050428
      6122.5000         1.4842           9.26       726.3525        98.3245          1.357       -42.0188        -4.0854      0.9006952
      6123.0000          1.467         9.2679       717.9785        97.7273         1.3764       -42.1393        -4.2075       0.894881
      6123.5000         1.4648         9.3748       709.5918        99.1527         1.3829       -42.2598        -4.3297      0.8890619
      6124.0000         1.4827         9.4515       701.2051       100.9922         1.3847       -42.3457        -4.4172      0.8848952
      6124.5000         1.4989         9.4653       701.2227       100.5521         1.3866       -42.3323        -4.4055      0.8854524
      6125.0000         1.5025         9.5195       706.8418       101.9512         1.3576        -42.319        -4.3938      0.8860095
      6125.5000         1.4828          9.589       712.4678       101.4321         1.3011       -42.2767        -4.3532      0.8879429
      6126.0000         1.4584         9.4292       750.4131        99.7719         1.2447       -42.2186        -4.2967      0.8906333
      6126.5000         1.4109         9.1394       796.5273        97.0605         1.1883       -42.1675        -4.2473      0.8929857
      6127.0000         1.3416         8.6836       891.3184        95.0007         1.1318        -42.315        -4.3964      0.8858857
      6127.5000         1.2555         8.5414       1033.432        96.0593         1.0481       -42.7545        -4.8376      0.8648762
      6128.0000         1.1483         8.5516       1149.057        97.3304         0.9425       -43.9139        -5.9986      0.8095905
      6128.5000         1.0785         8.5483       1317.369        96.6223         0.8367       -47.3679        -9.4543      0.6450334
      6129.0000         1.0203         8.5351       1415.496         97.455         0.7347       -49.0096       -11.0976      0.5667809
      6129.5000         0.9726         8.5301       1659.893        99.4797         0.6326       -50.0874       -12.1771      0.5153762
      6130.0000         0.9281         8.5252       1756.859       103.2972         0.6161       -51.7145       -13.8058       0.437819
      6130.5000         0.8849         8.5202       1738.781        106.373         0.5994       -53.0798       -15.1728      0.3727238
      6131.0000         0.9355         8.5201       1659.313       106.7397          0.627       -53.8349       -15.9295      0.3366905
