#------------------------------------------------------------------------------
# Created by    : vladimir.rabinovich
# Created on    : 09/19/2023 17:20:45
#------------------------------------------------------------------------------
~Version Information Section
VERS.           2.0     :   CWLS log ASCII Standard - VERSION 2.0
WRAP.           NO      :   One line per depth step
~Well Information Section
#MNEM       .UNIT                                         VALUE :DESCRIPTION
#------------------------------------------------------------------------------
STRT        .FT                                            1401 :START DEPTH
STOP        .FT                                            4951 :STOP DEPTH
STEP        .FT                                             0.5 :STEP      
NULL        .                                           -999.25 :NULL      
COMP        .                      GULF ENERGY EXPLORATION CORP :COMPANY   
WELL        .                                ST TR 00596-L NE/4 :WELL      
FLD         .                        SHERMAN OFFSHORE SOUTHWEST :FIELD     
LOC         .                                                   :LOCATION  
CNTY        .                      MATAGORDA ISLAND LARGE BLOCK :LOCATION  
STAT        .                                             TEXAS :STATE     
CTRY        .                                     UNITED STATES :COUNTRY   
SRVC        .                                                   :SERVICE COMPANY
DATE        .                             9/13/2023 11:12:01 AM :LOG DATE  
API         .                                    42703301240000 :API NUMBER
UWI         .                                    42703301240000 :UNIQUE WELL ID
XCOORD      .                                    480210.3272994 :SURFACE X 
YCOORD      .                                  10243409.1849528 :SURFACE Y 
LAT         .                                        28.1797739 :LATITUDE  
LON         .                                       -96.6012532 :LONGITUDE 
ELEV        .FT                                              82 :ELEVATION VALUE
ELEV_TYPE   .                                                KB :ELEVATION REFERENCE TYPE
~Curve Information Section
#MNEM       .UNIT                                      API CODE :CURVE DESCRIPTION
#------------------------------------------------------------------------------
DEPT        .FT                                                 :DEPTH     
ASN         .OHMM                                               :          
CILD        .MMHO                                               :          
ILD         .OHMM                                               :          
SP          .MV                                                 :          
SP_NORM     .MV                                                 :SP Normalized
VSH_SP      .V/V                                                :Volume of Shale from SP
~A        DEPTH            ASN           CILD            ILD             SP        SP_NORM         VSH_SP
# ...
      4897.0000         1.0656       1197.001         0.8217       -24.1867        -2.7804      0.9852754
      4897.5000         1.0637       1230.934         0.7427       -24.1822          -2.76      0.9856604
      4898.0000         1.0657       1264.866         0.6934       -24.2767        -2.8386      0.9841774
      4898.5000         1.0638       1314.455         0.6142       -24.4702        -3.0162      0.9808264
      4899.0000         1.0008       1325.013         0.5252       -26.5463        -5.0764      0.9419547
      4899.5000         0.9389       1833.449         0.4561       -38.0213       -16.5355      0.7257453
      4900.0000          0.937       1976.001         0.3969       -49.4963       -27.9946      0.5095358
      4900.5000         0.9477       2119.373         0.3729       -60.9714       -39.4538      0.2933245
      4901.0000         0.9581       2401.825         0.3568       -64.9516       -43.4181      0.2185264
      4901.5000         0.9685       2524.092         0.3398       -65.2497       -43.7003      0.2132019
      4902.0000         0.9789       2731.618         0.3264       -65.4477       -43.8824       0.209766
      4902.5000         0.9893       3096.533         0.3261       -65.4483       -43.8671      0.2100547
      4903.0000         0.9997       2891.976         0.3158       -65.3499       -43.7528      0.2122113
      4903.5000         1.0043       2687.418         0.3721       -64.5583       -42.9453      0.2274472
      4904.0000         1.0003        2482.86         0.4028       -59.0845       -37.4556      0.3310264
      4904.5000         0.9903       2278.302         0.4389       -53.6107       -31.9659      0.4346057
      4905.0000         0.9883       2073.745         0.4822       -48.1369       -26.4762      0.5381849
      4905.5000         1.0869       1869.187          0.535       -42.6631       -20.9865      0.6417642
      4906.0000         1.1855        1664.63         0.6007       -37.1892       -15.4967      0.7453453
      4906.5000         1.2841       1460.072         0.6849       -31.7154        -10.007      0.8489245
      4907.0000         1.3914       1255.514         0.7965       -27.1453         -5.421      0.9354528
      4907.5000         1.3834       1002.514         0.9975       -26.6515        -4.9113      0.9450698
      4908.0000         1.3592       994.5069         1.0055       -26.2567        -4.5006      0.9528189
      4908.5000         1.3351       990.4714         1.0096       -26.1589        -4.3869      0.9549642
      4909.0000         1.3109       982.3361          1.018       -25.9622        -4.1743      0.9589755
      4909.5000         1.2761       1025.967         0.9747       -25.7653        -3.9615      0.9629906
      4910.0000         1.2681       1021.742         0.9787       -26.0635        -4.2438      0.9576641
      4910.5000         1.1311       1727.382         0.4201       -39.1267       -17.2911      0.7114887
      4911.0000         0.7317        2078.09            0.4       -52.1898       -30.3383      0.4653151
      4911.5000         0.7296       2197.591         0.3501       -65.9535       -44.0861      0.2059226
      4912.0000         0.7276       2459.777         0.3001       -66.6464       -44.7631      0.1931491
      4912.5000         0.7196       3206.778         0.2799       -68.3298       -46.4306      0.1616868
      4913.0000         0.7057       3230.597         0.2251       -69.5179       -47.6028      0.1395698
      4913.5000         0.6917       3242.473          0.214       -69.9143       -47.9833      0.1323906
      4914.0000         0.6738       4357.042         0.2059       -70.4097       -48.4628      0.1233434
      4914.5000         0.6519       4416.566         0.1983       -70.6081       -48.6453         0.1199
      4915.0000          0.636       4440.258         0.1913       -71.0044       -49.0257      0.1127227
      4915.5000          0.616       4472.497         0.1867       -71.3017       -49.3071      0.1074132
      4916.0000          0.612       4504.735         0.1856       -71.5991       -49.5886      0.1021019
      4916.5000          0.608       4527.243         0.1853       -71.6985       -49.6721      0.1005264
      4917.0000          0.604       4550.943         0.1853       -71.8969       -49.8546     0.09708304
      4917.5000          0.598       4554.845          0.185       -71.9963       -49.9381     0.09550757
      4918.0000          0.594       4540.313          0.185       -71.9968       -49.9227     0.09579813
      4918.5000          0.584       4525.782          0.185       -71.8983       -49.8083     0.09795661
      4919.0000          0.578        4511.25          0.185       -71.7998       -49.6939      0.1001151
      4919.5000         0.5739        4498.55         0.1853       -71.6023       -49.4805      0.1041415
      4920.0000         0.5719       4486.552         0.1853       -71.5039       -49.3662      0.1062981
      4920.5000         0.5719       4526.132         0.1858       -71.6033       -49.4497      0.1047227
      4921.0000         0.5738       4573.574         0.1861       -71.3069       -49.1374      0.1106151
      4921.5000         0.5758       4581.524         0.1883       -71.0105       -48.8251      0.1165075
      4922.0000         0.5797        4455.45         0.1895       -70.8131       -48.6118      0.1205321
      4922.5000         0.5856       4329.375         0.1957       -70.5167       -48.2995      0.1264245
      4923.0000         0.5876       4203.301         0.1945       -70.2204       -47.9873      0.1323151
      4923.5000         0.5955        3977.35         0.2033       -69.7264       -47.4774      0.1419358
      4924.0000         0.6153       3889.834         0.2328       -69.1333       -46.8684      0.1534264
      4924.5000         0.6789       3758.551         0.2522       -68.5402       -46.2594       0.164917
      4925.0000         0.6828       3706.819         0.2718       -68.2439       -45.9472      0.1708075
      4925.5000         0.6868       3667.016         0.2914       -65.5265       -43.2139      0.2223792
      4926.0000         0.6927       2918.493         0.3209       -62.8091       -40.4806       0.273951
      4926.5000         0.6947       2706.721         0.3695       -58.8482       -36.5038      0.3489849
      4927.0000         0.7066       2405.799         0.4157       -58.6504       -36.2901       0.353017
      4927.5000         0.8147       2405.761         0.4157       -27.0962          -4.72      0.9486793
      4928.0000         0.9229       2027.744         0.4932       -25.6129        -3.2208       0.976966
      4928.5000         1.0545       1725.135         0.5797       -24.7237        -2.3157      0.9940434
      4929.0000         1.0645       1422.525          0.846       -24.4282        -2.0043      0.9999189
      4929.5000         1.0704       1112.283         0.8857       -23.9354        -1.4956              1
      4930.0000         1.0804       1112.221         0.8953       -23.7388        -1.2831              1
      4930.5000         1.0942       1112.098         0.8951       -23.1465        -0.6749              1
      4931.0000         1.0982       1115.953         0.8649         -22.95        -0.4625              1
      4931.5000         1.1041       1127.765         0.8746       -22.8523        -0.3489              1
      4932.0000         1.1121       1151.515         0.8854       -22.8536        -0.3343              1
      4932.5000          1.116       1155.372         0.8939        -23.844        -1.3088              1
      4933.0000           1.12       1151.271         0.9035       -24.5376        -1.9865              1
      4933.5000         1.1219       1143.255         0.9132       -24.9344        -2.3674      0.9930679
      4934.0000         1.1259       1143.072         0.9229       -25.0346        -2.4517      0.9914774
      4934.5000         1.1279       1119.011         0.9325       -25.3325        -2.7337      0.9861566
