#------------------------------------------------------------------------------
# Created by    : vladimir.rabinovich
# Created on    : 09/19/2023 17:20:54
#------------------------------------------------------------------------------
~Version Information Section
VERS.           2.0     :   CWLS log ASCII Standard - VERSION 2.0
WRAP.           NO      :   One line per depth step
~Well Information Section
#MNEM       .UNIT                                         VALUE :DESCRIPTION
#------------------------------------------------------------------------------
STRT        .FT                                            2835 :START DEPTH
STOP        .FT                                            6351 :STOP DEPTH
STEP        .FT                                             0.5 :STEP      
NULL        .                                           -999.25 :NULL      
COMP        .                                   PENNZOIL CO INC :COMPANY   
WELL        .                                     ST TR 00659-L :WELL      
FLD         .                                           WILDCAT :FIELD     
LOC         .                                                   :LOCATION  
CNTY        .                      MATAGORDA ISLAND LARGE BLOCK :LOCATION  
STAT        .                                             TEXAS :STATE     
CTRY        .                                     UNITED STATES :COUNTRY   
SRVC        .                                                   :SERVICE COMPANY
DATE        .                             9/13/2023 11:19:13 AM :LOG DATE  
API         .                                    42703300020000 :API NUMBER
UWI         .                                    42703300020000 :UNIQUE WELL ID
XCOORD      .                                  437819.375414617 :SURFACE X 
YCOORD      .                                  10187782.3810297 :SURFACE Y 
LAT         .                                        28.0235144 :LATITUDE  
LON         .                                       -96.7273206 :LONGITUDE 
ELEV        .FT                                              73 :ELEVATION VALUE
ELEV_TYPE   .                                                KB :ELEVATION REFERENCE TYPE
~Curve Information Section
#MNEM       .UNIT                                      API CODE :CURVE DESCRIPTION
#------------------------------------------------------------------------------
DEPT        .FT                                                 :DEPTH     
ASN         .OHMM                                               :          
CILD        .MMHO                                               :          
ILD         .OHMM                                               :          
SP          .MV                                                 :          
SP_NORM     .MV                                                 :SP Normalized
VSH_SP      .V/V                                                :Volume of Shale from SP
~A        DEPTH            ASN           CILD            ILD             SP        SP_NORM         VSH_SP
# ...
      4697.0000         0.4762       2638.914         0.4382       -86.3795      -37.52238       0.169946
      4697.5000         0.4753        2632.52         0.4382       -87.0165      -38.16147      0.1554212
      4698.0000         0.4743       2624.973         0.4377        -87.653      -38.80006      0.1409077
      4698.5000         0.4733       2610.711         0.4371        -88.427      -39.57615      0.1232693
      4699.0000         0.4724       2596.445         0.4365       -87.8049      -38.95614      0.1373604
      4699.5000         0.4725       2582.516         0.4359       -87.1824      -38.33574      0.1514605
      4700.0000         0.4728       2573.121         0.4354       -86.5591      -37.71452       0.165579
      4700.5000         0.4731       2587.473         0.4344       -85.9327      -37.09022      0.1797677
      4701.0000          0.471       2601.824         0.4306       -85.5435      -36.70311      0.1885656
      4701.5000         0.4683       2616.898         0.4268       -85.8683         -37.03      0.1811363
      4702.0000         0.4638       2632.773          0.423        -86.193       -37.3568      0.1737092
      4702.5000         0.4594       2651.844         0.4193       -86.5181      -37.68398      0.1662731
      4703.0000         0.4549       2672.547         0.4155       -86.8429      -38.01088      0.1588436
      4703.5000         0.4505       2697.809         0.4117        -87.168      -38.33807      0.1514075
      4704.0000         0.4454       2743.609         0.4091       -87.4927      -38.66486      0.1439804
      4704.5000         0.4395       2845.445         0.4067       -87.8163      -38.99055      0.1365783
      4705.0000         0.4336       2945.887         0.4042       -88.1366      -39.31294      0.1292513
      4705.5000         0.4277       3100.637         0.4018       -88.4573      -39.63574       0.121915
      4706.0000         0.4201       3178.914         0.3994        -88.778      -39.95853      0.1145789
      4706.5000         0.4119       3270.965          0.397       -89.0984      -40.28102      0.1072495
      4707.0000         0.4043       3356.828         0.3949       -89.4454      -40.63011     0.09931564
      4707.5000          0.398       3413.211         0.3931        -89.814      -41.00081     0.09089062
      4708.0000         0.3918       3445.484         0.3914       -90.1829       -41.3718      0.0824591
      4708.5000         0.3864       3469.598         0.3896       -90.5514      -41.74239      0.0740366
      4709.0000         0.3812       3466.129         0.3879       -90.9199      -42.11298     0.06561401
      4709.5000         0.3781         3435.5         0.3861       -91.2494      -42.44457      0.0580779
      4710.0000         0.3775       3402.504         0.3844       -91.5748      -42.77207     0.05063482
      4710.5000         0.3768       3363.469         0.3836       -91.9005      -43.09986     0.04318506
      4711.0000         0.3762       3291.531          0.383        -92.226      -43.42745     0.03573972
      4711.5000         0.3776        3224.09         0.3823       -92.4172      -43.62074     0.03134675
      4712.0000         0.3799       3163.387         0.3817       -92.4364      -43.64204     0.03086281
      4712.5000         0.3823       3123.875         0.3811       -92.0444      -43.25213     0.03972426
      4713.0000         0.3846       3091.203         0.3806       -91.6527      -42.86252     0.04857904
      4713.5000          0.387       3067.617         0.3814       -91.1339      -42.34582     0.06032233
      4714.0000         0.3898       3038.738         0.3822       -90.5614      -41.77541     0.07328623
      4714.5000         0.3926       3006.262          0.383       -89.9895       -41.2056     0.08623635
      4715.0000         0.3953       2977.059         0.3838       -89.6774      -40.89559      0.0932821
      4715.5000         0.3961        2950.43         0.3845        -89.451      -40.67128     0.09838009
      4716.0000         0.3969       2926.953          0.384       -89.8734      -41.09577     0.08873246
      4716.5000         0.3977       2948.355         0.3829       -90.3198      -41.54427     0.07853942
      4717.0000         0.3975       2990.039         0.3818       -90.7664      -41.99296     0.06834178
      4717.5000         0.3973       3041.684         0.3806       -91.0547      -42.28335       0.061742
      4718.0000          0.397       3095.895         0.3795       -90.5732      -41.80394     0.07263782
      4718.5000         0.3947       3145.016         0.3783       -90.0286      -41.26144     0.08496735
      4719.0000           0.39       3196.785         0.3771       -89.4839      -40.71883      0.0972994
      4719.5000         0.3857       3304.211         0.3752       -89.0405      -40.27752      0.1073292
      4720.0000         0.3822       3442.789         0.3733       -88.7628      -40.00191      0.1135929
      4720.5000         0.3788        3487.77         0.3713       -88.5968      -39.83801      0.1173181
      4721.0000         0.3755       3519.316         0.3694       -88.8806      -40.12389      0.1108206
      4721.5000         0.3768       3545.574         0.3675       -89.1641      -40.40948      0.1043299
      4722.0000         0.3781       3574.855         0.3655       -89.4479      -40.69538     0.09783233
      4722.5000         0.3794       3591.477         0.3639       -89.9231      -41.17267     0.08698472
      4723.0000         0.3806       3609.984         0.3622       -90.4028      -41.65446      0.0760349
      4723.5000         0.3824        3625.91         0.3606       -90.8827      -42.13645     0.06508064
      4724.0000         0.3844       3615.727         0.3589       -91.3711      -42.62695     0.05393297
      4724.5000         0.3864       3598.379         0.3573       -91.8633      -43.12123     0.04269921
      4725.0000         0.3884        3581.02         0.3557       -92.3629      -43.62293     0.03129708
      4725.5000         0.3904       3563.672         0.3541       -92.8661      -44.12822     0.01981319
      4726.0000         0.3883       3563.461         0.3537       -93.2142      -44.47842     0.01185417
      4726.5000         0.3854       3578.848         0.3533       -93.4124      -44.67871    0.007302111
      4727.0000         0.3813       3594.695         0.3528       -91.9143       -43.1827     0.04130233
      4727.5000         0.3767        3608.09         0.3524       -90.8442      -42.11469     0.06557517
      4728.0000          0.372       3620.645          0.352       -90.8214      -42.09399     0.06604576
      4728.5000         0.3676       3632.563         0.3516       -91.1265      -42.40118     0.05906417
      4729.0000         0.3636        3643.91         0.3512       -91.4044      -42.68117     0.05270065
      4729.5000         0.3597       3654.832         0.3508       -91.6593      -42.93816        0.04686
      4730.0000         0.3553       3582.219         0.3506       -91.9141      -43.19505     0.04102152
      4730.5000         0.3493        3505.34         0.3507       -92.1689      -43.45194     0.03518313
      4731.0000         0.3432       3489.645         0.3507       -92.4238      -43.70893     0.02934239
      4731.5000         0.3398       3477.797         0.3508       -92.8267      -44.11393     0.02013805
      4732.0000          0.349       3463.605         0.3509       -93.2906      -44.57992    0.009547234
      4732.5000         0.3581       3442.641         0.3509       -93.7546      -45.04601              0
      4733.0000         0.3672       3463.434          0.351       -93.1964      -44.48991     0.01159304
      4733.5000         0.3706       3496.031         0.3509         -92.49      -43.78559     0.02760012
      4734.0000          0.366       3531.797         0.3504       -91.7834      -43.08109     0.04361161
      4734.5000         0.3613       3563.648         0.3499       -90.7754      -42.07518     0.06647318
