#------------------------------------------------------------------------------
# Created by    : vladimir.rabinovich
# Created on    : 09/19/2023 17:20:49
#------------------------------------------------------------------------------
~Version Information Section
VERS.           2.0     :   CWLS log ASCII Standard - VERSION 2.0
WRAP.           NO      :   One line per depth step
~Well Information Section
#MNEM       .UNIT                                         VALUE :DESCRIPTION
#------------------------------------------------------------------------------
STRT        .FT                                             556 :START DEPTH
STOP        .FT                                            7001 :STOP DEPTH
STEP        .FT                                             0.5 :STEP      
NULL        .                                           -999.25 :NULL      
COMP        .                          HUMBLE OIL & REFINING CO :COMPANY   
WELL        .                                     ST TR 00598-L :WELL      
FLD         .                                           WILDCAT :FIELD     
LOC         .                                                   :LOCATION  
CNTY        .                      MATAGORDA ISLAND LARGE BLOCK :LOCATION  
STAT        .                                             TEXAS :STATE     
CTRY        .                                     UNITED STATES :COUNTRY   
SRVC        .                                                   :SERVICE COMPANY
DATE        .                             9/13/2023 11:12:05 AM :LOG DATE  
API         .                                    42703000080000 :API NUMBER
UWI         .                                    42703000080000 :UNIQUE WELL ID
XCOORD      .                                  502144.869554487 :SURFACE X 
YCOORD      .                                  10234432.9570627 :SURFACE Y 
LAT         .                                        28.1568958 :LATITUDE  
LON         .                                       -96.5324651 :LONGITUDE 
ELEV        .FT                                              15 :ELEVATION VALUE
ELEV_TYPE   .                                                KB :ELEVATION REFERENCE TYPE
~Curve Information Section
#MNEM       .UNIT                                      API CODE :CURVE DESCRIPTION
#------------------------------------------------------------------------------
DEPT        .FT                                                 :DEPTH     
ASN         .OHMM                                               :          
CALI        .IN                                                 :          
CILD        .MMHO                                               :          
DT          .US/F                                               :          
ILD         .OHMM                                               :          
SP          .MV                                                 :          
SP_NORM     .MV                                                 :SP Normalized
VSH_SP      .V/V                                                :Volume of Shale from SP
~A        DEPTH            ASN           CALI           CILD             DT            ILD             SP        SP_NORM         VSH_SP
# ...
      4833.5000         0.5377         8.9253       3479.449       110.8805         0.3134       -64.7094        -21.711              0
      4834.0000         0.5514         8.8864       3347.406       103.9802         0.3316       -64.6694       -21.6747              0
      4834.5000         0.5759         8.8441       3044.387       102.3705         0.3497       -64.4019       -21.4108              0
      4835.0000         0.6207         8.8045       2808.762       103.0066         0.3679       -64.1343       -21.1468              0
      4835.5000         0.6796         8.8269       2643.949       114.3733         0.4108       -63.8487       -20.8648    0.007115816
      4836.0000         0.7371         8.9871         2269.5       115.0431         0.4561       -63.4438       -20.4635     0.02823689
      4836.5000         0.8654         9.0801       2010.025       114.3608         0.5018       -63.0385       -20.0618     0.04937895
      4837.0000         1.1378         9.0824       1770.926       113.2911         0.5487       -62.7206       -19.7475     0.06592108
      4837.5000         1.1802          9.034       1606.703       106.3597         0.5956       -62.4512       -19.4817     0.07991048
      4838.0000         1.2133         9.0071        1516.08        95.8738         0.6076       -62.1818        -19.216     0.09389476
      4838.5000         1.2142         8.9973       1492.324        88.1273         0.6168       -61.9664       -19.0042      0.1050421
      4839.0000         1.1873         8.9984       1482.189        79.2181         0.6261       -61.8568       -18.8982      0.1106211
      4839.5000         1.1609         9.0011       1472.047        91.2808         0.6358       -61.7473       -18.7923      0.1161948
      4840.0000         1.1405         9.0336       1455.426       107.9989         0.6726       -61.6376       -18.6862       0.121779
      4840.5000         1.1296         9.0309       1435.607       109.1715         0.7094       -61.5422       -18.5944      0.1266105
      4841.0000         1.1466         8.9944       1413.281       113.5774         0.7503       -61.4493       -18.5051      0.1313105
      4841.5000         1.2831         8.8579       1361.344       111.9932         0.8241       -61.3564       -18.4158      0.1360105
      4842.0000         1.5749         8.7128       1302.854       105.8308         0.8978       -60.9067       -17.9698      0.1594842
      4842.5000         1.6659         8.6769       1220.252        92.8026         0.9374        -60.377       -17.4437      0.1871736
      4843.0000         1.3926         8.7083       1141.074        79.9541         0.9564       -59.2553       -16.3256      0.2460211
      4843.5000         1.2938         8.7673       1066.055         74.176         0.9092       -58.0594       -15.1333      0.3087737
      4844.0000         1.2136         8.8584       988.9307         77.448         0.8621       -56.9858       -14.0633      0.3650895
      4844.5000         1.1428         8.9382        954.208        89.1252         0.7488       -56.3914       -13.4725      0.3961842
      4845.0000         1.0969         8.9944       1009.324       101.9788         0.6545       -56.1623        -13.247      0.4080527
      4845.5000         1.0539         9.1773       1233.555       101.9351         0.6432        -55.821       -12.9093      0.4258263
      4846.0000         1.0216         9.3218       1339.387       104.4387         0.6318       -55.3311       -12.4231      0.4514158
      4846.5000         0.9893         9.1928       1388.291       101.7692         0.6322       -54.2695       -11.3651         0.5071
      4847.0000         0.9724         9.1333       1398.977        102.061         0.6397       -53.1923       -10.2915      0.5636052
      4847.5000         0.9556         9.3614       1377.434       105.2246         0.6471       -52.6342         -9.737      0.5927895
      4848.0000         0.9387         9.4916       1355.891       108.4354         0.6589       -52.1575        -9.2639      0.6176895
      4848.5000         0.9311         9.5872       1332.539       111.5753         0.6722       -51.6307        -8.7407      0.6452263
      4849.0000         0.9241         9.7915       1302.977       110.2236         0.6855       -51.1034         -8.217      0.6727895
      4849.5000         0.9181         9.7523       1273.438       114.1537         0.6988       -50.4521        -7.5694      0.7068737
      4850.0000         0.9151         9.5807       1243.873       117.8436         0.7121       -49.6672        -6.7881      0.7479947
      4850.5000         0.9121         9.5884       1223.039         117.16         0.7248       -49.0005         -6.125      0.7828947
      4851.0000         0.9078         9.8441       1206.131       118.4075         0.7339       -48.5454        -5.6735      0.8066579
      4851.5000         0.9026        10.5117       1189.223       115.5415         0.7431       -48.4611        -5.5928      0.8109053
      4852.0000         0.8977        10.6175       1180.063       117.1974         0.7522       -48.3832        -5.5185      0.8148158
      4852.5000         0.8938        11.0687       1179.699       122.8857         0.7614       -48.3853        -5.5242      0.8145158
      4853.0000         0.8914        11.3972       1179.336       124.9191         0.7705       -48.3875          -5.53      0.8142105
      4853.5000          0.903        11.1624       1174.453       124.0109         0.7898       -48.3896        -5.5358      0.8139052
      4854.0000         0.9162        10.4458       1145.305       121.5135         0.8159       -48.3514        -5.5012      0.8157263
      4854.5000         0.9302        10.5488       1101.021       118.0382         0.8421       -48.2522        -5.4056      0.8207579
      4855.0000         0.9423        11.0911       1033.238       115.8278         0.8826        -48.153          -5.31      0.8257895
      4855.5000         0.9507        11.5526       1025.389       117.8461         0.9293       -48.0081        -5.1687      0.8332263
      4856.0000          0.959        11.7448       1021.406       120.3584          0.976       -47.7673        -4.9315      0.8457105
      4856.5000         0.9682        11.6047       1022.345       121.3944         1.0073       -47.5263        -4.6941      0.8582053
      4857.0000           0.98         10.981       1026.012       121.1222         1.0278       -47.3089        -4.4803      0.8694579
      4857.5000         0.9918        10.5243       1029.684       121.2341         1.0483       -47.1217        -4.2968      0.8906286
      4858.0000         1.0049        10.4618       1013.212       119.3729         1.0636       -47.0638        -4.2425      0.8932143
      4858.5000          1.027        10.6734       981.2031        112.199         1.0657       -47.0405        -4.2228      0.8941524
      4859.0000         1.0496        10.8714       936.6016       109.4783         1.0678       -47.0173        -4.2032      0.8950857
      4859.5000         1.0879        10.8294        882.415       106.3124         1.0625       -47.4088        -4.5983      0.8762714
      4860.0000         1.1366        10.8878       844.7578       107.9465         1.0461       -47.9592        -5.1523      0.8498905
      4860.5000         1.1927        11.2954       814.4365       120.3959         1.0296       -48.6778        -5.8745         0.8155
      4861.0000         1.2002        11.2897       781.9629       120.9796         1.0132       -49.4873        -6.6876       0.776781
      4861.5000         1.1942         10.045        769.957       117.8536         0.9756       -49.8969        -7.1009         0.7571
      4862.0000         1.1838         9.2022       811.5996       108.4554          0.916       -50.5587        -7.7663      0.7254143
      4862.5000           1.17         9.1395       905.5957        88.2072         0.8403       -51.9507        -9.1619      0.6589572
