#------------------------------------------------------------------------------
# Created by    : vladimir.rabinovich
# Created on    : 09/19/2023 17:20:49
#------------------------------------------------------------------------------
~Version Information Section
VERS.           2.0     :   CWLS log ASCII Standard - VERSION 2.0
WRAP.           NO      :   One line per depth step
~Well Information Section
#MNEM       .UNIT                                         VALUE :DESCRIPTION
#------------------------------------------------------------------------------
STRT        .FT                                            2010 :START DEPTH
STOP        .FT                                            6610 :STOP DEPTH
STEP        .FT                                             0.5 :STEP      
NULL        .                                           -999.25 :NULL      
COMP        .                                      SHELL OIL CO :COMPANY   
WELL        .                                ST TR 00691-L SE/4 :WELL      
FLD         .                                           WILDCAT :FIELD     
LOC         .                                                   :LOCATION  
CNTY        .                      MATAGORDA ISLAND LARGE BLOCK :LOCATION  
STAT        .                                             TEXAS :STATE     
CTRY        .                                     UNITED STATES :COUNTRY   
SRVC        .                                                   :SERVICE COMPANY
DATE        .                             9/13/2023 11:12:05 AM :LOG DATE  
API         .                                    42703000190000 :API NUMBER
UWI         .                                    42703000190000 :UNIQUE WELL ID
XCOORD      .                                  412077.623085271 :SURFACE X 
YCOORD      .                                  10154908.2726125 :SURFACE Y 
LAT         .                                        27.9310704 :LATITUDE  
LON         .                                         -96.80379 :LONGITUDE 
ELEV        .FT                                              82 :ELEVATION VALUE
ELEV_TYPE   .                                                DF :ELEVATION REFERENCE TYPE
~Curve Information Section
#MNEM       .UNIT                                      API CODE :CURVE DESCRIPTION
#------------------------------------------------------------------------------
DEPT        .FT                                                 :DEPTH     
ASN         .OHMM                                               :          
CILD        .MMHO                                               :          
ILD         .OHMM                                               :          
SP          .MV                                                 :          
SP_NORM     .MV                                                 :SP Normalized
VSH_SP      .V/V                                                :Volume of Shale from SP
~A        DEPTH            ASN           CILD            ILD             SP        SP_NORM         VSH_SP
# ...
      2314.0000         0.5145       2484.402         0.4894      -103.6587       -29.8953     0.07015667
      2314.5000         0.4936       2716.742         0.4688      -104.4166       -30.6574     0.04475333
      2315.0000         0.4776       2948.984         0.4527      -104.9283       -31.1733     0.02755667
      2315.5000         0.4692       3181.227         0.4433      -105.4398        -31.689     0.01036669
      2316.0000         0.4609       3413.566         0.4338      -105.8297       -32.0831              0
      2316.5000         0.4525        3319.27         0.4351      -106.0729       -32.3305              0
      2317.0000         0.4448       3215.676         0.4423      -106.2063        -32.468              0
      2317.5000         0.4382       3112.082         0.4495      -106.2267       -32.4926              0
      2318.0000         0.4316       3008.488         0.4555      -106.1351       -32.4052              0
      2318.5000          0.425       2904.895         0.4615      -105.7926       -32.0669              0
      2319.0000          0.423       2801.301         0.4674      -105.2751       -31.5536     0.01487999
      2319.5000         0.4329       2697.707         0.4734      -104.5702       -30.8529     0.03823668
      2320.0000         0.4427       2594.113         0.4769      -103.5658       -29.8527     0.07157669
      2320.5000         0.4526        2490.52         0.4792      -101.3999        -27.691      0.1436333
      2321.0000         0.4625       2386.922         0.4814       -99.4017        -25.697         0.2101
      2321.5000         0.4724       2283.328         0.4837        -97.936       -24.2355      0.2588167
      2322.0000         0.4823        2344.84         0.4844       -97.0172       -23.3209      0.2893033
      2322.5000         0.4736       2522.668         0.4706       -96.0984       -22.4063        0.31979
      2323.0000         0.4614       2700.398         0.4567       -97.2861       -23.5982        0.28006
      2323.5000          0.448       2878.227         0.4429       -98.9493       -25.2656        0.22448
      2324.0000         0.4346       3055.957          0.429      -100.5713       -26.8918      0.1702733
      2324.5000         0.4212       3233.781         0.4162      -101.4198       -27.7445        0.14185
      2325.0000         0.4078       3411.512         0.4036      -102.2681        -28.597      0.1134333
      2325.5000         0.3944        3589.34          0.391      -102.9785       -29.3116     0.08961334
      2326.0000          0.384       3785.469         0.3784      -103.6488       -29.9861     0.06713002
      2326.5000         0.3739       3837.145         0.3658      -104.0896       -30.4311     0.05229664
      2327.0000         0.3639       3831.398         0.3532      -104.2795       -30.6252     0.04582666
      2327.5000         0.3539       3822.934         0.3406      -104.4694       -30.8193     0.03935667
      2328.0000         0.3438        3809.16          0.328      -104.5575       -30.9116     0.03627999
      2328.5000         0.3437       3795.379          0.333      -104.4406       -30.7989     0.04003664
      2329.0000         0.3474       3772.332         0.3541      -104.3236       -30.6861     0.04379667
      2329.5000         0.3511       3739.508         0.3751      -104.2067       -30.5733     0.04755669
      2330.0000         0.3548       3696.531         0.3962      -104.0897       -30.4605     0.05131664
      2330.5000         0.3584       3444.984         0.4172      -103.9728       -30.3478     0.05507336
      2331.0000         0.3721       3223.898         0.4383      -103.5704       -29.9496     0.06834666
      2331.5000           0.39       3002.813         0.4644      -103.0605       -29.4439     0.08520336
      2332.0000         0.4079       2781.727          0.496      -102.3175       -28.7051        0.10983
      2332.5000         0.4258       2560.543         0.5277      -100.9413       -27.3331      0.1555634
      2333.0000         0.4437       2339.457         0.5593       -97.5774       -23.9734      0.2675533
      2333.5000         0.4777       2133.246         0.5909       -94.2142       -20.6144        0.37952
      2334.0000         0.5152       1992.063         0.6225       -92.2295       -18.6339      0.4455367
      2334.5000         0.5507       1844.191         0.6541       -90.2516       -16.6602      0.5113267
      2335.0000         0.5817       1694.746         0.7174       -87.9117       -14.3245      0.5891833
      2335.5000         0.6126       1545.301          0.781       -85.4531       -11.8701      0.6709967
      2336.0000          0.649       1395.904         0.8447       -81.6769        -8.0981        0.79673
      2336.5000         0.6933       1246.457         0.8284       -79.8929        -6.3183      0.8560567
      2337.0000         0.7297       1172.225         0.8002       -81.4944         -7.924      0.8025333
      2337.5000         0.7589       1264.711          0.772       -83.3824        -9.8162        0.73946
      2338.0000          0.731       1357.146         0.7438       -85.1453       -11.5833      0.6805567
      2338.5000         0.7016       1449.584         0.7156       -86.9087       -13.3509      0.6216367
      2339.0000         0.6724       1542.021         0.6874       -89.9498       -16.3962      0.5201266
      2339.5000         0.6456       1634.508         0.6592       -93.0906       -19.5412      0.4152933
      2340.0000         0.6187       1730.273          0.631       -95.3372        -21.792      0.3402667
      2340.5000         0.5919       2206.699         0.6028       -97.1835       -23.6425      0.2785833
      2341.0000         0.5697       2323.457         0.5746       -98.8448        -25.308      0.2230666
      2341.5000         0.5524       2440.262         0.5338       -99.9957        -26.463      0.1845667
      2342.0000         0.5351        2557.02         0.5063      -100.6365        -27.108      0.1630667
      2342.5000         0.5178       2673.777         0.4873      -101.2404       -27.7161      0.1427967
      2343.0000         0.5005       2822.441         0.4683      -101.7589       -28.2388      0.1253733
      2343.5000         0.4861       2980.328         0.4493      -102.2776       -28.7617      0.1079433
      2344.0000         0.4723       3026.828         0.4303      -102.7004       -29.1887     0.09371001
      2344.5000         0.4585        3062.07         0.4113      -102.9821       -29.4746        0.08418
      2345.0000         0.4447       3156.172         0.3991      -103.2637       -29.7604     0.07465331
      2345.5000         0.4261        3254.68         0.3926      -103.5454       -30.0463      0.0651233
      2346.0000         0.4048       3347.641         0.3861      -103.7423       -30.2474     0.05841999
      2346.5000         0.3868       3372.137         0.3796       -103.928       -30.4373     0.05209001
      2347.0000         0.3783       3361.359         0.3732      -103.8545        -30.368         0.0544
      2347.5000         0.3697       3350.582         0.3667      -103.5438       -30.0615     0.06461665
      2348.0000         0.3611       3339.293         0.3602      -103.2332       -29.7551     0.07482999
      2348.5000         0.3541       3326.641         0.3538      -102.9225       -29.4486     0.08504664
      2349.0000         0.3526           3314         0.3473      -102.5765       -29.1068     0.09643999
      2349.5000         0.3511       3301.348         0.3413       -102.226       -28.7605      0.1079833
      2350.0000         0.3496       3282.098         0.3418      -101.8751       -28.4138        0.11954
      2350.5000          0.348       3250.789         0.3424      -101.5244       -28.0673        0.13109
      2351.0000         0.3465       3196.727         0.3429      -101.1737       -27.7208        0.14264
      2351.5000         0.3459       3163.121         0.3434      -100.8064       -27.3577      0.1547433
