#------------------------------------------------------------------------------
# Created by    : vladimir.rabinovich
# Created on    : 09/19/2023 17:20:45
#------------------------------------------------------------------------------
~Version Information Section
VERS.           2.0     :   CWLS log ASCII Standard - VERSION 2.0
WRAP.           NO      :   One line per depth step
~Well Information Section
#MNEM       .UNIT                                         VALUE :DESCRIPTION
#------------------------------------------------------------------------------
STRT        .FT                                            1401 :START DEPTH
STOP        .FT                                            4951 :STOP DEPTH
STEP        .FT                                             0.5 :STEP      
NULL        .                                           -999.25 :NULL      
COMP        .                      GULF ENERGY EXPLORATION CORP :COMPANY   
WELL        .                                ST TR 00596-L NE/4 :WELL      
FLD         .                        SHERMAN OFFSHORE SOUTHWEST :FIELD     
LOC         .                                                   :LOCATION  
CNTY        .                      MATAGORDA ISLAND LARGE BLOCK :LOCATION  
STAT        .                                             TEXAS :STATE     
CTRY        .                                     UNITED STATES :COUNTRY   
SRVC        .                                                   :SERVICE COMPANY
DATE        .                             9/13/2023 11:12:01 AM :LOG DATE  
API         .                                    42703301240000 :API NUMBER
UWI         .                                    42703301240000 :UNIQUE WELL ID
XCOORD      .                                    480210.3272994 :SURFACE X 
YCOORD      .                                  10243409.1849528 :SURFACE Y 
LAT         .                                        28.1797739 :LATITUDE  
LON         .                                       -96.6012532 :LONGITUDE 
ELEV        .FT                                              82 :ELEVATION VALUE
ELEV_TYPE   .                                                KB :ELEVATION REFERENCE TYPE
~Curve Information Section
#MNEM       .UNIT                                      API CODE :CURVE DESCRIPTION
#------------------------------------------------------------------------------
DEPT        .FT                                                 :DEPTH     
ASN         .OHMM                                               :          
CILD        .MMHO                                               :          
ILD         .OHMM                                               :          
SP          .MV                                                 :          
SP_NORM     .MV                                                 :SP Normalized
VSH_SP      .V/V                                                :Volume of Shale from SP
~A        DEPTH            ASN           CILD            ILD             SP        SP_NORM         VSH_SP
# ...
      3719.0000         0.8487       1556.494         0.6425       -23.7297        -4.9734      0.9308512
      3719.5000          0.815       1588.265         0.6296       -24.0262        -5.2736      0.9238698
      3720.0000          0.815       1608.132         0.6218       -24.5199        -5.7711         0.9123
      3720.5000          0.813       1627.998         0.6143       -24.9146        -6.1696      0.9030325
      3721.0000         0.8407       1620.085         0.6173       -25.5075        -6.7663      0.8891558
      3721.5000         0.8447       1562.181         0.6401       -25.9021        -7.1647      0.8798907
      3722.0000         0.8932       1504.277         0.6648       -26.0984        -7.3648      0.8752372
      3722.5000         0.9416       1446.372         0.6914       -26.2946        -7.5648       0.870586
      3723.0000         0.9901       1393.996         0.7174       -26.4909        -7.7649      0.8659325
      3723.5000         1.0385       1326.329          0.754       -26.6871        -7.9649      0.8612814
      3724.0000          1.087       1258.663         0.7945       -26.9825        -8.2641      0.8543233
      3724.5000         1.1355       1190.996         0.8396       -27.1788        -8.4642      0.8496698
      3725.0000         1.1839        1123.33         0.8902        -27.375        -8.6642      0.8450186
      3725.5000         1.2324       1055.664         0.9473       -27.3729        -8.6659       0.844979
      3726.0000         1.2851       987.9972         1.0121       -27.3708        -8.6676      0.8449395
      3726.5000         1.3261       920.3308         1.0866       -27.1704         -8.471      0.8495116
      3727.0000          1.367       852.6644         1.1728       -27.0691        -8.3734      0.8517814
      3727.5000          1.408        784.998         1.4252        -27.067        -8.3751      0.8517419
      3728.0000         1.4398       717.3316         1.5442       -26.9658        -8.2777      0.8540069
      3728.5000         1.4596       624.4404         1.5838       -26.9626        -8.2783       0.853993
      3729.0000         1.4616       644.2946         1.5936       -27.1589        -8.4784      0.8493395
      3729.5000         1.3489       1814.952         1.6035       -33.8835       -15.2068      0.6928651
      3730.0000         1.2361       2069.691         0.6709       -40.6081       -21.9352      0.5363907
      3730.5000         0.8921       2324.431         0.5815       -47.3327       -28.6636      0.3799163
      3731.0000         0.8643       2579.171         0.4327       -54.0573        -35.392      0.2234419
      3731.5000         0.7961       2833.911         0.3529       -59.0824       -40.4209      0.1064907
      3732.0000         0.7279       3088.651         0.3238       -61.3619       -42.7042     0.05339068
      3732.5000          0.648       3343.391         0.2991       -62.1529        -43.499     0.03490696
      3733.0000         0.6361       3598.131         0.2779       -62.4481        -43.798     0.02795348
      3733.5000         0.6321       3854.836         0.2594       -62.6441       -43.9978       0.023307
      3734.0000          0.682       3866.754         0.2586       -62.9393       -44.2968     0.01635352
      3734.5000         0.7319       3580.542         0.2793       -63.3336       -44.6948    0.007097643
      3735.0000         0.7818        3294.33         0.3036       -64.0255       -45.3905              0
      3735.5000         0.8317       3008.118         0.3324        -64.519       -45.8878              0
      3736.0000         0.8816       2721.906         0.3674       -66.0068       -47.3794              0
      3736.5000         0.9315       2418.479         0.4135       -65.6091       -46.9855              0
      3737.0000         0.9814       2422.459         0.4128       -63.8376       -45.2178              0
      3737.5000         1.0313       2438.357         0.4101       -62.0661       -43.4501     0.03604419
      3738.0000         1.0812       2575.444         0.3883       -60.2945       -41.6823      0.0771558
      3738.5000          1.126       2712.531         0.3687        -58.523       -39.9146      0.1182651
      3739.0000          1.126       2843.208         0.3517       -55.9777       -37.3731      0.1773698
      3739.5000         1.0766       1351.171         0.7401        -56.866       -38.2652      0.1566232
      3740.0000         1.0271       1351.171         0.7401        -57.486        -38.889      0.1421163
      3740.5000         0.9776       1367.069         0.6299        -58.106       -39.5128      0.1276093
      3741.0000         0.9281       1554.924         0.5902        -58.726       -40.1366      0.1131023
      3741.5000         0.8787       1742.778         0.5207        -59.346       -40.7604     0.09859537
      3742.0000         0.8292       1930.633         0.4809       -60.0263       -41.4444     0.08268835
      3742.5000         0.7797       2541.779         0.4412       -60.1244       -41.5463     0.08031863
      3743.0000         0.7302       2783.865         0.4014       -60.2212       -41.6469     0.07797907
      3743.5000         0.6808       2807.699         0.3617       -60.5164       -41.9459     0.07102558
      3744.0000         0.6313       2935.456         0.3319       -60.9107        -42.344      0.0617674
      3744.5000         0.5818       3063.213         0.3172        -61.305       -42.7421     0.05250931
      3745.0000         0.5485        3190.97         0.3148       -61.3028       -42.7437     0.05247214
      3745.5000         0.5445       3318.727         0.2922       -60.7057       -42.1504     0.06626981
      3746.0000         0.5485        3430.85         0.2921       -60.2771       -41.7256     0.07614881
      3746.5000         0.5504        3411.02         0.2939       -59.8486       -41.3009      0.0860256
      3747.0000         0.5623       3168.995         0.2957         -59.42       -40.8761     0.09590469
      3747.5000         0.5663       3184.893         0.2975       -58.9109       -40.3708      0.1076558
      3748.0000         0.5841        3204.76         0.2993       -58.7103        -40.174      0.1122326
      3748.5000         0.5821       3216.689         0.3011       -58.6089       -40.0764      0.1145023
      3749.0000         0.5782       3228.619          0.303       -58.6066       -40.0779      0.1144674
      3749.5000         0.5682       3240.548         0.3048       -59.0009       -40.4759      0.1052117
      3750.0000         0.5662       3252.478         0.3067       -59.7918       -41.2706     0.08673025
      3750.5000         0.5662       3244.565         0.3093        -59.989       -41.4716     0.08205582
      3751.0000         0.5662       3236.653         0.3093        -60.185       -41.6714     0.07740934
      3751.5000         0.5682       3232.709         0.3093        -60.381       -41.8712     0.07276278
      3752.0000         0.5701       3236.702         0.3086       -60.4778       -41.9718     0.07042322
      3752.5000         0.5781       3240.695         0.3078       -60.2762        -41.774     0.07502329
      3753.0000          0.586       3244.687         0.3071       -60.1748       -41.6764     0.07729304
      3753.5000         0.5973       3244.699         0.3071       -59.8751       -41.3805      0.0841744
      3754.0000         0.5979       3248.704         0.3078       -58.9806       -40.4898      0.1048884
      3754.5000         0.6257       3240.792         0.3086       -58.8803       -40.3933      0.1071326
      3755.0000         0.6613       3220.974         0.3105       -56.6949       -38.2117      0.1578674
      3755.5000         0.6613       3197.188         0.3128        -56.794       -38.3146      0.1554744
      3756.0000         0.6593       3181.339         0.3143       -52.9397       -34.4641      0.2450209
      3756.5000         0.6593        3165.49         0.3159       -49.0854       -30.6135      0.3345698
