#------------------------------------------------------------------------------
# Created by    : vladimir.rabinovich
# Created on    : 09/19/2023 17:20:46
#------------------------------------------------------------------------------
~Version Information Section
VERS.           2.0     :   CWLS log ASCII Standard - VERSION 2.0
WRAP.           NO      :   One line per depth step
~Well Information Section
#MNEM       .UNIT                                         VALUE :DESCRIPTION
#------------------------------------------------------------------------------
STRT        .FT                                             695 :START DEPTH
STOP        .FT                                            9139 :STOP DEPTH
STEP        .FT                                             0.5 :STEP      
NULL        .                                           -999.25 :NULL      
COMP        .                   COASTAL STATES GAS TRANSMISSION :COMPANY   
WELL        .                                     ST TR 00592-L :WELL      
FLD         .                                           WILDCAT :FIELD     
LOC         .                                                   :LOCATION  
CNTY        .                      MATAGORDA ISLAND LARGE BLOCK :LOCATION  
STAT        .                                             TEXAS :STATE     
CTRY        .                                     UNITED STATES :COUNTRY   
SRVC        .                                                   :SERVICE COMPANY
DATE        .                             9/13/2023 11:12:01 AM :LOG DATE  
API         .                                    42703000420000 :API NUMBER
UWI         .                                    42703000420000 :UNIQUE WELL ID
XCOORD      .                                  562172.631053371 :SURFACE X 
YCOORD      .                                   10240692.584136 :SURFACE Y 
LAT         .                                        28.1787665 :LATITUDE  
LON         .                                       -96.3469802 :LONGITUDE 
ELEV        .FT                                              11 :ELEVATION VALUE
ELEV_TYPE   .                                                KB :ELEVATION REFERENCE TYPE
~Curve Information Section
#MNEM       .UNIT                                      API CODE :CURVE DESCRIPTION
#------------------------------------------------------------------------------
DEPT        .FT                                                 :DEPTH     
ASN         .OHMM                                               :          
CALI        .IN                                                 :          
CILD        .MMHO                                               :          
DT          .US/F                                               :          
ILD         .OHMM                                               :          
SP          .MV                                                 :          
SP_NORM     .MV                                                 :SP Normalized
VSH_SP      .V/V                                                :Volume of Shale from SP
~A        DEPTH            ASN           CALI           CILD             DT            ILD             SP        SP_NORM         VSH_SP
# ...
      7981.5000         2.0418         9.7952       873.1641         75.593         1.3196       -51.0922      -4.385612      0.9426168
      7982.0000         1.9284         9.6462       899.2607        72.8743         1.2336       -51.0862      -4.379612      0.9427184
      7982.5000         1.6891         9.5639       914.2705        73.1863         1.1719       -51.0803      -4.373711      0.9428185
      7983.0000          1.464         9.6703       933.2266        77.2025         1.1157       -52.3253       -5.61871      0.9217168
      7983.5000         1.4083          9.856       955.9297        91.2866         1.0872       -53.5981       -6.89151      0.9001439
      7984.0000         1.3925        10.0761        980.166       104.0979         1.0587       -54.8709       -8.16431       0.878571
      7984.5000         1.5181        10.2702       1033.717        104.707         1.0558       -57.5813      -10.87471       0.832632
      7985.0000         1.7528         9.8785       1038.896       100.2798         1.0711       -60.3167      -13.61011      0.7862693
      7985.5000         1.9222         9.5876       1014.308        91.3955         1.0864       -63.0569      -16.35031      0.7398252
      7986.0000         2.0219         9.4715       983.5352        88.1815         1.1017       -69.1066      -22.40001       0.637288
      7986.5000          2.031         9.4119       949.2422        86.4929         1.1174       -76.1597      -29.45311      0.5177439
      7987.0000           2.04         9.3828       910.6748         89.765         1.1339       -79.8434      -33.13681      0.4553083
      7987.5000         2.0491         9.3636        867.834        89.5175         1.1503       -82.7009      -35.99431      0.4068761
      7988.0000         2.0582         9.3445       839.6758         88.475         1.1667       -85.0894      -38.38281       0.366393
      7988.5000         2.1624         9.3257       822.1025        87.2654         1.1832       -88.0294      -41.32281      0.3165624
      7989.0000          2.403         9.3069       808.6016        85.9332         1.1992       -91.2296      -44.52301      0.2623219
      7989.5000         2.5628          9.293        787.835        84.8091         1.2153       -90.8265      -44.11991       0.269154
      7990.0000         2.6181         9.2809        764.126        83.9561         1.2314       -90.4235      -43.71691      0.2759846
      7990.5000         2.5974         9.2634       756.6846        83.5156         1.2474        -95.364      -48.65741      0.1922473
      7991.0000         2.5705          9.237       767.0801        84.3152         1.2608       -96.6201      -49.91351      0.1709574
      7991.5000         2.5448         9.2107       782.8564        85.4158         1.2741       -97.0817      -50.37511      0.1631337
      7992.0000         2.5309         9.1806       811.2158        86.7701         1.2857       -97.4495      -50.74291      0.1568998
      7992.5000         2.5171         9.1481       836.4834        88.0156         1.2371        -97.792      -51.08541      0.1510947
      7993.0000          2.507         9.1156       870.8008        88.6842         1.1886        -98.126      -51.41941      0.1454337
      7993.5000         2.5204         9.1005       908.9658        89.3528         1.1434       -98.4457      -51.73911       0.140015
      7994.0000         2.5338         9.0916       947.1807           90.1         1.0988       -98.7654      -52.05882      0.1345964
      7994.5000         2.5471         9.1038       985.3955        89.8245         1.0558       -99.0854      -52.37881      0.1291726
      7995.0000         2.5446         9.1195        1023.61        88.9603         1.0147       -99.3453      -52.63871      0.1247676
      7995.5000         2.5291         9.1375       1061.773        87.3149         0.9747       -99.5925      -52.88591      0.1205778
      7996.0000         2.4857         9.1558       1099.988        85.6609         0.9482       -99.8398      -53.13321      0.1163863
      7996.5000         2.4412         9.1734       1138.203        85.8812         0.9217       -100.087      -53.38041      0.1121965
      7997.0000         2.3798         9.1837       1176.418        88.1617         0.8917      -100.3159      -53.60931      0.1083167
      7997.5000         2.3057         9.1875       1201.861        90.0634         0.8535       -100.541      -53.83441      0.1045015
      7998.0000         2.2412         9.1869       1216.871        91.5243         0.8153      -100.8575      -54.15091     0.09913713
      7998.5000         2.1837         9.1798       1231.855        92.6819         0.7921      -101.2229      -54.51631     0.09294387
      7999.0000          2.125         9.1726       1245.984        93.0221         0.7829      -101.5875      -54.88091     0.08676419
      7999.5000         2.0656         9.1657       1259.611        92.7144         0.7738      -101.9617      -55.25511     0.08042184
      8000.0000         2.0798          9.162       1278.971        92.4023         0.7646      -102.4371      -55.73051     0.07236416
      8000.5000         2.1093         9.1583       1289.768        92.4368         0.7951       -102.912      -56.20541     0.06431502
      8001.0000          2.195         9.0921       1299.662        92.7552         0.8339      -103.3868      -56.68021     0.05626756
      8001.5000         2.2861         8.9595       1304.238         92.537         0.8808      -103.8623      -57.15571     0.04820833
      8002.0000         2.3845         8.9138       1203.119        91.9063         0.9278      -104.3372      -57.63061     0.04015919
      8002.5000         2.4862         9.1234       1109.291        91.2761         0.9642      -104.4946      -57.78801     0.03749136
      8003.0000         2.5868         9.2697       1038.293        87.4338         0.9992      -104.5548      -57.84821     0.03647096
      8003.5000         2.6696         9.2991       995.0996        88.7808         1.0343       -104.615      -57.90841     0.03545069
      8004.0000         2.7522         9.2535       952.3096        92.2201         1.0694      -102.7715      -56.06491     0.06669643
      8004.5000         2.8348         9.2083       909.6699        90.3259         1.1086      -100.8899      -54.18331     0.09858794
      8005.0000         2.8191         9.1851         863.46        86.4583         1.1593       -99.1779      -52.47131      0.1276049
      8005.5000         2.4492         9.2092       824.0879        83.4572           1.21       -97.5013      -50.79471      0.1560219
      8006.0000          2.259         9.2343       792.0078         81.168         1.2607       -95.8945      -49.18791      0.1832557
      8006.5000         2.3194         9.2622       769.5068        81.7313         1.3114        -94.798      -48.09141      0.2018405
      8007.0000         2.3797           9.27       747.3564        83.5908         1.3621       -93.4697      -46.76311       0.224354
      8007.5000         2.4969         9.2619       727.3945        86.5919         1.4018       -91.8362      -45.12961      0.2520405
      8008.0000         2.6701         9.2468       707.4072        91.8499         1.4394       -89.3418      -42.63521      0.2943185
      8008.5000          2.843         9.2243       688.9531        91.8982          1.477       -88.3768      -41.67021      0.3106744
      8009.0000         3.0412         9.2051       673.5166        88.5233         1.5138       -88.3494      -41.64281      0.3111387
      8009.5000         3.2042         9.1938       658.0801        84.8536         1.5504       -88.3514      -41.64481      0.3111049
      8010.0000         3.0544         9.1824       641.2852        81.7239         1.5509       -88.0134      -41.30681      0.3168338
      8010.5000         2.9021         9.1789       652.0967        80.2333         1.5303       -87.5665      -40.85991      0.3244083
