#------------------------------------------------------------------------------
# Created by    : vladimir.rabinovich
# Created on    : 09/19/2023 17:20:46
#------------------------------------------------------------------------------
~Version Information Section
VERS.           2.0     :   CWLS log ASCII Standard - VERSION 2.0
WRAP.           NO      :   One line per depth step
~Well Information Section
#MNEM       .UNIT                                         VALUE :DESCRIPTION
#------------------------------------------------------------------------------
STRT        .FT                                            1000 :START DEPTH
STOP        .FT                                            6719 :STOP DEPTH
STEP        .FT                                             0.5 :STEP      
NULL        .                                           -999.25 :NULL      
COMP        .                                 CALIFORNIA CO THE :COMPANY   
WELL        .                                     ST TR 00695-L :WELL      
FLD         .                                           WILDCAT :FIELD     
LOC         .                                                   :LOCATION  
CNTY        .                      MATAGORDA ISLAND LARGE BLOCK :LOCATION  
STAT        .                                             TEXAS :STATE     
CTRY        .                                     UNITED STATES :COUNTRY   
SRVC        .                                                   :SERVICE COMPANY
DATE        .                             9/13/2023 11:12:01 AM :LOG DATE  
API         .                                    42703000270000 :API NUMBER
UWI         .                                    42703000270000 :UNIQUE WELL ID
XCOORD      .                                   404842.11633791 :SURFACE X 
YCOORD      .                                  10151340.1845366 :SURFACE Y 
LAT         .                                        27.9206537 :LATITUDE  
LON         .                                       -96.8258101 :LONGITUDE 
ELEV        .FT                                              11 :ELEVATION VALUE
ELEV_TYPE   .                                                KB :ELEVATION REFERENCE TYPE
~Curve Information Section
#MNEM       .UNIT                                      API CODE :CURVE DESCRIPTION
#------------------------------------------------------------------------------
DEPT        .FT                                                 :DEPTH     
ASN         .OHMM                                               :          
CILD        .MMHO                                               :          
ILD         .OHMM                                               :          
SP          .MV                                                 :          
SP_NORM     .MV                                                 :SP Normalized
VSH_SP      .V/V                                                :Volume of Shale from SP
~A        DEPTH            ASN           CILD            ILD             SP        SP_NORM         VSH_SP
# ...
      3660.0000         1.8086       2071.469         0.3948        -97.907        -52.624      0.2555294
      3660.5000         1.6757       2142.609         0.3784       -98.7917       -53.5087      0.2425191
      3661.0000         1.6111       2399.023         0.3621       -99.2133       -53.9303      0.2363191
      3661.5000         1.5584       2646.289         0.3497       -99.2894       -54.0064         0.2352
      3662.0000         1.5187       2960.246         0.3389       -99.3271       -54.0441      0.2346456
      3662.5000         1.4791       3058.555          0.328       -99.4473       -54.1643       0.232878
      3663.0000         1.4431        3115.25         0.3311      -100.2427       -54.9597      0.2211809
      3663.5000          1.407       3096.125         0.3454      -101.0381       -55.7551      0.2094838
      3664.0000         1.3796       2978.141         0.3597      -101.8647       -56.5817       0.197328
      3664.5000          1.356       2828.063          0.374      -102.7245       -57.4415      0.1846838
      3665.0000         1.3183       2462.816         0.3883      -101.2617       -55.9787      0.2061956
      3665.5000         1.2765       1987.213         0.4125      -100.7878       -55.5048      0.2131647
      3666.0000         1.3864       1986.154         0.4603      -101.0768       -55.7938      0.2089147
      3666.5000         1.5371       1985.096          0.508      -101.5458       -56.2628      0.2020177
      3667.0000          1.605       1886.965         0.5558      -102.0146       -56.7316      0.1951235
      3667.5000          1.685        1780.98         0.6152      -102.4836       -57.2006      0.1882265
      3668.0000         1.6772       1621.652         0.6957      -102.9529       -57.6699       0.181325
      3668.5000         1.6436       1448.576         0.7762      -103.8723       -58.5893      0.1678044
      3669.0000         1.5829       1265.002         0.8104      -105.1033       -59.8203      0.1497015
      3669.5000         1.5081       1174.566         0.8337      -106.3348       -61.0518      0.1315912
      3670.0000         1.4001       1224.709          0.843      -107.5883       -62.3053      0.1131573
      3670.5000          1.276        1284.25         0.7735      -107.1521       -61.8691      0.1195721
      3671.0000         1.2656       1343.742         0.6946      -105.3864       -60.1034      0.1455382
      3671.5000         1.2773       1403.232         0.6158      -103.8743       -58.5913       0.167775
      3672.0000         1.2867       1510.867         0.5812      -103.0831       -57.8001      0.1794103
      3672.5000         1.2714       1661.848         0.5624      -102.2915       -57.0085      0.1910515
      3673.0000         1.2515       1950.705         0.5436      -101.4999       -56.2169      0.2026926
      3673.5000         1.2312       1997.549         0.5248       -99.9465       -54.6635      0.2255367
      3674.0000         1.2111        1855.92          0.506        -98.272        -52.989      0.2501618
      3674.5000         1.1908       1786.316         0.4944       -97.2782       -51.9952      0.2647765
      3675.0000         1.3592       1776.643         0.4935       -96.7501       -51.4671      0.2725427
      3675.5000         1.6849       1766.969         0.4927       -96.1759       -50.8929      0.2809868
      3676.0000         1.8882       1757.295         0.5352       -95.6017       -50.3187      0.2894309
      3676.5000         1.9941       1747.629         0.6446       -95.0278       -49.7448      0.2978706
      3677.0000         1.9829        1703.49          0.754       -94.4536       -49.1706      0.3063147
      3677.5000         1.9911       1655.348         0.8289       -97.9658       -52.6828      0.2546647
      3678.0000         1.9687       1566.461         0.8945      -101.5624       -56.2794      0.2017735
      3678.5000         1.8889       1477.572         0.9488      -104.6765       -59.3935      0.1559779
      3679.0000         1.8611        1355.49         0.9727      -107.1283       -61.8453      0.1199221
      3679.5000         2.0638       1094.127         0.9965      -109.3765       -64.0935     0.08686032
      3680.0000         2.2667       963.9961         1.0204      -111.5547       -66.2717     0.05482797
      3680.5000         2.4695       1053.133         1.0147      -113.4366       -68.1536      0.0271529
      3681.0000         2.4396       1242.307         0.9537      -111.8196       -66.5366     0.05093238
      3681.5000         2.2015        1504.67         0.8787      -109.3884       -64.1054     0.08668529
      3682.0000         1.9634       1671.846         0.8037      -108.4312       -63.1482      0.1007617
      3682.5000         1.7301       1791.578         0.7288      -107.7834       -62.5004      0.1102882
      3683.0000         1.5137        1852.02         0.6538      -107.7355       -62.4525      0.1109927
      3683.5000         1.3204       1896.738         0.5862      -107.6875       -62.4045      0.1116985
      3684.0000         1.1844       1936.508         0.5264      -106.7546       -61.4716      0.1254176
      3684.5000         1.1588       2739.676         0.4666      -107.2543       -61.9713      0.1180691
      3685.0000         1.1332       2876.355         0.4068      -107.7535       -62.4705      0.1107279
      3685.5000         1.0977       3001.391         0.3733      -108.2527       -62.9697      0.1033868
      3686.0000         1.0591       3045.234         0.3454       -108.563         -63.28     0.09882355
      3686.5000         1.0184       2953.848         0.3175      -102.5371       -57.2541      0.1874397
      3687.0000         0.9845       2862.457         0.3364       -99.8815       -54.5985      0.2264927
      3687.5000         1.1046       2773.723         0.3611         -98.59        -53.307      0.2454853
      3688.0000         1.3436       2688.184         0.3743       -97.8823       -52.5993      0.2558926
      3688.5000         1.5458       2602.594         0.3875       -97.1747       -51.8917      0.2662985
      3689.0000         1.6945       2502.508         0.4007       -96.4674       -51.1844         0.2767
      3689.5000          1.794       2395.824          0.414       -96.0182       -50.7352      0.2833059
      3690.0000         1.8411       2285.738         0.4272       -95.6802       -50.3972      0.2882764
      3690.5000         1.8686        2211.25         0.4323       -97.0729       -51.7899      0.2677956
      3691.0000         1.8857       2261.742         0.4241       -98.4657       -53.1827      0.2473132
      3691.5000         1.7619        2350.68          0.416       -99.8584       -54.5754      0.2268323
      3692.0000         1.6379        2431.82         0.4078      -101.0944       -55.8114      0.2086559
      3692.5000         1.3486       2477.715         0.3997       -99.7109       -54.4279      0.2290015
      3693.0000         1.2158       2523.605         0.3851       -97.4135       -52.1305      0.2627867
      3693.5000         1.1624       2558.777         0.3704       -92.8109       -47.5279      0.3304721
      3694.0000         1.1463       2592.848         0.3558       -91.6437       -46.3607      0.3476368
      3694.5000         1.1481       2644.738         0.3411       -91.8658       -46.5828      0.3443706
      3695.0000         1.1436       2703.082         0.3265       -92.0879       -46.8049      0.3411044
      3695.5000         1.1205       2784.969         0.3118       -92.3099       -47.0269      0.3378397
      3696.0000         1.0719       2907.152         0.2976       -92.6334       -47.3504      0.3330824
      3696.5000         1.0055       3110.922         0.2906       -93.0999       -47.8169      0.3262221
      3697.0000         0.9683       3411.281         0.2835       -93.5663       -48.2833      0.3193633
      3697.5000         0.9478       3647.449         0.2764       -94.0327       -48.7497      0.3125044
