#------------------------------------------------------------------------------
# Created by    : vladimir.rabinovich
# Created on    : 09/19/2023 17:22:51
#------------------------------------------------------------------------------
~Version Information Section
VERS.           2.0     :   CWLS log ASCII Standard - VERSION 2.0
WRAP.           NO      :   One line per depth step
~Well Information Section
#MNEM       .UNIT                                         VALUE :DESCRIPTION
#------------------------------------------------------------------------------
STRT        .FT                                             970 :START DEPTH
STOP        .FT                                           10993 :STOP DEPTH
STEP        .FT                                             0.5 :STEP      
NULL        .                                           -999.25 :NULL      
COMP        .                               AMOCO PRODUCTION CO :COMPANY   
WELL        .                                     ST TR 00558-L :WELL      
FLD         .                                           WILDCAT :FIELD     
LOC         .                                                   :LOCATION  
CNTY        .                      MATAGORDA ISLAND LARGE BLOCK :LOCATION  
STAT        .                                             TEXAS :STATE     
CTRY        .                                     UNITED STATES :COUNTRY   
SRVC        .                                                   :SERVICE COMPANY
DATE        .                             9/13/2023 11:19:13 AM :LOG DATE  
API         .                                    42703301770000 :API NUMBER
UWI         .                                    42703301770000 :UNIQUE WELL ID
XCOORD      .                                   593347.98828382 :SURFACE X 
YCOORD      .                                   10274817.073936 :SURFACE Y 
LAT         .                                        28.2748406 :LATITUDE  
LON         .                                       -96.2531821 :LONGITUDE 
ELEV        .FT                                              93 :ELEVATION VALUE
ELEV_TYPE   .                                                KB :ELEVATION REFERENCE TYPE
~Curve Information Section
#MNEM       .UNIT                                      API CODE :CURVE DESCRIPTION
#------------------------------------------------------------------------------
DEPT        .FT                                                 :DEPTH     
GR          .GAPI                                               :          
GR_NORM     .GAPI                                               :GammaRay Normalized
ILD         .OHMM                                               :          
SP          .MV                                                 :          
SP_NORM     .MV                                                 :SP Normalized
VSH_GR      .V/V                                                :Volume of Shale from GR
VSH_SP      .V/V                                                :Volume of Shale from SP
~A        DEPTH             GR        GR_NORM            ILD             SP        SP_NORM         VSH_GR         VSH_SP
# ...
      8943.0000        51.5917       69.03824         0.5776       -80.2777      -0.408287       0.766771              1
      8943.5000        50.4971       67.18452         0.5839       -80.1118     -0.2371902      0.7273301              1
      8944.0000        49.5852        65.6402         0.5808       -80.2346     -0.3547897      0.6944723              1
      8944.5000        48.7115       64.16059          0.574       -80.3088     -0.4237976      0.6629913              1
      8945.0000        48.5904       63.95549         0.5675       -80.3829     -0.4926987      0.6586274              1
      8945.5000        50.0185       66.37399          0.572        -80.375      -0.479599      0.7100848              1
      8946.0000        52.3746       70.36407         0.5838       -80.2411     -0.3404999      0.7949803              1
      8946.5000        52.9953       71.41524         0.5861       -80.1129     -0.2071075      0.8173455              1
      8947.0000        52.8057       71.09414         0.5885       -80.0217     -0.1107101      0.8105136              1
      8947.5000        52.8801       71.22015         0.5879       -79.9305    -0.01431274      0.8131946              1
      8948.0000        53.2239       71.80236         0.5854       -79.7928      0.1285782      0.8255821              1
      8948.5000        52.7721       71.03725         0.5794       -79.6305      0.2960739      0.8093031              1
      8949.0000        51.7325       69.27666         0.5588       -79.5399      0.3918686      0.7718439              1
      8949.5000        49.9278       66.22039          0.521       -79.7013       0.235672      0.7068168              1
      8950.0000        45.9102       59.41655         0.4483       -80.2921     -0.3499298      0.5620543              1
      8950.5000        37.6231       45.38228         0.4023       -80.6344     -0.6870346      0.2634528              1
      8951.0000         36.972       44.27964         0.3907          -80.8     -0.8474426      0.2399923              1
      8951.5000        36.4736       43.43559         0.3942       -80.8903     -0.9325409      0.2220338              1
      8952.0000        35.9867       42.61102         0.4194        -81.048      -1.085045      0.2044897              1
      8952.5000        37.2399       44.73332         0.4422        -81.212      -1.243851      0.2496452              1
      8953.0000        38.7773       47.33693         0.4695       -81.3333      -1.359955       0.305041              1
      8953.5000        39.9076       49.25109         0.4987       -81.4447      -1.466156       0.345768              1
      8954.0000        41.2098       51.45639         0.5592       -81.8527      -1.868958      0.3926892              1
      8954.5000        42.7125       54.00122         0.6284       -82.4226      -2.433662      0.4468346       0.984512
      8955.0000        43.1378       54.72147         0.7005       -83.0791      -3.084969       0.462159      0.9612511
      8955.5000         42.908       54.33231         0.7668       -83.4772      -3.477875      0.4538788      0.9472188
      8956.0000        42.8665       54.26204         0.8108       -83.4918      -3.487274      0.4523837      0.9468831
      8956.5000        43.2628       54.93316         0.8402       -83.4034      -3.393677      0.4666629      0.9502258
      8957.0000        44.0923       56.33794         0.8481       -83.2175      -3.202576      0.4965518      0.9570509
      8957.5000        44.4426       56.93116         0.8525       -83.0316      -3.011482      0.5091736      0.9638757
      8958.0000        44.1908       56.50473         0.8495       -82.9282      -2.902885      0.5001007      0.9677541
      8958.5000        43.9401       56.08017         0.8464       -82.8754      -2.844887      0.4910673      0.9698254
      8959.0000        44.0172       56.21074         0.8354       -82.8224      -2.786697      0.4938456      0.9719037
      8959.5000        44.6124       57.21872         0.8246       -82.7828      -2.741898      0.5152918      0.9735036
      8960.0000        44.6711       57.31813         0.8168        -82.748      -2.701904      0.5174071       0.974932
      8960.5000        44.7247       57.40891           0.81       -82.7134      -2.662109      0.5193385      0.9763532
      8961.0000        44.7015       57.36961         0.8014       -82.7152      -2.658707      0.5185022      0.9764748
      8961.5000        44.8181       57.56708         0.7906       -82.7656      -2.703911      0.5227038      0.9748603
      8962.0000        45.3122       58.40383         0.7744        -82.816      -2.749115       0.540507      0.9732459
      8962.5000        46.2515       59.99454         0.7513       -82.8616       -2.78952       0.574352      0.9718028
      8963.0000        47.7626       62.55361         0.7351       -82.8998      -2.822525      0.6288002      0.9706241
      8963.5000        49.0421       64.72047         0.7219       -82.9381      -2.855629      0.6749036      0.9694418
      8964.0000        50.0567        66.4387          0.718       -82.9551      -2.867432      0.7114617      0.9690203
      8964.5000         48.326       63.50773         0.7154       -82.9406      -2.847725      0.6491007      0.9697241
      8965.0000        46.5881        60.5646         0.7161        -82.926      -2.827934      0.5864808      0.9704309
      8965.5000        45.1773       58.17537         0.7187       -82.8262      -2.722939      0.5356461      0.9741808
      8966.0000        46.2611        60.0108         0.7212       -82.7017      -2.593239      0.5746979      0.9788129
      8966.5000        47.0095       61.27823         0.7223       -82.6384      -2.524742      0.6016644      0.9812592
      8967.0000        47.7191       62.47995         0.7235       -82.5793      -2.460449       0.627233      0.9835554
      8967.5000        47.9172       62.81541         0.7229       -82.5527       -2.42865      0.6343705      0.9846911
      8968.0000        48.6841       64.11418         0.7202       -82.5873      -2.458061      0.6620039      0.9836407
      8968.5000        49.8084        66.0182           0.71         -82.63      -2.495552      0.7025149      0.9823017
      8969.0000        51.0903       68.18911         0.6981       -82.7258      -2.586159      0.7487045      0.9790658
      8969.5000        51.8304       69.44246         0.6862       -82.8217      -2.676865      0.7753715      0.9758263
      8970.0000        52.3914       70.39252         0.6842       -82.9355      -2.785469      0.7955856      0.9719476
      8970.5000        50.6392       67.42515         0.7035       -83.0557      -2.900475      0.7324499      0.9678402
      8971.0000        48.3642       63.57242         0.7208       -83.1758      -3.015373      0.6504771      0.9637367
      8971.5000        46.0749       59.69548         0.7267       -83.2455       -3.07988      0.5679889      0.9614329
      8972.0000        45.4017       58.55541         0.7268       -83.2759       -3.10508      0.5437321      0.9605328
      8972.5000        46.6096         60.601         0.7202       -83.3011      -3.125084      0.5872554      0.9598184
      8973.0000        48.0323       63.01035         0.7088       -83.2344      -3.053185       0.638518      0.9623863
      8973.5000        49.5435       65.56959         0.6944       -83.1677      -2.981293        0.69297      0.9649538
      8974.0000        50.1057       66.52168         0.6746       -83.1195      -2.927895      0.7132272      0.9668609
      8974.5000        49.2379       65.05205         0.6542       -83.0771      -2.880302      0.6819584      0.9685606
      8975.0000        49.0708       64.76907         0.6354       -83.0586      -2.856606      0.6759377       0.969407
      8975.5000        50.0161       66.36993          0.618        -83.041      -2.833809      0.7099986      0.9702211
      8976.0000        50.0256       66.38602         0.6048        -82.981      -2.768608      0.7103409      0.9725497
