#------------------------------------------------------------------------------
# Created by    : vladimir.rabinovich
# Created on    : 09/19/2023 17:22:51
#------------------------------------------------------------------------------
~Version Information Section
VERS.           2.0     :   CWLS log ASCII Standard - VERSION 2.0
WRAP.           NO      :   One line per depth step
~Well Information Section
#MNEM       .UNIT                                         VALUE :DESCRIPTION
#------------------------------------------------------------------------------
STRT        .FT                                             970 :START DEPTH
STOP        .FT                                           10993 :STOP DEPTH
STEP        .FT                                             0.5 :STEP      
NULL        .                                           -999.25 :NULL      
COMP        .                               AMOCO PRODUCTION CO :COMPANY   
WELL        .                                     ST TR 00558-L :WELL      
FLD         .                                           WILDCAT :FIELD     
LOC         .                                                   :LOCATION  
CNTY        .                      MATAGORDA ISLAND LARGE BLOCK :LOCATION  
STAT        .                                             TEXAS :STATE     
CTRY        .                                     UNITED STATES :COUNTRY   
SRVC        .                                                   :SERVICE COMPANY
DATE        .                             9/13/2023 11:19:13 AM :LOG DATE  
API         .                                    42703301770000 :API NUMBER
UWI         .                                    42703301770000 :UNIQUE WELL ID
XCOORD      .                                   593347.98828382 :SURFACE X 
YCOORD      .                                   10274817.073936 :SURFACE Y 
LAT         .                                        28.2748406 :LATITUDE  
LON         .                                       -96.2531821 :LONGITUDE 
ELEV        .FT                                              93 :ELEVATION VALUE
ELEV_TYPE   .                                                KB :ELEVATION REFERENCE TYPE
~Curve Information Section
#MNEM       .UNIT                                      API CODE :CURVE DESCRIPTION
#------------------------------------------------------------------------------
DEPT        .FT                                                 :DEPTH     
GR          .GAPI                                               :          
GR_NORM     .GAPI                                               :GammaRay Normalized
ILD         .OHMM                                               :          
SP          .MV                                                 :          
SP_NORM     .MV                                                 :SP Normalized
VSH_GR      .V/V                                                :Volume of Shale from GR
VSH_SP      .V/V                                                :Volume of Shale from SP
~A        DEPTH             GR        GR_NORM            ILD             SP        SP_NORM         VSH_GR         VSH_SP
# ...
      9613.0000        56.1257       76.71661         0.7146       -80.9419       -5.31662      0.9301407      0.8815493
      9613.5000         55.086       74.95585         0.7331       -81.7053      -6.086693      0.8926776      0.8540467
      9614.0000        53.9768       73.07741         0.7475        -82.422      -6.810066      0.8527108      0.8282119
      9614.5000        52.6057       70.75545         0.7524       -83.0813      -7.476044      0.8033074       0.804427
      9615.0000         51.378        68.6763         0.7574        -83.652      -8.053421      0.7590702      0.7838064
      9615.5000        50.3155       66.87696         0.7701       -84.1473      -8.555397      0.7207864      0.7658787
      9616.0000        49.7986       66.00159         0.7841        -84.474      -8.888779      0.7021616      0.7539722
      9616.5000        51.1351       68.26498         0.8193       -82.8324      -7.253853      0.7503186      0.8123624
      9617.0000        51.9739       69.68547         0.8665       -81.4767      -5.904831       0.780542      0.8605418
      9617.5000        51.0262       68.08054         0.9056        -81.515      -5.949806      0.7463945      0.8589355
      9618.0000         49.052       64.73723         0.9209       -82.3119       -6.75338      0.6752602      0.8302364
      9618.5000        47.0227       61.30058          0.898       -83.1626      -7.610756        0.60214      0.7996159
      9619.0000         46.647       60.66433         0.8849       -83.1746       -7.62944      0.5886027      0.7989486
      9619.5000        47.5217       62.14565         0.8771       -82.2605      -6.722015      0.6201201      0.8313566
      9620.0000        49.2985       65.15467         0.8854       -81.7961       -6.26429      0.6841419      0.8477039
      9620.5000         51.378        68.6763         0.8612       -83.0358      -7.510666      0.7590702      0.8031905
      9621.0000        52.9717       71.37526         0.8147       -83.2806      -7.762146      0.8164949      0.7942091
      9621.5000        54.3502       73.70977         0.7555       -82.8204      -7.308617      0.8661653      0.8104066
      9622.0000        55.2248       75.19091          0.709        -81.965      -6.459892       0.897679      0.8407182
      9622.5000        56.0994       76.67206         0.6718       -81.5344       -6.03598      0.9291927      0.8558578
      9623.0000        56.5446       77.42601         0.6454       -81.7134      -6.221657      0.9452342      0.8492265
      9623.5000        54.8144        74.4959         0.6428        -81.886      -6.400932      0.8828914      0.8428239
      9624.0000        53.4265       72.14548         0.6438       -82.4854      -7.007004      0.8328825      0.8211784
      9624.5000        52.1294       69.94883         0.6635       -84.5027      -9.030983      0.7861453      0.7488934
      9625.0000        50.8444       67.77265         0.6835       -86.4578      -10.99276      0.7398437        0.67883
      9625.5000        49.5689       65.61259         0.6988       -88.5875      -13.12914      0.6938848      0.6025306
      9626.0000        48.1618       63.22966         0.7132       -90.5236      -15.07191      0.6431842      0.5331459
      9626.5000        46.7535       60.84468         0.7096       -91.8134      -16.36839        0.59244      0.4868431
      9627.0000        46.4993        60.4142          0.706        -92.457      -17.01867      0.5832809       0.463619
      9627.5000        48.6595       64.07254         0.6961       -91.5549      -16.12325      0.6611179      0.4955984
      9628.0000        51.3254       68.58724         0.6863       -88.9274      -13.50242      0.7571754      0.5891994
      9628.5000        53.7088       72.62357         0.6733       -85.7303        -10.312      0.8430546       0.703143
      9629.0000         55.762       76.10065         0.6601       -84.2502      -8.838577       0.917035      0.7557651
      9629.5000        57.2911        78.6902         0.6506       -83.7441      -8.339157      0.9721319      0.7736015
      9630.0000        57.9445       79.79675         0.6415       -83.3158      -7.917534      0.9956754      0.7886595
      9630.5000        55.0632       74.91724         0.6406       -83.6675      -8.275909      0.8918563      0.7758604
      9631.0000        51.7035       69.22755          0.642       -85.0555      -9.670578       0.770799      0.7260508
      9631.5000        49.0663       64.76144         0.6515       -86.2496      -10.87136      0.6757754      0.6831657
      9632.0000         46.915       61.11818         0.6666       -85.9337      -10.56214      0.5982592      0.6942092
      9632.5000        45.7927       59.21757         0.6939        -85.235      -9.870117      0.5578207      0.7189244
      9633.0000        45.1042       58.05159         0.7261        -87.056      -11.69779      0.5330126      0.6536503
      9633.5000        45.4648       58.66227         0.7621       -87.8284      -12.47687      0.5460057      0.6258262
      9634.0000        47.4918       62.09501         0.8018       -86.1036      -10.75874      0.6190426      0.6871877
      9634.5000        47.6042       62.28537         0.8255       -87.8314      -12.49322      0.6230929      0.6252422
      9635.0000        47.0502       61.34716         0.8125         -89.26       -13.9285       0.603131      0.5739822
      9635.5000        46.0679       59.68364         0.7922       -90.7461      -15.42128      0.5677369      0.5206686
      9636.0000         46.525       60.45773         0.7813       -88.9034      -13.58525       0.584207      0.5862411
      9636.5000        48.7601       64.24291          0.793       -86.1515      -10.84003      0.6647428      0.6842847
      9637.0000        51.0861       68.18198          0.805       -82.6099      -7.305107      0.7485529      0.8105319
      9637.5000        54.0342       73.17461         0.8065       -80.3508      -5.052681      0.8547789      0.8909757
      9638.0000        55.4904       75.64071         0.7722       -80.0212      -4.729759      0.9072492      0.9025086
      9638.5000        54.9765       74.77044         0.7341       -80.5961      -5.311333      0.8887327      0.8817381
      9639.0000        54.6409       74.20207          0.694       -81.2972      -6.019119      0.8766398        0.85646
      9639.5000        55.5406       75.72573          0.673       -82.0427      -6.771294      0.9090581      0.8295966
      9640.0000         56.462       77.28613         0.6828       -81.8973      -6.632568      0.9422581      0.8345512
      9640.5000        57.1437       78.44058         0.6898       -81.1393      -5.881241      0.9668209      0.8613843
      9641.0000        56.5995       77.51897         0.6969       -81.4946      -6.243217      0.9472122      0.8484565
      9641.5000        54.8575       74.56889         0.7003       -84.8784      -9.633698      0.8844444      0.7273679
      9642.0000        52.5649       70.68636         0.7024       -87.1614      -11.92338      0.8018373      0.6455936
      9642.5000        51.0214       68.07241         0.7057       -87.6899      -12.45856      0.7462215      0.6264801
      9643.0000        49.6862       65.81124          0.711       -85.7495      -10.52483      0.6981115      0.6955419
      9643.5000        49.1642       64.92725         0.7164       -84.3519      -9.133904      0.6793031      0.7452177
      9644.0000        50.3179       66.88103         0.7234        -83.634      -8.422684      0.7208731      0.7706184
      9644.5000        51.5024         68.887          0.729       -85.2804      -10.07576      0.7635532        0.71158
      9645.0000        51.2332       68.43111         0.7317       -86.4906      -11.29263      0.7538535      0.6681203
      9645.5000        49.6862       65.81124         0.7332       -86.4468      -11.25552      0.6981115      0.6694459
      9646.0000         47.755       62.54074         0.7326       -86.3986      -11.21399      0.6285264       0.670929
