#------------------------------------------------------------------------------
# Created by    : vladimir.rabinovich
# Created on    : 09/19/2023 17:20:45
#------------------------------------------------------------------------------
~Version Information Section
VERS.           2.0     :   CWLS log ASCII Standard - VERSION 2.0
WRAP.           NO      :   One line per depth step
~Well Information Section
#MNEM       .UNIT                                         VALUE :DESCRIPTION
#------------------------------------------------------------------------------
STRT        .FT                                            1401 :START DEPTH
STOP        .FT                                            4951 :STOP DEPTH
STEP        .FT                                             0.5 :STEP      
NULL        .                                           -999.25 :NULL      
COMP        .                      GULF ENERGY EXPLORATION CORP :COMPANY   
WELL        .                                ST TR 00596-L NE/4 :WELL      
FLD         .                        SHERMAN OFFSHORE SOUTHWEST :FIELD     
LOC         .                                                   :LOCATION  
CNTY        .                      MATAGORDA ISLAND LARGE BLOCK :LOCATION  
STAT        .                                             TEXAS :STATE     
CTRY        .                                     UNITED STATES :COUNTRY   
SRVC        .                                                   :SERVICE COMPANY
DATE        .                             9/13/2023 11:12:01 AM :LOG DATE  
API         .                                    42703301240000 :API NUMBER
UWI         .                                    42703301240000 :UNIQUE WELL ID
XCOORD      .                                    480210.3272994 :SURFACE X 
YCOORD      .                                  10243409.1849528 :SURFACE Y 
LAT         .                                        28.1797739 :LATITUDE  
LON         .                                       -96.6012532 :LONGITUDE 
ELEV        .FT                                              82 :ELEVATION VALUE
ELEV_TYPE   .                                                KB :ELEVATION REFERENCE TYPE
~Curve Information Section
#MNEM       .UNIT                                      API CODE :CURVE DESCRIPTION
#------------------------------------------------------------------------------
DEPT        .FT                                                 :DEPTH     
ASN         .OHMM                                               :          
CILD        .MMHO                                               :          
ILD         .OHMM                                               :          
SP          .MV                                                 :          
SP_NORM     .MV                                                 :SP Normalized
VSH_SP      .V/V                                                :Volume of Shale from SP
~A        DEPTH            ASN           CILD            ILD             SP        SP_NORM         VSH_SP
# ...
      1857.0000         1.0561       1094.004         0.9141       -24.1518        -5.2839      0.9328265
      1857.5000         1.0582       1085.918         0.9209       -24.2509         -5.383      0.9299118
      1858.0000         1.0543        1077.76         0.9521       -24.4495        -5.5816      0.9240706
      1858.5000         1.0424       1073.645         0.9524        -24.648        -5.7801      0.9182324
      1859.0000         1.0266       1132.913         0.9427       -24.7472        -5.8793      0.9153147
      1859.5000         1.0087       1192.181         0.8388       -24.5481        -5.6802      0.9211706
      1860.0000          0.989       1251.449         0.7991       -24.1504        -5.2825      0.9328676
      1860.5000         0.9712       1310.717         0.7629       -23.7525        -4.8846      0.9445706
      1861.0000         0.9514       1369.984         0.7299       -23.7523        -4.8844      0.9445765
      1861.5000         0.9435       1454.038         0.6877       -24.2489         -5.381      0.9299706
      1862.0000         0.9396        1473.75         0.6785       -24.6463        -5.7784      0.9182823
      1862.5000         0.9376       1477.578         0.6768        -25.143        -6.2751      0.9036735
      1863.0000         0.9397       1481.407          0.675       -25.2421        -6.3742      0.9007588
      1863.5000         0.9477       1461.411         0.6843       -25.3412        -6.4733      0.8978441
      1864.0000         0.9517       1427.568         0.7005       -25.2416        -6.3737      0.9007735
      1864.5000         0.9577       1393.725         0.7175       -24.9431        -6.0752      0.9095529
      1865.0000         0.9657       1359.882         0.7354       -24.6448        -5.7769      0.9183265
      1865.5000         0.9717        1326.04         0.7541       -24.4458        -5.5779      0.9241794
      1866.0000         0.9777       1292.197         0.7739       -24.3462        -5.4783      0.9271088
      1866.5000         0.9917       1258.354         0.7947       -24.2465        -5.3786      0.9300412
      1867.0000         1.0076       1224.511         0.8167       -24.1469         -5.279      0.9329706
      1867.5000         1.0156       1178.111         0.8678       -24.1467        -5.2788      0.9329765
      1868.0000         1.0177       1174.068         0.8778       -24.2458        -5.3779      0.9300618
      1868.5000         1.0197       1181.866         0.8781       -24.4443        -5.5764      0.9242235
      1869.0000         1.0198       1185.765         0.8684       -24.5435        -5.6756      0.9213059
      1869.5000         1.0198       1209.304         0.8687       -24.7419         -5.874      0.9154706
      1870.0000         1.0179       1213.204         0.8689       -24.8411        -5.9732       0.912553
      1870.5000          1.016       1209.161         0.8692       -24.8408        -5.9729      0.9125618
      1871.0000          1.016       1195.855         0.8694       -24.6419         -5.774      0.9184117
      1871.5000         1.0121        1182.55         0.8796       -24.5423        -5.6744      0.9213412
      1872.0000         1.0102       1169.244         0.8898       -24.4427        -5.5748      0.9242706
      1872.5000         1.0023       1164.757           0.89       -24.5418        -5.6739      0.9213559
      1873.0000         0.9964       1203.643         0.8704       -24.5415        -5.6736      0.9213647
      1873.5000         0.9885       1242.529         0.8508       -24.6407        -5.7728      0.9184471
      1874.0000         0.9786       1281.415         0.8213       -24.7398        -5.8719      0.9155324
      1874.5000         0.9688       1320.301         0.8017       -24.8389         -5.971      0.9126176
      1875.0000          0.947       1359.187         0.7721        -24.938        -6.0701       0.909703
      1875.5000         0.9351       1398.073         0.7525       -25.0371        -6.1692      0.9067882
      1876.0000         0.9272       1436.959          0.723       -25.2355        -6.3676      0.9009529
      1876.5000         0.9054       1475.845         0.7034       -25.3346        -6.4667      0.8980382
      1877.0000         0.8956       1514.731         0.6602       -25.3344        -6.4665      0.8980441
      1877.5000         0.8857       1548.629         0.6457       -25.1354        -6.2675       0.903897
      1878.0000         0.8798       1560.402         0.6409       -24.9366        -6.0687      0.9097441
      1878.5000         0.8779       1560.261         0.6409       -24.3402        -5.4723      0.9272853
      1879.0000         0.8759       1556.148         0.6426       -23.8431        -4.9752      0.9419059
      1879.5000          0.874       1552.035         0.6443       -23.4455        -4.5776         0.9536
      1880.0000         0.8741        1543.95         0.6477       -23.0479          -4.18      0.9652941
      1880.5000         0.8761       1531.893         0.6528       -22.6503        -3.7824      0.9769883
      1881.0000         0.8781       1499.906         0.6667       -22.4514        -3.5835      0.9828382
      1881.5000         0.8841       1487.849         0.6721       -22.1532        -3.2853      0.9916088
      1882.0000         0.8882       1471.819         0.6794       -21.9543        -3.0864      0.9974588
      1882.5000         0.8962       1467.705         0.6813       -21.8547        -2.9868              1
      1883.0000         0.9042       1451.747         0.6888       -21.7552        -2.8873              1
      1883.5000         0.9321       1427.773         0.7004        -21.755        -2.8871              1
      1884.0000          0.952       1376.683         0.7264       -21.8541        -2.9862              1
      1884.5000         0.9699       1325.592         0.7544       -21.9532        -3.0853      0.9974912
      1885.0000         0.9779       1274.502         0.7846       -22.0523        -3.1844      0.9945765
      1885.5000         0.9958       1223.411         0.8174       -22.1514        -3.2835      0.9916618
      1886.0000         1.0317       1172.321          0.853       -22.3499         -3.482      0.9858235
      1886.5000         1.0754        1121.23         0.8919       -22.6476        -3.7797      0.9770676
      1887.0000         1.0854        1070.14         0.9345       -22.9454        -4.0775      0.9683088
      1887.5000         1.1113        1019.05         0.9813       -23.3425        -4.4746      0.9566294
      1888.0000         1.1213       957.4123         1.0445       -23.6403        -4.7724      0.9478706
      1888.5000         1.1253       967.2904         1.0338        -23.938        -5.0701      0.9391147
      1889.0000         1.1274       969.1834         1.0318       -23.9378        -5.0699      0.9391206
      1889.5000         1.1215       992.8713         1.0072       -23.7389         -4.871      0.9449706
      1890.0000         1.1116       1074.429         0.9307         -23.54        -4.6721      0.9508206
      1890.5000          1.083       1155.994         0.8694       -22.8445        -3.9766      0.9712765
      1891.0000         1.0545       1237.544         0.8597       -22.2484        -3.3805      0.9888088
      1891.5000          1.026       1298.162         0.8103       -22.0494        -3.1815      0.9946617
      1892.0000         0.9887       1321.853         0.7907       -22.2479          -3.38      0.9888235
      1892.5000         0.9867       1329.655         0.7521       -22.7443        -3.8764      0.9742236
      1893.0000         0.9828       1333.484         0.7499       -23.1414        -4.2735      0.9625441
      1893.5000         0.9809       1329.369         0.7522       -23.9357        -5.0678      0.9391823
      1894.0000         0.9789       1325.253         0.7546        -24.432        -5.5641      0.9245853
      1894.5000          0.977       1317.093         0.7592       -24.6304        -5.7625        0.91875
