#------------------------------------------------------------------------------
# Created by    : vladimir.rabinovich
# Created on    : 09/19/2023 17:20:49
#------------------------------------------------------------------------------
~Version Information Section
VERS.           2.0     :   CWLS log ASCII Standard - VERSION 2.0
WRAP.           NO      :   One line per depth step
~Well Information Section
#MNEM       .UNIT                                         VALUE :DESCRIPTION
#------------------------------------------------------------------------------
STRT        .FT                                             556 :START DEPTH
STOP        .FT                                            7001 :STOP DEPTH
STEP        .FT                                             0.5 :STEP      
NULL        .                                           -999.25 :NULL      
COMP        .                          HUMBLE OIL & REFINING CO :COMPANY   
WELL        .                                     ST TR 00598-L :WELL      
FLD         .                                           WILDCAT :FIELD     
LOC         .                                                   :LOCATION  
CNTY        .                      MATAGORDA ISLAND LARGE BLOCK :LOCATION  
STAT        .                                             TEXAS :STATE     
CTRY        .                                     UNITED STATES :COUNTRY   
SRVC        .                                                   :SERVICE COMPANY
DATE        .                             9/13/2023 11:12:05 AM :LOG DATE  
API         .                                    42703000080000 :API NUMBER
UWI         .                                    42703000080000 :UNIQUE WELL ID
XCOORD      .                                  502144.869554487 :SURFACE X 
YCOORD      .                                  10234432.9570627 :SURFACE Y 
LAT         .                                        28.1568958 :LATITUDE  
LON         .                                       -96.5324651 :LONGITUDE 
ELEV        .FT                                              15 :ELEVATION VALUE
ELEV_TYPE   .                                                KB :ELEVATION REFERENCE TYPE
~Curve Information Section
#MNEM       .UNIT                                      API CODE :CURVE DESCRIPTION
#------------------------------------------------------------------------------
DEPT        .FT                                                 :DEPTH     
ASN         .OHMM                                               :          
CALI        .IN                                                 :          
CILD        .MMHO                                               :          
DT          .US/F                                               :          
ILD         .OHMM                                               :          
SP          .MV                                                 :          
SP_NORM     .MV                                                 :SP Normalized
VSH_SP      .V/V                                                :Volume of Shale from SP
~A        DEPTH            ASN           CALI           CILD             DT            ILD             SP        SP_NORM         VSH_SP
# ...
      3535.5000         0.7032         8.7629       2036.156       128.0293          0.492       -56.4339       -11.1509      0.4177929
      3536.0000         0.6949         8.7664       2116.457        129.769         0.4833        -57.136        -11.853      0.3676429
      3536.5000         0.6866         8.7731       2230.797       130.0044         0.4753       -57.6293       -12.3463      0.3324071
      3537.0000         0.6783         8.7754       2356.484       131.5125         0.4673       -57.8111       -12.5281      0.3194214
      3537.5000         0.6651         8.7804       2461.582       131.8706         0.4593       -58.0089       -12.7259      0.3052929
      3538.0000         0.6378          8.893       2574.555       129.5344         0.4513       -58.2615       -12.9785        0.28725
      3538.5000         0.6277         9.1369       2577.781        128.374         0.4433       -58.5143       -13.2313      0.2691928
      3539.0000         0.6353         9.2076        2526.09       126.4948         0.4332       -58.7772       -13.4942      0.2504143
      3539.5000         0.6415         8.9553       2441.484       128.6436         0.4224       -59.0687       -13.7857      0.2295929
      3540.0000         0.6475         8.8241       2310.023       126.0979         0.4116       -59.3602       -14.0772      0.2087714
      3540.5000         0.6534         8.8157        2157.75       127.5355         0.4255       -58.9572       -13.6742      0.2375571
      3541.0000         0.6593         8.8266       1957.744       129.8945         0.4487       -57.5296       -12.2466      0.3395286
      3541.5000         0.6633         8.8385       1816.898       131.7957         0.4754       -55.6591       -10.3761      0.4731357
      3542.0000         0.6673         8.8445       1715.762       132.2961         0.5282       -53.8481        -8.5651      0.6024929
      3542.5000         0.6739         8.8569       1419.297       132.1282          0.581       -52.7325        -7.4495      0.6821786
      3543.0000         0.7237         9.2218       1313.613       136.8496         0.6338        -51.905         -6.622      0.7412857
      3543.5000         0.7592         9.7379        1248.25       142.1919         0.6751       -51.2913        -6.0083      0.7851214
      3544.0000         0.7816         9.9302       1202.279       145.3701         0.7042       -50.7136        -5.4306      0.8263857
      3544.5000         0.7869         9.7026       1170.662       145.0432         0.7334       -50.4569        -5.1739      0.8447214
      3545.0000         0.7943         9.5453       1153.436       139.2207         0.7445       -50.2001        -4.9171      0.8630643
      3545.5000         0.8129         9.3654       1142.604       125.3641         0.7531       -49.9612        -4.6782      0.8801286
      3546.0000         0.8316         9.5916       1136.838        124.996         0.7617       -49.8895        -4.6065        0.88525
      3546.5000         0.8348        10.4481       1132.406       127.9274         0.7651       -49.8177        -4.5347      0.8903786
      3547.0000         0.8368        11.0574       1131.244       133.9995         0.7627       -49.7459        -4.4629      0.8955072
      3547.5000         0.8328        11.1816       1167.729       142.4727         0.7602       -49.6741        -4.3911      0.9006357
      3548.0000         0.8265        11.1234       1212.672       143.9602         0.7578       -49.7182        -4.4352      0.8974857
      3548.5000         0.8202        10.9376       1271.578       141.2153         0.7453       -49.7733        -4.4903        0.89355
      3549.0000         0.8138        10.8394       1307.598       142.7134         0.7215       -49.8283        -4.5453      0.8896214
      3549.5000         0.8053        11.3064       1344.643       146.6956         0.6977       -50.2518        -4.9688      0.8593714
      3550.0000          0.796        11.5121       1394.941       151.1846         0.6697       -50.7012        -5.4182      0.8272714
      3550.5000         0.7867        11.2586       1470.305        155.425         0.6371        -51.421         -6.138      0.7758572
      3551.0000         0.7773         10.956       1599.758       151.7961         0.6046       -52.3374        -7.0544         0.7104
      3551.5000         0.7633        10.1621        1773.42       148.0981         0.5724       -53.2581        -7.9751      0.6446357
      3552.0000         0.7414         9.1801       1921.678       140.7905         0.5436        -54.186         -8.903      0.5783572
      3552.5000         0.7195         8.7857       1972.465       130.4905         0.5148       -55.1439        -9.8609      0.5099357
      3553.0000         0.7096         8.7835        2051.25       124.7278         0.5024       -56.1315       -10.8485      0.4393928
      3553.5000         0.7023         8.9535       2154.348        124.402         0.4915       -57.0261       -11.7431      0.3754928
      3554.0000         0.6968          9.066       2178.043       126.6656         0.4807        -57.892        -12.609      0.3136428
      3554.5000         0.6976          9.091       2167.492       128.2222         0.4953       -58.4275       -13.1445      0.2753929
      3555.0000         0.6983         9.1152       2123.793       128.2693         0.5124       -58.2427       -12.9597      0.2885929
      3555.5000          0.699          9.236       1945.875        132.824         0.5426       -57.3068       -12.0238      0.3554429
      3556.0000         0.7155         9.5644       2009.584       139.2131         0.5783       -56.3708       -11.0878         0.4223
      3556.5000          0.753         9.4362       1484.928       137.9341         0.6141       -55.4764       -10.1934      0.4861857
      3557.0000         0.7784         8.9317        1368.24       133.3406         0.6462       -54.6111        -9.3281      0.5479928
      3557.5000          0.795         8.8383       1299.381       119.7262         0.6694       -53.7458        -8.4628         0.6098
      3558.0000          0.807          8.909       1235.768       112.0741         0.6926       -53.1284        -7.8454         0.6539
      3558.5000         0.8104         9.3511       1207.354       116.5116         0.7013       -52.5252        -7.2422      0.6969857
      3559.0000         0.8138         9.9031       1184.037       126.1404         0.7031        -51.937         -6.654          0.739
      3559.5000         0.8172        10.6662       1163.938       138.2297         0.7048       -51.4636        -6.1806      0.7728143
      3560.0000         0.8206        11.0814        1185.09       147.9983         0.7073       -50.9904        -5.7074      0.8066143
      3560.5000         0.8244        11.0949       1206.254       148.9375         0.7114       -50.6636        -5.3806      0.8299571
      3561.0000         0.8281        10.9192       1229.043        148.989         0.7155       -50.4875        -5.2045      0.8425357
      3561.5000         0.8319        11.0113       1248.465       147.9834         0.7197        -50.338         -5.055      0.8532143
      3562.0000         0.8315        11.1304       1258.459       148.2278         0.7238        -50.439         -5.156          0.846
      3562.5000         0.8224         9.8921       1259.535       142.2456         0.7288         -50.54         -5.257      0.8387857
      3563.0000         0.8133         9.0369       1256.787       137.1067          0.736       -50.6994        -5.4164         0.8274
      3563.5000         0.8166         9.0332       1247.982       127.1487         0.7433       -50.9828        -5.6998      0.8071572
      3564.0000         0.8416         9.2243       1233.199       122.0922         0.7447       -51.2661        -5.9831      0.7869214
      3564.5000         0.8731         9.6106       1218.357       128.4265         0.7304       -51.5496        -6.2666      0.7666714
