#------------------------------------------------------------------------------
# Created by    : vladimir.rabinovich
# Created on    : 09/19/2023 17:20:54
#------------------------------------------------------------------------------
~Version Information Section
VERS.           2.0     :   CWLS log ASCII Standard - VERSION 2.0
WRAP.           NO      :   One line per depth step
~Well Information Section
#MNEM       .UNIT                                         VALUE :DESCRIPTION
#------------------------------------------------------------------------------
STRT        .FT                                            2835 :START DEPTH
STOP        .FT                                            6351 :STOP DEPTH
STEP        .FT                                             0.5 :STEP      
NULL        .                                           -999.25 :NULL      
COMP        .                                   PENNZOIL CO INC :COMPANY   
WELL        .                                     ST TR 00659-L :WELL      
FLD         .                                           WILDCAT :FIELD     
LOC         .                                                   :LOCATION  
CNTY        .                      MATAGORDA ISLAND LARGE BLOCK :LOCATION  
STAT        .                                             TEXAS :STATE     
CTRY        .                                     UNITED STATES :COUNTRY   
SRVC        .                                                   :SERVICE COMPANY
DATE        .                             9/13/2023 11:19:13 AM :LOG DATE  
API         .                                    42703300020000 :API NUMBER
UWI         .                                    42703300020000 :UNIQUE WELL ID
XCOORD      .                                  437819.375414617 :SURFACE X 
YCOORD      .                                  10187782.3810297 :SURFACE Y 
LAT         .                                        28.0235144 :LATITUDE  
LON         .                                       -96.7273206 :LONGITUDE 
ELEV        .FT                                              73 :ELEVATION VALUE
ELEV_TYPE   .                                                KB :ELEVATION REFERENCE TYPE
~Curve Information Section
#MNEM       .UNIT                                      API CODE :CURVE DESCRIPTION
#------------------------------------------------------------------------------
DEPT        .FT                                                 :DEPTH     
ASN         .OHMM                                               :          
CILD        .MMHO                                               :          
ILD         .OHMM                                               :          
SP          .MV                                                 :          
SP_NORM     .MV                                                 :SP Normalized
VSH_SP      .V/V                                                :Volume of Shale from SP
~A        DEPTH            ASN           CILD            ILD             SP        SP_NORM         VSH_SP
# ...
      3519.0000         0.7466       1567.334         0.5365       -72.4177      -14.58638      0.6118178
      3519.5000         0.7036       1853.707         0.4643       -74.8395      -17.00817      0.5426236
      3520.0000         0.6654       1918.086         0.3968       -85.1774      -27.34607      0.2472551
      3520.5000         0.6322       2046.943         0.3756       -86.9348      -29.10347      0.1970436
      3521.0000         0.6019       2245.891         0.3544       -88.3395      -30.50817      0.1569093
      3521.5000         0.5818       2529.055         0.3377       -89.4858      -31.65448      0.1241578
      3522.0000         0.5617       3344.188         0.3346       -90.5676      -32.73627      0.0932494
      3522.5000         0.5399       3486.422         0.3314       -91.6212      -33.78988     0.06314643
      3523.0000         0.5196       3733.867         0.3283       -92.6472      -34.81588     0.03383211
      3523.5000         0.5057       3512.672         0.3338       -93.5886      -35.75727    0.006935011
      3524.0000         0.5031       3446.066         0.3521         -94.53      -36.69867              0
      3524.5000         0.5078       3394.738         0.3705        -88.928      -31.09668       0.140095
      3525.0000         0.5181       3353.855         0.3976       -87.1304      -29.29908       0.191455
      3525.5000         0.5336       3286.422         0.4774       -85.8074      -27.97608      0.2292549
      3526.0000         0.5579       2917.184         0.5602       -84.5193      -26.68798      0.2660578
      3526.5000         0.6058       2793.637         0.6462       -83.3673      -25.53598      0.2989721
      3527.0000         0.7263       2732.613         0.7308       -82.2529      -24.42157      0.3308122
      3527.5000         0.9272       1884.969         0.8099       -80.6622      -22.83088      0.3762607
      3528.0000         1.2516       1679.258          0.889       -81.3027      -23.47137      0.3579609
      3528.5000         1.3984       1356.613          0.952       -83.9188      -26.08747       0.283215
      3529.0000         1.5392       1186.172         0.9732       -84.7706      -26.93927      0.2588779
      3529.5000         1.5869       1120.289         0.9908       -80.1194      -22.28807      0.3917693
      3530.0000         1.6319       1076.451         0.9899       -76.9712      -19.13987      0.4817179
      3530.5000         1.7008       1011.961         0.9866        -75.952      -18.12068      0.5108378
      3531.0000         1.5225       990.6934          0.968       -74.8502      -17.01887       0.542318
      3531.5000         1.2011       1152.705         0.9309       -73.6675      -15.83618      0.5761092
      3532.0000         1.0173       1325.875         0.8938       -72.9438      -15.11248      0.5967864
      3532.5000         0.9876       1355.334         0.8447       -72.3807      -14.54937       0.612875
      3533.0000         0.9572       1391.557         0.7801       -71.8179      -13.98658      0.6289549
      3533.5000         0.9229       1458.768         0.7154       -71.7665      -13.93518      0.6304235
      3534.0000         0.8795       1543.887         0.6512       -71.8889      -14.05758      0.6269264
      3534.5000         0.8151       1688.877         0.5961       -72.0114      -14.18007      0.6234265
      3535.0000         0.7669       1863.125         0.5409       -72.1337      -14.30237      0.6199322
      3535.5000         0.6991       1975.813         0.4858       -72.2562      -14.42488      0.6164321
      3536.0000         0.6693       1991.318         0.4447       -73.3378      -15.50647      0.5855293
      3536.5000          0.642       1998.869         0.4116       -74.5819      -16.75058      0.5499836
      3537.0000          0.621       2000.287         0.3785       -76.4941      -18.66278      0.4953492
      3537.5000         0.6059       2491.781         0.3456       -79.0815      -21.25017      0.4214237
      3538.0000         0.5991       2762.324         0.3286       -82.0348      -24.20347      0.3370436
      3538.5000         0.5922       3077.527         0.3117       -86.9236      -29.09227      0.1973636
      3539.0000         0.5842        3135.77         0.2994       -88.3125      -30.48117      0.1576807
      3539.5000         0.5747       3179.559         0.3075       -89.1323      -31.30098      0.1342578
      3540.0000         0.5652       3219.313         0.3157       -89.5651      -31.73378      0.1218921
      3540.5000         0.5557       3371.941         0.3406       -89.7258      -31.89447      0.1173007
      3541.0000         0.5463       3287.023         0.3711       -88.6766      -30.84527      0.1472779
      3541.5000         0.5374       3211.621         0.4016       -85.9132      -28.08187      0.2262321
      3542.0000         0.5339       2778.754          0.453       -80.5105      -22.67917      0.3805951
      3542.5000          0.543       2666.832         0.5269       -77.6926      -19.86127      0.4611065
      3543.0000         0.5567       2441.281         0.6031       -76.1407      -18.30938      0.5054464
      3543.5000         0.5794       2145.039         0.6868       -74.9467      -17.11538      0.5395607
      3544.0000         0.6066       2088.926         0.7705       -73.8894      -16.05807      0.5697694
      3544.5000         0.6468       2029.008         0.9026       -72.5217      -14.69037      0.6088465
      3545.0000         0.7608       1556.713         1.0601       -70.9097      -13.07837      0.6549037
      3545.5000         0.9574       1331.061         1.2396       -67.5991      -9.767773      0.7494922
      3546.0000         1.0875       1139.127         1.3276       -62.4534      -4.622074      0.8965122
      3546.5000         1.1575        1095.24         1.4232        -61.685      -3.853676      0.9184664
      3547.0000         1.2699       727.9434         1.5416       -61.0627      -3.231373      0.9362465
      3547.5000         1.3784       700.0752         1.6031       -60.8787      -3.047375      0.9415036
      3548.0000         1.4121       643.5244         1.6646       -60.6947      -2.863373      0.9467608
      3548.5000         1.4417       617.9727          1.711       -60.5107      -2.679375      0.9520178
      3549.0000         1.4744       602.2354         1.7545       -60.3267      -2.495373      0.9572751
      3549.5000         1.5075        588.627         1.7979       -60.1428      -2.311474      0.9625293
      3550.0000         1.5387       571.3672         1.8408       -59.8168      -1.985474      0.9718436
      3550.5000         1.5638       547.2314         1.8709       -59.4905      -1.657001      0.9812285
      3551.0000         1.5882       530.1846         1.8136       -59.1645      -1.327076      0.9906549
      3551.5000         1.6117       535.8965          1.702       -58.7994     -0.9580498              1
      3552.0000         1.6275       553.6064         1.5412       -58.2563     -0.4110222              1
      3552.5000         1.6366       602.7051         1.3804       -57.7884     0.06080627              1
      3553.0000         1.6362       951.7529         1.2389       -57.6556      0.1975288              1
      3553.5000         1.3309       1022.896         1.1756       -58.2322      -0.375145              1
      3554.0000         1.2578       1120.139         0.9505       -58.8311     -0.9701157              1
      3554.5000         1.2206       1248.998         0.8049        -60.098      -2.233089      0.9647689
      3555.0000         1.0351       1521.242         0.6388       -61.6599      -3.791065      0.9202553
      3555.5000         0.7057       2004.875         0.5349       -63.7784       -5.90564      0.8598388
      3556.0000         0.6482       2003.473         0.4272       -66.5061      -8.629417      0.7820166
      3556.5000         0.6134       2026.152         0.3828       -82.0649      -24.18429      0.3375918
