#------------------------------------------------------------------------------
# Created by    : vladimir.rabinovich
# Created on    : 09/19/2023 17:22:30
#------------------------------------------------------------------------------
~Version Information Section
VERS.           2.0     :   CWLS log ASCII Standard - VERSION 2.0
WRAP.           NO      :   One line per depth step
~Well Information Section
#MNEM       .UNIT                                         VALUE :DESCRIPTION
#------------------------------------------------------------------------------
STRT        .FT                                             328 :START DEPTH
STOP        .FT                                            8026 :STOP DEPTH
STEP        .FT                                             0.5 :STEP      
NULL        .                                           -999.25 :NULL      
COMP        .                                 MESA PETROLEUM CO :COMPANY   
WELL        .                                ST TR 00565-L NW/4 :WELL      
FLD         .                                           WILDCAT :FIELD     
LOC         .                                                   :LOCATION  
CNTY        .                      MATAGORDA ISLAND LARGE BLOCK :LOCATION  
STAT        .                                             TEXAS :STATE     
CTRY        .                                     UNITED STATES :COUNTRY   
SRVC        .                                                   :SERVICE COMPANY
DATE        .                             9/13/2023 11:12:01 AM :LOG DATE  
API         .                                    42703301780000 :API NUMBER
UWI         .                                    42703301780000 :UNIQUE WELL ID
XCOORD      .                                  585273.186473096 :SURFACE X 
YCOORD      .                                  10269188.7462706 :SURFACE Y 
LAT         .                                          28.25878 :LATITUDE  
LON         .                                       -96.2777629 :LONGITUDE 
ELEV        .FT                                              82 :ELEVATION VALUE
ELEV_TYPE   .                                                KB :ELEVATION REFERENCE TYPE
~Curve Information Section
#MNEM       .UNIT                                      API CODE :CURVE DESCRIPTION
#------------------------------------------------------------------------------
DEPT        .FT                                                 :DEPTH     
CILD        .MMHO                                               :          
DT          .US/F                                               :          
ILD         .OHMM                                               :          
SFL         .OHMM                                               :          
SP          .MV                                                 :          
SP_NORM     .MV                                                 :SP Normalized
VSH_SP      .V/V                                                :Volume of Shale from SP
~A        DEPTH           CILD             DT            ILD            SFL             SP        SP_NORM         VSH_SP
# ...
      3912.5000       1332.953        117.853         0.8226         0.8877       -40.3969       1.121998              1
      3913.0000        1324.01        99.0588         0.8454          0.899       -41.2863      0.2208176              1
      3913.5000       1306.936        96.8496         0.8617          0.944       -42.1579     -0.6625671              1
      3914.0000       1283.547       132.9778         0.8745         1.0124       -42.8386      -1.355045      0.9927542
      3914.5000       1243.674       150.0291         0.8834         1.0682        -43.459      -1.987228      0.9798525
      3915.0000       1196.232       131.4702           0.89         1.0335       -44.0968       -2.63681      0.9665957
      3915.5000       1143.512       123.6624         0.9081         0.9924       -44.7079      -3.259689      0.9538839
      3916.0000       1087.545         152.02         0.9419         0.9981       -45.2922       -3.85577       0.941719
      3916.5000       1038.951       163.3909         1.0136         1.0508       -45.8591      -4.434452      0.9299092
      3917.0000       985.3936       153.5276         1.1103          1.136       -46.2299      -4.817036      0.9221013
      3917.5000       927.6104       140.0195         1.2172          1.255        -46.665      -5.263916      0.9129813
      3918.0000       874.8145        107.479         1.2898         1.4246       -46.1755      -4.786198      0.9227307
      3918.5000       832.8525        114.342         1.3297          1.638       -45.0386      -3.661079      0.9456922
      3919.0000       795.3379       131.6885         1.3641         1.8716       -44.4771      -3.111362       0.956911
      3919.5000       766.7168       132.9133         1.3708         1.7535       -44.3376      -2.983643      0.9595175
      3920.0000       751.1777       116.6033         1.2898         1.5763       -43.8237      -2.481522      0.9697649
      3920.5000       769.3203       103.4351         1.3095          1.454       -42.9998      -1.669407      0.9863386
      3921.0000       821.4775       101.8728         1.3518         1.4475       -42.4001      -1.081486       0.998337
      3921.5000       891.3486       124.8054         1.2752         1.4246        -42.322      -1.015167      0.9996905
      3922.0000       952.2764        141.884          1.201         1.2804       -44.0581       -2.76305      0.9640194
      3922.5000       1002.198       146.3792         1.1415         1.1097       -46.0283      -4.745033      0.9235708
      3923.0000       1044.307       142.7864         1.0986         0.9721       -46.2372      -4.965714      0.9190671
      3923.5000       1087.645        131.262          1.061         0.8991       -45.8767      -4.616997      0.9261838
      3924.0000        1115.43        121.729         1.0337         0.8927       -45.5046      -4.256676      0.9335372
      3924.5000       1135.588       121.0168         1.0115         0.9055       -45.2051      -3.968956      0.9394091
      3925.0000       1144.145       120.0874         0.9949         0.9103        -44.866       -3.64164       0.946089
      3925.5000       1137.854       123.1592          0.989         0.9178       -44.3813       -3.16872      0.9557404
      3926.0000        1123.23       133.6223         0.9933         0.9356       -43.8806      -2.679802      0.9657183
      3926.5000       1101.623       140.0168         1.0113         0.9803       -43.1612      -1.972183      0.9801595
      3927.0000       1070.691       140.9963         1.0355         1.0288        -42.242      -1.064766      0.9986783
      3927.5000       1048.396       131.3809         1.0619         1.0717       -40.6523      0.5131531              1
      3928.0000       1032.492       120.5605         1.0893         1.1018       -38.4527        2.70097              1
      3928.5000       1027.926       116.3096          1.112         1.1137       -36.3595       4.782391              1
      3929.0000       1028.209       120.4119         1.1326         1.1045       -35.1025       6.027607              1
      3929.5000        1027.33       126.2708         1.1642         1.0806       -35.1254       5.992928              1
      3930.0000       1005.392       127.4023         1.2029         1.0385        -35.709       5.397549              1
      3930.5000       973.4785       125.4998         1.2494         0.9866       -36.3295       4.765266              1
      3931.0000       924.8838       129.8289         1.3019         0.9426       -36.7252       4.357784              1
      3931.5000       876.9023        130.166         1.3688         0.9367       -36.8981         4.1731              1
      3932.0000       831.1328       128.7646          1.443         1.0323       -36.5728       4.486622              1
      3932.5000       789.2939       124.3989           1.49         1.2405       -36.4692       4.578438              1
      3933.0000       760.5742       110.5486         1.5363          1.563       -36.5667       4.469158              1
      3933.5000       740.6748        101.863         1.5546         1.8792       -37.0387       3.985374              1
      3934.0000       727.2363        107.376         1.5565         2.1575       -38.1144       2.897896              1
      3934.5000       735.8408       110.4543         1.5419         1.9455       -39.3279       1.672615              1
      3935.0000       751.8037       127.9692         1.5035         1.3765       -40.4739      0.5148315              1
      3935.5000       792.9795       135.4944         1.4523         1.0502       -40.8861     0.09085083              1
      3936.0000       841.9922       124.9294         1.3795         0.9298       -40.7612       0.203968              1
      3936.5000       893.9277       115.4578          1.304         0.9123       -40.1575       0.795887              1
      3937.0000       949.5244       108.4658         1.2426         0.9833       -38.9673       1.974304              1
      3937.5000       983.5264       106.2317         1.2131         1.0561       -37.9374       2.992424              1
      3938.0000       970.5791       107.8237         1.2208          1.073       -37.5379       3.380142              1
      3938.5000       944.8818       110.6577         1.2372         1.0985       -37.5356       3.370663              1
      3939.0000       918.3115       109.9187         1.2614          1.133        -37.611       3.283482              1
      3939.5000       903.5459       107.4591         1.2873         1.1833       -37.6308         3.2519              1
      3940.0000       885.3662       105.3467         1.3262         1.2255       -37.5886       3.282318              1
      3940.5000       864.3359       103.5391         1.3663          1.228       -37.4655       3.393635              1
      3941.0000       842.2744       102.1506         1.3996         1.2362       -37.2234       3.623955              1
      3941.5000       819.8564        105.116         1.4289         1.2567       -37.0408       3.794773              1
      3942.0000       799.6377       106.2529         1.4554         1.3024       -36.9437       3.880093              1
      3942.5000       781.8252       105.5251         1.4744         1.3572       -37.3801       3.431908              1
      3943.0000       777.7598       104.9802         1.4431         1.4637       -39.1393       1.660927              1
      3943.5000       864.1768       100.8513         1.2903         1.6711       -42.3831      -1.594654      0.9878642
      3944.0000       1015.612        95.4363         1.1154         1.8975       -50.5753      -9.798634      0.8204361
      3944.5000       1224.535        92.6592         0.8709         1.8082       -59.3292      -18.56432      0.6415446
      3945.0000        1444.76        93.1427         0.7205         1.4118       -65.0225       -24.2694      0.5251144
      3945.5000       1754.707        99.1528         0.6159         1.0933       -68.8105      -28.06918      0.4475678
