#------------------------------------------------------------------------------
# Created by    : vladimir.rabinovich
# Created on    : 09/19/2023 17:20:54
#------------------------------------------------------------------------------
~Version Information Section
VERS.           2.0     :   CWLS log ASCII Standard - VERSION 2.0
WRAP.           NO      :   One line per depth step
~Well Information Section
#MNEM       .UNIT                                         VALUE :DESCRIPTION
#------------------------------------------------------------------------------
STRT        .FT                                            2835 :START DEPTH
STOP        .FT                                            6351 :STOP DEPTH
STEP        .FT                                             0.5 :STEP      
NULL        .                                           -999.25 :NULL      
COMP        .                                   PENNZOIL CO INC :COMPANY   
WELL        .                                     ST TR 00659-L :WELL      
FLD         .                                           WILDCAT :FIELD     
LOC         .                                                   :LOCATION  
CNTY        .                      MATAGORDA ISLAND LARGE BLOCK :LOCATION  
STAT        .                                             TEXAS :STATE     
CTRY        .                                     UNITED STATES :COUNTRY   
SRVC        .                                                   :SERVICE COMPANY
DATE        .                             9/13/2023 11:19:13 AM :LOG DATE  
API         .                                    42703300020000 :API NUMBER
UWI         .                                    42703300020000 :UNIQUE WELL ID
XCOORD      .                                  437819.375414617 :SURFACE X 
YCOORD      .                                  10187782.3810297 :SURFACE Y 
LAT         .                                        28.0235144 :LATITUDE  
LON         .                                       -96.7273206 :LONGITUDE 
ELEV        .FT                                              73 :ELEVATION VALUE
ELEV_TYPE   .                                                KB :ELEVATION REFERENCE TYPE
~Curve Information Section
#MNEM       .UNIT                                      API CODE :CURVE DESCRIPTION
#------------------------------------------------------------------------------
DEPT        .FT                                                 :DEPTH     
ASN         .OHMM                                               :          
CILD        .MMHO                                               :          
ILD         .OHMM                                               :          
SP          .MV                                                 :          
SP_NORM     .MV                                                 :SP Normalized
VSH_SP      .V/V                                                :Volume of Shale from SP
~A        DEPTH            ASN           CILD            ILD             SP        SP_NORM         VSH_SP
      2835.0000         0.7276        71.1047         0.0494       -99.1053      -38.86433              0
      2835.5000         0.7461       165.1301         0.1335       -92.8002      -32.55923              0
      2836.0000          0.766       425.3506         0.2374       -86.1414      -25.90044      0.1967601
      2836.5000         0.7903       663.9277         0.4718       -83.8174      -23.57643       0.271728
      2837.0000         0.8159       730.9619         0.6572       -79.0852      -18.84423      0.4243796
      2837.5000          0.838       836.6729         0.7401       -76.6333      -16.39233      0.5034731
      2838.0000         0.8603       992.7598         0.8231       -70.4847      -10.24374      0.7018149
      2838.5000         0.8873       952.3545         0.9122        -68.118      -7.877029      0.7781603
      2839.0000         0.9425       1046.092         0.9885       -66.8195      -6.578537      0.8200472
      2839.5000         0.9714       1097.545         1.0439       -65.5383      -5.297333      0.8613763
      2840.0000         0.9442       1137.098         1.0975       -64.4302      -4.189232      0.8971215
      2840.5000          0.926       1187.174         1.0054       -63.7919      -3.550934      0.9177118
      2841.0000         0.9083       1221.504         0.9738       -63.3474      -3.106434      0.9320505
      2841.5000         0.8949       1188.201         0.9544       -63.1222      -2.881233      0.9393151
      2842.0000         0.8976       1154.834          0.935       -62.8971      -2.656132      0.9465764
      2842.5000          0.908       1123.346         0.9156       -62.6919      -2.450932      0.9531958
      2843.0000         0.9184       1089.078         0.9125        -62.546      -2.305035      0.9579021
      2843.5000         0.9289       1045.314         0.9491        -62.407      -2.166035       0.962386
      2844.0000         0.9474       991.2822         0.9858       -62.4218      -2.180832      0.9619086
      2844.5000         0.9766       954.9092         1.0224       -62.4366      -2.195633      0.9614312
      2845.0000         1.0067       925.4258         1.0666       -62.5897      -2.348732      0.9564925
      2845.5000         1.0372       893.1611         1.1064       -62.9171      -2.676132      0.9459312
      2846.0000         1.0661       940.9316         1.0797       -63.4835      -3.243347      0.9276339
      2846.5000         1.0922       980.5352          1.053       -64.1428      -3.909016      0.9061608
      2847.0000         1.1158       1018.987         1.0263        -64.941      -4.713585      0.8802069
      2847.5000         1.1327        1068.26         0.9997       -65.7395      -5.518452      0.8542435
      2848.0000         1.1469       1128.531         0.9733       -66.6959       -6.48122      0.8231865
      2848.5000          1.159       1157.891         0.9469       -67.7183      -7.509987      0.7900004
      2849.0000         1.1663       1179.363         0.9206       -68.6815      -8.479557       0.758724
      2849.5000         1.1736       1195.086         0.9009       -69.6643      -9.468723      0.7268154
      2850.0000         1.1653       1199.123         0.8907       -70.7931      -10.60389      0.6901971
      2850.5000         1.1556       1202.121         0.8805        -65.942      -5.759163      0.8464786
      2851.0000          1.146       1203.463         0.8764       -64.9586      -4.782131      0.8779958
      2851.5000         1.1507       1184.619         0.8755       -64.1506      -3.980492      0.9038551
      2852.0000         1.1722       1162.824         0.8746       -68.5519      -8.388168       0.761672
      2852.5000         1.2028       1135.508         0.8737       -72.3751      -12.21773      0.6381377
      2853.0000         1.2444       1112.775         0.8729         -74.12        -13.969      0.5816451
      2853.5000           1.27       1091.832         0.8764       -75.3102      -15.16557      0.5430461
      2854.0000         1.3284       1080.598         0.8819       -75.7646      -15.62634      0.5281826
      2854.5000         1.3615       1070.652         0.8874        -76.219      -16.08711      0.5133191
      2855.0000         1.3521       1079.939         0.8929       -76.0154      -15.88988      0.5196814
      2855.5000          1.327       1092.164         0.8984       -75.5413      -15.42214      0.5347697
      2856.0000         1.2996       1104.389         0.9038       -75.0082      -14.89541      0.5517609
      2856.5000         1.2715       1116.613         0.9062       -73.8073      -13.70087      0.5902944
      2857.0000          1.242       1128.832         0.9084       -72.6071      -12.50705       0.628805
      2857.5000         1.1928       1141.057         0.9106       -71.4023      -11.30861      0.6674641
      2858.0000         1.1076       1153.281         0.9128       -69.5007      -9.413383      0.7286006
      2858.5000         1.0715       1161.371         0.9149       -67.0602      -6.979252      0.8071209
      2859.0000         1.0536       1161.334         0.9102       -64.1168      -4.042217      0.9018639
      2859.5000         1.0373       1140.381         0.9007       -62.6026      -2.534386      0.9505037
      2860.0000         1.0263       1129.107         0.8911       -61.3929      -1.331055      0.9893208
      2860.5000         1.0334       1118.658         0.8841       -60.3506     -0.2951241              1
      2861.0000         1.0446       1111.252         0.8858       -59.7558      0.2933121              1
      2861.5000          1.057       1121.348         0.8869       -59.5751      0.4676399              1
      2862.0000         1.0694       1140.316         0.8717       -59.8824      0.1539726              1
      2862.5000         1.0818       1173.045         0.8464       -61.4199      -1.389893      0.9874228
      2863.0000         1.0924        1220.74         0.8093       -64.7523      -4.728661      0.8797206
      2863.5000         1.1027        1248.17         0.7723       -67.4349      -7.417629      0.7929797
      2864.0000         1.1131       1338.727         0.7348        -69.932      -9.921101      0.7122226
      2864.5000         1.1238       1463.225         0.6942        -72.978      -12.97346      0.6137592
      2865.0000         1.1179       1602.754         0.6535       -75.6995      -15.70134      0.5257633
      2865.5000         1.0946       1684.318         0.6129         -78.11      -18.11821      0.4477998
      2866.0000         1.0652       1752.555         0.5767       -80.7286      -20.74317      0.3631235
      2866.5000         1.0359       1819.113         0.5479       -82.9136      -22.93454      0.2924343
      2867.0000         1.0215       1862.137          0.519       -85.3655      -25.39281      0.2131351
      2867.5000         1.0075       1916.832         0.4902       -88.0931      -28.12678      0.1249427
      2868.0000         0.9935        1996.18         0.4668       -90.1681      -30.20814     0.05780189
      2868.5000         0.9735       2004.674         0.4465       -90.8582      -30.90461     0.03533505
      2869.0000         0.8013       2124.246          0.433       -91.4814      -31.53418     0.01502646
      2869.5000         0.7859       2281.836         0.4274        -91.824      -31.88315    0.003769413
      2870.0000         0.7704       2343.387         0.4254       -91.9819      -32.04742              0
      2870.5000         0.7529       2428.457         0.4324       -91.4197      -31.49158     0.01640049
      2871.0000         0.7377        2491.68         0.4394       -90.8574      -30.93565     0.03433375
      2871.5000         0.7298       2485.543         0.4463       -90.0957      -30.18032     0.05869921
      2872.0000         0.7218       2445.539         0.4603       -89.2761      -29.36709     0.08493263
      2872.5000         0.7139       2383.141         0.4894       -88.3977      -28.49506      0.1130627
