#------------------------------------------------------------------------------
# Created by    : vladimir.rabinovich
# Created on    : 09/19/2023 17:22:30
#------------------------------------------------------------------------------
~Version Information Section
VERS.           2.0     :   CWLS log ASCII Standard - VERSION 2.0
WRAP.           NO      :   One line per depth step
~Well Information Section
#MNEM       .UNIT                                         VALUE :DESCRIPTION
#------------------------------------------------------------------------------
STRT        .FT                                             328 :START DEPTH
STOP        .FT                                            8026 :STOP DEPTH
STEP        .FT                                             0.5 :STEP      
NULL        .                                           -999.25 :NULL      
COMP        .                                 MESA PETROLEUM CO :COMPANY   
WELL        .                                ST TR 00565-L NW/4 :WELL      
FLD         .                                           WILDCAT :FIELD     
LOC         .                                                   :LOCATION  
CNTY        .                      MATAGORDA ISLAND LARGE BLOCK :LOCATION  
STAT        .                                             TEXAS :STATE     
CTRY        .                                     UNITED STATES :COUNTRY   
SRVC        .                                                   :SERVICE COMPANY
DATE        .                             9/13/2023 11:12:01 AM :LOG DATE  
API         .                                    42703301780000 :API NUMBER
UWI         .                                    42703301780000 :UNIQUE WELL ID
XCOORD      .                                  585273.186473096 :SURFACE X 
YCOORD      .                                  10269188.7462706 :SURFACE Y 
LAT         .                                          28.25878 :LATITUDE  
LON         .                                       -96.2777629 :LONGITUDE 
ELEV        .FT                                              82 :ELEVATION VALUE
ELEV_TYPE   .                                                KB :ELEVATION REFERENCE TYPE
~Curve Information Section
#MNEM       .UNIT                                      API CODE :CURVE DESCRIPTION
#------------------------------------------------------------------------------
DEPT        .FT                                                 :DEPTH     
CILD        .MMHO                                               :          
DT          .US/F                                               :          
ILD         .OHMM                                               :          
SFL         .OHMM                                               :          
SP          .MV                                                 :          
SP_NORM     .MV                                                 :SP Normalized
VSH_SP      .V/V                                                :Volume of Shale from SP
~A        DEPTH           CILD             DT            ILD            SFL             SP        SP_NORM         VSH_SP
# ...
      6961.0000       1224.068       111.3364         0.9995         1.3175       -68.2131      -12.25881      0.8368289
      6961.5000       1199.973       120.1455         1.0265         1.3011       -67.4513      -11.54515      0.8471717
      6962.0000       1155.914       145.3616         1.0797         1.1594       -66.0591      -10.20108      0.8666509
      6962.5000       1049.438       151.9321         1.1343          1.022       -64.9083      -9.098427      0.8826315
      6963.0000       986.5508       159.8391         1.1987         1.0507       -65.1844      -9.422665      0.8779324
      6963.5000       937.2217       163.3687         1.2657         1.5361       -66.3259       -10.6123      0.8606914
      6964.0000        889.624       164.6699         1.3301         2.2331       -67.4091      -11.74364      0.8442951
      6964.5000       841.9766       171.4849         1.3976          2.605       -68.0841      -12.46677      0.8338149
      6965.0000       788.0459       173.8579         1.4731         2.1037       -67.6951      -12.12591      0.8387549
      6965.5000       747.5732       173.9277         1.5426         1.3941       -66.5715      -11.05045      0.8543413
      6966.0000        712.543        152.321          1.604         1.1665       -64.8729       -9.39999       0.878261
      6966.5000        687.457       110.9325         1.6292         1.1203       -63.4486      -8.023827      0.8982054
      6967.0000       705.8633        -999.25         1.6114         1.0592       -62.3381      -6.961464       0.913602
      6967.5000       780.5742        -999.25         1.5499         1.0058       -61.4088      -6.080299      0.9263725
      6968.0000       837.4746        -999.25         1.4407         0.9916       -60.7282      -5.447838      0.9355386
      6968.5000       872.6035        -999.25         1.3483          0.975       -60.2839      -5.051678        0.94128
      6969.0000       904.6152        -999.25         1.2752         0.9393       -59.8256      -4.641514      0.9472244
      6969.5000       950.9766        -999.25         1.2186         0.8543       -59.3268      -4.190853      0.9537557
      6970.0000       1025.193        -999.25         1.1644         0.7336       -58.8057      -3.717888      0.9606103
      6970.5000       1144.137        -999.25         1.1074         0.6363       -58.3311      -3.291428      0.9667909
      6971.0000       1219.541        83.7423         1.0431         0.6225       -58.0885      -3.096966      0.9696092
      6971.5000       1250.342       118.4207         0.9765         0.6184       -57.9005      -2.957104      0.9716362
      6972.0000       1235.672       171.5647         0.9558         0.6155       -57.9088      -3.013538      0.9708183
      6972.5000       1209.324       170.9465         0.9795         0.6509       -58.4619      -3.614777      0.9621047
      6973.0000       1112.373       151.1545          1.038         0.9357       -59.7337      -4.934715      0.9429752
      6973.5000       1027.666       144.1851         1.0813         1.6682       -61.4435      -6.692654      0.9174978
      6974.0000       989.3623       142.1677          1.093          3.792        -63.461      -8.758289       0.887561
      6974.5000       990.8711        142.688         1.1113         4.4619       -65.5405      -10.88593      0.8567257
      6975.0000       985.8584       145.1821         1.1365         3.6604       -68.1858      -13.57936      0.8176904
      6975.5000       951.5205       156.3394         1.1815          2.269        -70.702      -16.14371       0.780526
      6976.0000       919.2861       160.7861         1.2196          1.133       -71.6202      -17.11004      0.7665211
      6976.5000       929.3545       160.3276         1.2278         0.9096         -72.16      -17.69798      0.7580003
      6977.0000       1006.887       140.0371          1.212         0.9724       -72.2881      -17.87422      0.7554461
      6977.5000       1063.736       121.8505         1.1773         1.0855       -71.7468      -17.38106      0.7625933
      6978.0000       1109.305        -999.25          1.126         1.0996       -69.9229      -15.60529      0.7883291
      6978.5000       1147.105        -999.25         1.0787         1.0633       -68.0071      -13.73764      0.8153965
      6979.0000         1176.1        -999.25         1.0452         1.0362        -66.017      -11.79567       0.843541
      6979.5000       1197.104        -999.25          1.023         1.0261       -64.0863      -9.913113      0.8708245
      6980.0000        1210.76        -999.25          1.002         0.9931        -62.245      -8.119946      0.8968124
      6980.5000       1223.822        -999.25         0.9814         0.9185       -60.6407      -6.563786      0.9193654
      6981.0000       1230.643        -999.25         0.9655         0.8163       -59.4769       -5.44812      0.9355345
      6981.5000       1228.076       112.3658         0.9512         0.9312       -59.1791       -5.19846      0.9391528
      6982.0000       1219.455       166.1206         0.9439         1.0717       -59.6791      -5.746597      0.9312087
      6982.5000       1192.082       185.6152         0.9413         1.0474       -60.6829      -6.790184      0.9160843
      6983.0000       1141.168       183.1458         0.9759         0.9834       -61.9857      -8.089924      0.8972475
      6983.5000       1086.348       179.2969         1.0288         0.9909        -62.817      -8.918167       0.885244
      6984.0000       1038.305        178.134         1.0905         1.1253       -63.4963      -9.594402      0.8754435
      6984.5000       1013.517       172.8906         1.1397         1.4571       -64.1644      -10.25944      0.8658052
      6985.0000       993.9727       164.7896         1.1742         1.9067       -64.2594      -10.35138      0.8644727
      6985.5000       978.6592        -999.25         1.1955         1.9999       -63.3394      -9.428322      0.8778504
      6986.0000       974.6729        -999.25         1.1977         1.6195       -62.2972       -8.38306      0.8929991
      6986.5000       984.2754        -999.25         1.1887         1.1687       -61.2363      -7.319103      0.9084188
      6987.0000       1010.325        -999.25          1.173         0.9765       -60.5632      -6.642941      0.9182183
      6987.5000       1034.631        -999.25         1.1515         0.8957       -59.9093      -5.985981      0.9277394
      6988.0000       1047.977        -999.25         1.1265         0.8477       -59.2628      -5.336418      0.9371533
      6988.5000       1056.221        -999.25         1.1023         0.8042       -58.5481      -4.618656      0.9475557
      6989.0000       1063.123        -999.25         1.0854         0.7644       -57.8168      -3.884296      0.9581986
      6989.5000       1069.896        -999.25          1.072         0.7954       -57.1368      -3.201237       0.968098
      6990.0000        1076.65        -999.25         1.0605         0.8571       -56.5009      -2.562275      0.9773583
      6990.5000       1084.232        -999.25         1.0514         0.9265       -55.9885      -2.046814      0.9848288
      6991.0000       1093.014        -999.25         1.0427         0.9852       -55.6299      -1.685158      0.9900702
      6991.5000       1101.785       138.5615         1.0368         1.0284       -55.2847      -1.336891      0.9951175
      6992.0000       1112.211       117.0746         1.0331         1.0616       -54.9738      -1.022934      0.9996676
      6992.5000       1124.916       176.1711         1.0272         1.0852       -54.6664     -0.7124748              1
      6993.0000       1137.457       196.0479          1.015         1.0923       -54.4348     -0.4778099              1
      6993.5000       1148.875       193.9614          1.003         1.0788       -54.2027     -0.2426529              1
      6994.0000        1160.33       193.4802         0.9883         1.0454       -54.1017     -0.1385918              1
