#------------------------------------------------------------------------------
# Created by    : vladimir.rabinovich
# Created on    : 09/19/2023 17:19:49
#------------------------------------------------------------------------------
~Version Information Section
VERS.           2.0     :   CWLS log ASCII Standard - VERSION 2.0
WRAP.           NO      :   One line per depth step
~Well Information Section
#MNEM       .UNIT                                         VALUE :DESCRIPTION
#------------------------------------------------------------------------------
STRT        .FT                                            1295 :START DEPTH
STOP        .FT                                            4592 :STOP DEPTH
STEP        .FT                                             0.5 :STEP      
NULL        .                                           -999.25 :NULL      
COMP        .                     FREEPORT-MCMORAN OIL & GAS CO :COMPANY   
WELL        .                                     ST TR 00662-L :WELL      
FLD         .                                         SIX-SIXTY :FIELD     
LOC         .                                                   :LOCATION  
CNTY        .                      MATAGORDA ISLAND LARGE BLOCK :LOCATION  
STAT        .                                             TEXAS :STATE     
CTRY        .                                     UNITED STATES :COUNTRY   
SRVC        .                                                   :SERVICE COMPANY
DATE        .                             9/13/2023 11:19:13 AM :LOG DATE  
API         .                                    42703300650000 :API NUMBER
UWI         .                                    42703300650000 :UNIQUE WELL ID
XCOORD      .                                  434889.841251994 :SURFACE X 
YCOORD      .                                  10179416.4588751 :SURFACE Y 
LAT         .                                        28.0002971 :LATITUDE  
LON         .                                       -96.7355909 :LONGITUDE 
ELEV        .FT                                              77 :ELEVATION VALUE
ELEV_TYPE   .                                                KB :ELEVATION REFERENCE TYPE
~Curve Information Section
#MNEM       .UNIT                                      API CODE :CURVE DESCRIPTION
#------------------------------------------------------------------------------
DEPT        .FT                                                 :DEPTH     
ASFL        .OHMM                                               :          
CILD        .MMHO                                               :          
ILD         .OHMM                                               :          
SFL         .OHMM                                               :          
SP          .MV                                                 :          
SP_NORM     .MV                                                 :SP Normalized
VSH_SP      .V/V                                                :Volume of Shale from SP
~A        DEPTH           ASFL           CILD            ILD            SFL             SP        SP_NORM         VSH_SP
# ...
      4109.0000         1.0664       1129.947         0.9352         0.9175       -28.8224       1.001778              1
      4109.5000         1.0342       1131.879         0.9017         0.9711        -29.773     0.06066704              1
      4110.0000         1.3736       1063.871         0.8891         1.0247       -30.7236     -0.8804417              1
      4110.5000         1.5299       1010.517          0.913         1.1705        -30.648      -0.795351              1
      4111.0000         1.6044       965.2041         0.9577         1.2853       -30.1937     -0.3315601              1
      4111.5000         1.6519       927.2412         1.0023         1.3753       -29.5362      0.3354321              1
      4112.0000         1.6777       891.0605         1.0469         1.4666       -28.8786       1.002523              1
      4112.5000         1.6397       856.2656         1.0983         1.5616       -28.2093       1.681314              1
      4113.0000         1.5441       812.2646         1.1519         1.5725       -27.5221       2.378004              1
      4113.5000         1.3718        762.374         1.2001         1.5025        -27.503       2.406595              1
      4114.0000         1.3338       737.1563         1.2317         1.4325       -28.3962       1.522886              1
      4114.5000         1.3104       784.3252         1.2633         1.3648       -29.3856      0.5429783              1
      4115.0000         1.3236       839.3135         1.2681         1.3165       -29.9038     0.03426933              1
      4115.5000         1.3406       892.3721         1.2638         1.2681       -29.2561      0.6914597              1
      4116.0000         1.3566       922.0195         1.2207         1.2263       -28.6216       1.335451              1
      4116.5000         1.3739        951.667           1.17          1.188       -28.0134       1.953142              1
      4117.0000          1.266       981.3145         1.1152         1.1377       -27.4049       2.571133              1
      4117.5000         1.1713       1011.383         1.0571         1.0671       -26.8401       3.145424              1
      4118.0000         1.0993       1041.475         1.0006         0.9966       -26.3392       3.655815              1
      4118.5000          0.978       1081.318         0.9576         0.9422       -25.8383       4.166204              1
      4119.0000         0.8867       1127.473         0.9146         0.8939       -25.4775       4.536495              1
      4119.5000         0.8509       1187.461         0.8716          0.848       -25.0512       4.972286              1
      4120.0000         0.8334       1236.709         0.8314         0.8089       -24.2811       5.751879              1
      4120.5000         0.8148       1279.002         0.7926         0.7699       -23.4921       6.550369              1
      4121.0000         0.8219       1287.713         0.7559         0.7597       -22.8092        7.24276              1
      4121.5000          0.846       1245.123         0.7788         0.7894       -23.3811       6.680351              1
      4122.0000         0.8716       1197.979         0.8047          0.819       -24.2897       5.781242              1
      4122.5000         0.9169       1149.795         0.8373         0.8487       -25.3076       4.772833              1
      4123.0000          0.965       1100.547           0.87         0.8784       -26.2661       3.823824              1
      4123.5000         1.0089       1050.014         0.9026         0.9112       -27.2661       2.833315              1
      4124.0000          1.049       1003.043         0.9354         0.9544       -28.3141       1.794806              1
      4124.5000         1.0798        960.082         0.9687         0.9976       -29.0957       1.022696              1
      4125.0000         1.1131       917.7383         1.0021         1.0408       -29.9112      0.2166862              1
      4125.5000         1.1448       875.6436         1.0355         1.0783        -30.884      -0.746624              1
      4126.0000         1.1719       846.6885         1.0689         1.1118       -31.9253      -1.778433      0.9841136
      4126.5000          1.191       821.5703         1.0989         1.1453       -32.7457      -2.589342      0.9675645
      4127.0000         1.2082       809.9443         1.1253         1.1789       -33.5162      -3.350351      0.9520336
      4127.5000         1.2253       798.3193         1.1517         1.1965       -34.2626      -4.087259      0.9369947
      4128.0000         1.2413        785.166          1.137         1.2129       -34.1716      -3.986769      0.9390455
      4128.5000         1.2368       800.9551         1.1112         1.2285       -33.6355      -3.441179      0.9586241
      4129.0000         1.1633       832.4834         1.0854         1.2307       -33.0785      -2.874685      0.9682257
      4129.5000         1.1435       864.0117         1.0637         1.2159       -32.5014      -2.288095      0.9781679
      4130.0000         1.1237       893.6836         1.0454         1.1675       -31.9247      -1.701904      0.9881033
      4130.5000         1.1049       923.0596          1.027          1.119       -31.3479      -1.115614      0.9980404
      4131.0000         1.0862       955.5771         1.0087         1.0771       -30.6718     -0.4300232              1
      4131.5000         1.0646        990.125         0.9904           1.05       -29.9723      0.2789688              1
      4132.0000         1.0434       1010.084         0.9958          1.023       -29.6422      0.6185589              1
      4132.5000         1.0324       991.2637         1.0016         0.9994       -30.3393    -0.06904984              1
      4133.0000         1.0727       971.4404         1.0126         1.0217       -31.1844     -0.9046593              1
      4133.5000         1.1091       950.8877         1.0353         1.0439       -31.0734     -0.7841682              1
      4134.0000         1.1578       928.1816          1.058         1.0662       -30.3572     -0.0584774              1
      4134.5000         1.2046       905.4766         1.0807         1.0884       -29.7113      0.5969143              1
      4135.0000         1.2451       881.8428         1.1065         1.1132       -29.1336       1.184105              1
      4135.5000         1.2573       857.3916         1.1339         1.1409       -28.5559       1.771296              1
      4136.0000         1.2669       832.9541         1.1613         1.1686       -28.0566       2.280087              1
      4136.5000         1.2675       809.8398         1.1891         1.1962       -27.8089       2.537277              1
      4137.0000         1.2607        791.168         1.2182         1.2236        -28.423       1.932669              1
      4137.5000         1.2686       772.4834         1.2474         1.2451       -29.0374       1.327761              1
      4138.0000         1.2916       758.4951         1.2766         1.2666       -30.1635      0.2111511              1
      4138.5000         1.3285       749.9941         1.2983         1.2881       -31.1809     -0.7967587              1
      4139.0000         1.3557       743.4111         1.3141         1.3097       -31.1678      -0.774168              1
      4139.5000         1.3806       745.9287         1.3256         1.3337       -29.9007      0.5024242              1
      4140.0000         1.4254       760.3691         1.2818         1.3577       -28.7805       1.632114              1
      4140.5000         1.3025       774.8096         1.2381         1.3261       -28.2469       2.175205              1
      4141.0000         1.2011       816.7441         1.1918          1.264       -29.1778       1.253796              1
      4141.5000         1.1307       878.5137         1.1455         1.1954       -30.2215      0.2195854              1
      4142.0000         1.0843       951.3213         1.0993         1.1268        -31.115      -0.664423              1
