#------------------------------------------------------------------------------
# Created by    : vladimir.rabinovich
# Created on    : 09/19/2023 17:20:54
#------------------------------------------------------------------------------
~Version Information Section
VERS.           2.0     :   CWLS log ASCII Standard - VERSION 2.0
WRAP.           NO      :   One line per depth step
~Well Information Section
#MNEM       .UNIT                                         VALUE :DESCRIPTION
#------------------------------------------------------------------------------
STRT        .FT                                            2835 :START DEPTH
STOP        .FT                                            6351 :STOP DEPTH
STEP        .FT                                             0.5 :STEP      
NULL        .                                           -999.25 :NULL      
COMP        .                                   PENNZOIL CO INC :COMPANY   
WELL        .                                     ST TR 00659-L :WELL      
FLD         .                                           WILDCAT :FIELD     
LOC         .                                                   :LOCATION  
CNTY        .                      MATAGORDA ISLAND LARGE BLOCK :LOCATION  
STAT        .                                             TEXAS :STATE     
CTRY        .                                     UNITED STATES :COUNTRY   
SRVC        .                                                   :SERVICE COMPANY
DATE        .                             9/13/2023 11:19:13 AM :LOG DATE  
API         .                                    42703300020000 :API NUMBER
UWI         .                                    42703300020000 :UNIQUE WELL ID
XCOORD      .                                  437819.375414617 :SURFACE X 
YCOORD      .                                  10187782.3810297 :SURFACE Y 
LAT         .                                        28.0235144 :LATITUDE  
LON         .                                       -96.7273206 :LONGITUDE 
ELEV        .FT                                              73 :ELEVATION VALUE
ELEV_TYPE   .                                                KB :ELEVATION REFERENCE TYPE
~Curve Information Section
#MNEM       .UNIT                                      API CODE :CURVE DESCRIPTION
#------------------------------------------------------------------------------
DEPT        .FT                                                 :DEPTH     
ASN         .OHMM                                               :          
CILD        .MMHO                                               :          
ILD         .OHMM                                               :          
SP          .MV                                                 :          
SP_NORM     .MV                                                 :SP Normalized
VSH_SP      .V/V                                                :Volume of Shale from SP
~A        DEPTH            ASN           CILD            ILD             SP        SP_NORM         VSH_SP
# ...
      5875.0000          1.011       1093.354         0.8901       -53.1779      -7.570923      0.8506609
      5875.5000          0.993        1151.59         0.8419       -54.8987      -9.296646      0.8114399
      5876.0000          0.975       1221.293         0.7938       -57.2772      -11.68006      0.7572713
      5876.5000         0.9535       1312.037         0.7465       -57.9611      -12.36888      0.7416163
      5877.0000         0.9064       1434.891         0.6992        -59.085       -13.4977      0.7159614
      5877.5000         0.8671        1513.07         0.6533       -62.9984      -17.41602      0.6269087
      5878.0000         0.8369        1626.65         0.6178       -64.5627      -18.98523      0.5912447
      5878.5000         0.8347       1783.209         0.5831        -66.057      -20.48446      0.5571715
      5879.0000         0.8325       1820.182         0.5549       -67.7816      -22.21397      0.5178642
      5879.5000         0.8303       1849.648         0.5328       -75.8149      -30.25219      0.3351774
      5880.0000         0.8158       1891.754          0.513       -78.3805      -32.82271      0.2767566
      5880.5000         0.8011        1953.68         0.5307       -79.3855      -33.83263      0.2538039
      5881.0000         0.7865       1958.715         0.5519       -79.4487      -33.90075      0.2522558
      5881.5000         0.7843       1786.576          0.573       -78.6609      -33.11786      0.2700486
      5882.0000         0.7827       1751.898         0.5941        -77.873      -32.33488      0.2878435
      5882.5000         0.7847       1717.246         0.6142       -76.7861       -31.2529       0.312434
      5883.0000         0.7868       1662.051         0.6292       -74.1105      -28.58221      0.3731315
      5883.5000          0.789       1602.668         0.6442       -70.7039      -25.18054      0.4504423
      5884.0000         0.7962       1546.576         0.6592       -66.9869      -21.46846      0.5348078
      5884.5000          0.807       1512.199         0.6742       -65.0446      -19.53107      0.5788392
      5885.0000         0.8167       1478.344         0.6843       -64.1334      -18.62479      0.5994366
      5885.5000         0.8225       1455.459         0.6911       -63.2587      -17.75501      0.6192043
      5886.0000         0.8285         1431.4         0.6979       -62.4045      -16.90573      0.6385062
      5886.5000         0.8345       1433.854         0.7048        -61.551      -16.05714      0.6577922
      5887.0000         0.8404        1438.02         0.7116       -60.5054      -15.01646       0.681444
      5887.5000         0.8464       1442.189         0.7101       -59.3803      -13.89628      0.7069027
      5888.0000         0.8524        1446.26         0.7069       -58.2552       -12.7761      0.7323614
      5888.5000         0.8583       1449.627         0.7037       -56.5269      -11.05272      0.7715291
      5889.0000         0.8643       1452.996         0.7039       -54.9988      -9.529537      0.8061469
      5889.5000         0.8611       1456.365         0.7141       -54.9162      -9.451855      0.8079124
      5890.0000         0.8393       1460.059         0.7243       -55.7691      -10.30967      0.7884165
      5890.5000         0.8053       1454.336         0.7349       -56.6226      -11.16809       0.768907
      5891.0000         0.7873       1402.855         0.7501       -57.4755      -12.02591      0.7494112
      5891.5000         0.8228       1367.531         0.7653       -59.1575      -13.71283       0.711072
      5892.0000         0.8571       1332.256         0.7805       -60.9948      -15.55505      0.6692035
      5892.5000          0.884       1312.885         0.7669       -61.6962      -16.26137      0.6531507
      5893.0000          0.905       1327.568         0.7501       -62.3057      -16.87578      0.6391868
      5893.5000         0.9179       1362.943         0.7333       -62.9152       -17.4902      0.6252227
      5894.0000         0.9192       1401.535         0.7165       -63.5678      -18.14772      0.6102791
      5894.5000          0.901       1449.102         0.6992       -63.5778      -18.16264        0.60994
      5895.0000         0.8829       1512.174         0.6817       -62.8845      -17.47425      0.6255851
      5895.5000         0.8616       1577.289         0.6643       -66.4888      -21.08347      0.5435574
      5896.0000         0.8356       1635.477         0.6424       -70.5887      -25.18829      0.4502661
      5896.5000         0.8213         1671.6          0.616       -73.1517      -27.75621      0.3919042
      5897.0000         0.8269       1695.084         0.6328       -75.7224      -30.33183      0.3333676
      5897.5000         0.8471       1657.564         0.6683       -77.2167      -31.83105      0.2992944
      5898.0000         0.8811       1563.629         0.7051       -76.1478      -30.76706      0.3234758
      5898.5000          0.915       1317.123          0.742       -74.1956      -28.81979      0.3677321
      5899.0000         0.9505       1265.145         0.7789       -72.2457       -26.8748      0.4119364
      5899.5000         0.9868       1229.869         0.8157       -68.9768      -23.61082      0.4861177
      5900.0000         1.0178       1190.529         0.8399       -65.3274      -19.96634      0.5689468
      5900.5000         1.0413       1125.139         0.8639       -58.4842      -13.12806      0.7243624
      5901.0000         1.0617       1102.029         0.8868       -54.3781      -9.026878      0.8175709
      5901.5000         1.0392         1091.9         0.9028       -55.5995      -10.25319      0.7897002
      5902.0000         1.0159       1092.303         0.9123       -56.6896      -11.34821      0.7648134
      5902.5000         1.0077       1095.148         0.8812       -58.3666      -13.03013       0.726588
      5903.0000         1.0015       1161.063         0.8501       -60.4591      -15.12755      0.6789194
      5903.5000         0.9936       1256.494         0.8191       -62.9771      -17.65047      0.6215803
      5904.0000         0.9855       1390.914         0.7707       -64.7441      -19.42239      0.5813094
      5904.5000         0.9731       1454.635         0.7148        -62.519      -17.20221       0.631768
      5905.0000          0.955        1527.23         0.6589       -61.9333      -16.62142      0.6449677
      5905.5000         0.9369       1642.605         0.5949       -64.4513      -19.14434      0.5876286
      5906.0000         0.8874       1767.854          0.538       -66.9944      -21.69236      0.5297192
      5906.5000         0.8289       2016.039         0.4965        -74.213      -28.91587      0.3655483
      5907.0000         0.7461       2147.668         0.5118       -77.1016      -31.80939      0.2997865
      5907.5000         0.7218       2177.707         0.5398       -77.6622      -32.37491      0.2869338
      5908.0000         0.7139       2153.926         0.5665       -69.0519      -23.76954      0.4825106
      5908.5000         0.7214       2121.414         0.5931       -67.0106      -21.73315      0.5287921
      5909.0000         0.7429       2087.336         0.6197       -65.2748      -20.00227      0.5681303
      5909.5000         0.7643       2050.141         0.6548       -63.6254      -18.35778      0.6055049
      5910.0000         0.8001       1995.537         0.6901        -62.061      -16.79831      0.6409476
      5910.5000         0.8365       1400.887         0.7253       -60.5217      -15.26392      0.6758199
      5911.0000         0.8636        1314.58         0.7605       -58.0643      -12.81144      0.7315582
      5911.5000         0.8848         1272.1         0.7859       -57.5037      -12.25576      0.7441873
      5912.0000         0.9036       1238.121         0.8085       -57.0728      -11.82978      0.7538687
      5912.5000         0.9148       1212.543         0.8311       -56.7756      -11.53749      0.7605115
