#------------------------------------------------------------------------------
# Created by    : vladimir.rabinovich
# Created on    : 09/19/2023 17:20:54
#------------------------------------------------------------------------------
~Version Information Section
VERS.           2.0     :   CWLS log ASCII Standard - VERSION 2.0
WRAP.           NO      :   One line per depth step
~Well Information Section
#MNEM       .UNIT                                         VALUE :DESCRIPTION
#------------------------------------------------------------------------------
STRT        .FT                                            2835 :START DEPTH
STOP        .FT                                            6351 :STOP DEPTH
STEP        .FT                                             0.5 :STEP      
NULL        .                                           -999.25 :NULL      
COMP        .                                   PENNZOIL CO INC :COMPANY   
WELL        .                                     ST TR 00659-L :WELL      
FLD         .                                           WILDCAT :FIELD     
LOC         .                                                   :LOCATION  
CNTY        .                      MATAGORDA ISLAND LARGE BLOCK :LOCATION  
STAT        .                                             TEXAS :STATE     
CTRY        .                                     UNITED STATES :COUNTRY   
SRVC        .                                                   :SERVICE COMPANY
DATE        .                             9/13/2023 11:19:13 AM :LOG DATE  
API         .                                    42703300020000 :API NUMBER
UWI         .                                    42703300020000 :UNIQUE WELL ID
XCOORD      .                                  437819.375414617 :SURFACE X 
YCOORD      .                                  10187782.3810297 :SURFACE Y 
LAT         .                                        28.0235144 :LATITUDE  
LON         .                                       -96.7273206 :LONGITUDE 
ELEV        .FT                                              73 :ELEVATION VALUE
ELEV_TYPE   .                                                KB :ELEVATION REFERENCE TYPE
~Curve Information Section
#MNEM       .UNIT                                      API CODE :CURVE DESCRIPTION
#------------------------------------------------------------------------------
DEPT        .FT                                                 :DEPTH     
ASN         .OHMM                                               :          
CILD        .MMHO                                               :          
ILD         .OHMM                                               :          
SP          .MV                                                 :          
SP_NORM     .MV                                                 :SP Normalized
VSH_SP      .V/V                                                :Volume of Shale from SP
~A        DEPTH            ASN           CILD            ILD             SP        SP_NORM         VSH_SP
# ...
      5153.0000         0.6236       1948.107         0.5568       -83.2073      -35.01453      0.2269426
      5153.5000         0.6376       1974.865         0.5465       -82.7507      -34.55793      0.2373198
      5154.0000         0.6429       2022.189         0.5361       -81.8209      -33.62813      0.2584516
      5154.5000         0.6481       2051.527         0.5258       -82.9097      -34.71693      0.2337062
      5155.0000         0.6532       2068.078         0.5155       -86.5829      -38.39013      0.1502243
      5155.5000         0.6583       2080.945         0.5056        -88.101      -39.90823      0.1157221
      5156.0000         0.6641       2097.441         0.4975       -90.1096      -41.91682     0.07007217
      5156.5000         0.6703       2130.289         0.4894       -91.9556      -43.76283     0.02811761
      5157.0000         0.6765       2204.672         0.4812       -93.1958      -45.00303              0
      5157.5000           0.69       2264.574         0.4731       -94.0837      -45.89093              0
      5158.0000         0.6695       2291.184          0.465       -94.5542      -46.36143              0
      5158.5000         0.6365       2327.398         0.4569       -94.4454      -46.25262              0
      5159.0000         0.6036       2445.688          0.445       -93.5337      -45.34093              0
      5159.5000         0.5783       2598.742         0.4323       -92.4061      -44.21333     0.01787897
      5160.0000         0.5715       2694.039         0.4268       -91.4268      -43.23403     0.04013564
      5160.5000         0.5649       2720.422         0.4256        -90.502      -42.30923     0.06115393
      5161.0000         0.5586       2615.914         0.4244        -89.181      -40.98823     0.09117664
      5161.5000         0.5547       2535.141         0.4356       -87.6241      -39.43133      0.1265607
      5162.0000         0.5537       2465.453         0.4616       -86.3677      -38.17493      0.1551153
      5162.5000         0.5798       2370.406         0.4876       -85.6417      -37.44893      0.1716153
      5163.0000          0.626       2158.945          0.514       -87.3387      -39.14593      0.1330471
      5163.5000         0.6667       2069.836         0.5405       -89.0345      -40.84173     0.09450617
      5164.0000         0.7028       1866.213          0.567       -91.8479      -43.65513     0.03056526
      5164.5000         0.7432       1777.455         0.5914       -93.2784      -45.08562              0
      5165.0000         0.7913        1729.98         0.6137       -94.9779      -46.78513              0
      5165.5000         0.8246       1690.994         0.6361       -94.4799      -46.28712              0
      5166.0000         0.8383       1646.314         0.6584       -93.7515      -45.55873              0
      5166.5000         0.8286       1613.742         0.6707       -93.0231      -44.83033    0.003856139
      5167.0000         0.8158       1595.104           0.68       -92.3783      -44.18553     0.01851065
      5167.5000         0.8045       1586.961         0.6855       -91.9906      -43.79783     0.02732208
      5168.0000          0.817       1584.789         0.6755       -91.6033      -43.41053     0.03612432
      5168.5000         0.8294       1584.322          0.655       -91.2156      -43.02283     0.04493575
      5169.0000         0.8434       1673.922         0.6277        -90.512      -42.31923     0.06092661
      5169.5000          0.883       1752.645         0.6018       -89.6835      -41.49073     0.07975613
      5170.0000         0.8732       1895.166         0.5778       -90.3693      -42.17653     0.06416979
      5170.5000         0.7659       1961.012         0.5538       -91.0977      -42.90493     0.04761523
      5171.0000         0.7203       1990.877         0.5301       -91.8254      -43.63263      0.0310766
      5171.5000         0.6841       2227.883         0.5069       -92.2324      -44.03963     0.02182666
      5172.0000          0.652       2311.301         0.4841       -92.5247      -44.33192     0.01518354
      5172.5000         0.6353       2355.082         0.4613       -92.8169      -44.62413    0.008542494
      5173.0000         0.6254       2396.516         0.4427       -92.3591      -44.16633     0.01894708
      5173.5000         0.6157        2300.27         0.4395       -91.6365      -43.44373     0.03536987
      5174.0000         0.6336       2237.121         0.4665       -90.9131      -42.72033      0.0518107
      5174.5000         0.6619           2155         0.4946       -90.1903      -41.99753       0.068238
      5175.0000         0.6902        2104.98          0.524       -89.6046      -41.41183     0.08154938
      5175.5000         0.7177       2057.434         0.5425       -89.0415      -40.84872     0.09434717
      5176.0000         0.7056       2038.039         0.5358       -88.4789      -40.28613      0.1071335
      5176.5000         0.6795       2053.539          0.521       -88.6199      -40.42713      0.1039288
      5177.0000         0.6441       2069.824         0.4983       -88.8528      -40.66003     0.09863576
      5177.5000         0.6224       2086.125         0.4756       -89.3134      -41.12063     0.08816754
      5178.0000         0.6099        2207.02         0.4544       -89.7739      -41.58113     0.07770157
      5178.5000         0.5974       2305.309         0.4344       -90.2345      -42.04173     0.06723352
      5179.0000         0.5834       2659.195         0.4144       -90.6949      -42.50213      0.0567698
      5179.5000          0.569       2683.379         0.3944       -91.1605      -42.96773     0.04618801
      5180.0000         0.5537       2704.121         0.3744       -91.6281      -43.43533     0.03556078
      5180.5000         0.5379       2717.152         0.3752       -92.0955      -43.90273     0.02493806
      5181.0000         0.5323       2680.961          0.383       -92.5453      -44.35253     0.01471519
      5181.5000         0.5432        2668.73         0.3908        -92.955      -44.76223    0.005403866
      5182.0000          0.554       2691.691         0.3986       -93.3641      -45.17133              0
      5182.5000         0.5647       2670.426         0.4063       -93.7737      -45.58092              0
      5183.0000         0.5717       2626.969         0.4147       -94.1816      -45.98883              0
      5183.5000         0.5787       2584.961         0.4235       -94.5894      -46.39663              0
      5184.0000          0.575       2531.949         0.4323       -94.9973      -46.80453              0
      5184.5000         0.5695       2465.652         0.4411        -95.405      -47.21223              0
      5185.0000          0.564       2420.078           0.45       -95.9767      -47.78393              0
      5185.5000         0.5629        2356.68         0.4611       -96.5704      -48.37762              0
      5186.0000          0.564       2293.281         0.4722       -97.2944      -49.10163              0
      5186.5000         0.5723       2237.219         0.4833       -96.8326      -48.63983              0
      5187.0000          0.588       2171.023         0.4946       -95.7733      -47.58053              0
      5187.5000         0.6037       2137.543         0.5077       -95.6295      -47.43673              0
      5188.0000         0.6357       2118.695         0.5208       -95.1426      -46.94983              0
      5188.5000         0.6465       2097.043         0.5339       -94.3566      -46.16383              0
      5189.0000         0.6248       2076.453         0.5412       -93.5701      -45.37733              0
      5189.5000         0.6037        2051.59         0.5463       -92.3549      -44.16212     0.01904262
      5190.0000         0.5829       2012.504         0.5514       -90.8805      -42.68773     0.05255162
      5190.5000         0.5611       1968.275         0.5522        -89.375      -41.18223     0.08676755
