#------------------------------------------------------------------------------
# Created by    : vladimir.rabinovich
# Created on    : 09/19/2023 17:22:51
#------------------------------------------------------------------------------
~Version Information Section
VERS.           2.0     :   CWLS log ASCII Standard - VERSION 2.0
WRAP.           NO      :   One line per depth step
~Well Information Section
#MNEM       .UNIT                                         VALUE :DESCRIPTION
#------------------------------------------------------------------------------
STRT        .FT                                             970 :START DEPTH
STOP        .FT                                           10993 :STOP DEPTH
STEP        .FT                                             0.5 :STEP      
NULL        .                                           -999.25 :NULL      
COMP        .                               AMOCO PRODUCTION CO :COMPANY   
WELL        .                                     ST TR 00558-L :WELL      
FLD         .                                           WILDCAT :FIELD     
LOC         .                                                   :LOCATION  
CNTY        .                      MATAGORDA ISLAND LARGE BLOCK :LOCATION  
STAT        .                                             TEXAS :STATE     
CTRY        .                                     UNITED STATES :COUNTRY   
SRVC        .                                                   :SERVICE COMPANY
DATE        .                             9/13/2023 11:19:13 AM :LOG DATE  
API         .                                    42703301770000 :API NUMBER
UWI         .                                    42703301770000 :UNIQUE WELL ID
XCOORD      .                                   593347.98828382 :SURFACE X 
YCOORD      .                                   10274817.073936 :SURFACE Y 
LAT         .                                        28.2748406 :LATITUDE  
LON         .                                       -96.2531821 :LONGITUDE 
ELEV        .FT                                              93 :ELEVATION VALUE
ELEV_TYPE   .                                                KB :ELEVATION REFERENCE TYPE
~Curve Information Section
#MNEM       .UNIT                                      API CODE :CURVE DESCRIPTION
#------------------------------------------------------------------------------
DEPT        .FT                                                 :DEPTH     
GR          .GAPI                                               :          
GR_NORM     .GAPI                                               :GammaRay Normalized
ILD         .OHMM                                               :          
SP          .MV                                                 :          
SP_NORM     .MV                                                 :SP Normalized
VSH_GR      .V/V                                                :Volume of Shale from GR
VSH_SP      .V/V                                                :Volume of Shale from SP
~A        DEPTH             GR        GR_NORM            ILD             SP        SP_NORM         VSH_GR         VSH_SP
# ...
      8306.5000         53.838       77.81573         0.8158       -80.2568     -0.7387238      0.9535263              1
      8307.0000        53.2089       77.76164         0.8008       -80.0737     -0.5556259      0.9523754              1
      8307.5000        52.6082       77.05301         0.7842       -79.8976     -0.3795242      0.9372981              1
      8308.0000        54.5052       79.24294         0.7678       -79.7673     -0.2492294      0.9838924              1
      8308.5000        57.3834       82.57156         0.7518       -79.8137     -0.2956238              1              1
      8309.0000        60.3806       86.03828         0.7344       -80.1765     -0.6584244              1              1
      8309.5000        62.8925        88.9418         0.7154       -80.6261      -1.108025              1              1
      8310.0000         64.843       91.19383         0.6968       -81.0543      -1.536224              1              1
      8310.5000        65.9229       92.43552         0.6828         -81.29      -1.771927              1              1
      8311.0000        65.2272       91.61667         0.6706       -81.3751      -1.857025              1              1
      8311.5000        64.2839       90.51044         0.6707       -81.3315      -1.813423              1              1
      8312.0000        62.8044       88.78197         0.6731       -81.2804      -1.762329              1              1
      8312.5000        61.3249        87.0535         0.6803       -81.1752      -1.657127              1              1
      8313.0000         59.843       85.32225         0.6877       -81.0698      -1.551727              1              1
      8313.5000        58.4062       83.64333         0.6962       -81.0881      -1.570023              1              1
      8314.0000        56.9719       81.96733          0.705        -81.006      -1.487923              1              1
      8314.5000        55.6185       80.38519         0.7256       -80.9242      -1.406128              1              1
      8315.0000        54.5742       79.16177          0.749       -80.8665      -1.348427      0.9821654              1
      8315.5000        56.3439       81.20397         0.7677       -80.8497      -1.331627              1              1
      8316.0000        57.8353       82.92323         0.7737        -80.833      -1.314926              1              1
      8316.5000        57.7713       82.83743         0.7722       -79.9537     -0.4356232              1              1
      8317.0000        57.7524       82.80398         0.7629       -79.7676      -0.249527              1              1
      8317.5000         57.816       82.86627         0.7524       -79.9125     -0.3944244              1              1
      8318.0000         57.785       82.81878         0.7386       -79.8442     -0.3261261              1              1
      8318.5000        57.7081       82.71802         0.7251       -79.2114      0.3066711              1              1
      8319.0000         57.725        82.7261         0.7131       -77.3328       2.185272              1              1
      8319.5000        58.2921        83.3727         0.7015        -78.983      0.5350723              1              1
      8320.0000         59.862       85.18305         0.6905       -79.9883     -0.4702225              1              1
      8320.5000        61.6698       87.26947         0.6798       -80.2782     -0.7601242              1              1
      8321.0000        62.4881       88.20759         0.6657       -80.5681      -1.050026              1              1
      8321.5000        59.9476       85.24783         0.6938       -80.8585      -1.340424              1              1
      8322.0000        58.3765       83.41306         0.7236       -81.1484      -1.630325              1              1
      8322.5000        58.3673       83.39088          0.753       -80.9965      -1.478424              1              1
      8323.0000        58.2207       83.20923         0.7762       -80.7664      -1.248329              1              1
      8323.5000        56.9457       81.71808         0.7882       -80.4272     -0.9091263              1              1
      8324.0000        54.9096       79.34368         0.8003       -79.9464     -0.4283295      0.9860358              1
      8324.5000        53.9343       78.20033         0.7908       -79.4666     0.05147552      0.9617092              1
      8325.0000        52.8497       76.93014         0.7807        -79.075      0.4430771      0.9346838              1
      8325.5000        51.2821       75.09944          0.754       -78.7271      0.7909775      0.8957328              1
      8326.0000        49.3102       72.79954         0.7282       -78.4452       1.072876      0.8467987              1
      8326.5000        46.8458        69.9281         0.7019       -78.3931       1.124977      0.7857043              1
      8327.0000         44.636       67.35213         0.6752       -78.3994       1.118675      0.7308963              1
      8327.5000        42.5475       64.91692          0.651       -78.3788       1.139275      0.6790833              1
      8328.0000        40.5281       62.56189         0.6303       -78.3558       1.162277      0.6289764              1
      8328.5000        37.7925       59.37573         0.6116        -78.246       1.272072      0.5611858              1
      8329.0000        35.8301       57.08686         0.6087         -78.13       1.388077      0.5124864              1
      8329.5000        34.8727       55.96428         0.6217       -77.9503       1.567772      0.4886018              1
      8330.0000         34.321       55.31252         0.6356       -77.7706       1.747475      0.4747345              1
      8330.5000        34.4495       55.45012         0.6479       -77.7582       1.759872      0.4776622              1
      8331.0000         34.821       55.86973         0.6586       -77.7644       1.753677        0.48659              1
      8331.5000        35.3265       56.44485         0.6694       -77.8608       1.657272      0.4988265              1
      8332.0000        36.1299       57.36567         0.6815       -77.9802       1.537872      0.5184184              1
      8332.5000        36.0609       57.27407         0.6955       -78.0668       1.451271      0.5164697              1
      8333.0000        35.0488       56.08802         0.7098       -78.1184       1.399673      0.4912346              1
      8333.5000        34.0152       54.87702         0.7161        -78.042       1.476074      0.4654686              1
      8334.0000        32.6855        53.3224         0.7205       -77.9584       1.559677      0.4323914              1
      8334.5000        31.4106       51.83136          0.719       -77.8101       1.707977      0.4006672              1
      8335.0000        31.9791       52.47958         0.7133       -77.6138       1.904274      0.4144592              1
      8335.5000         33.373       54.08568         0.7044       -77.2766        2.24147      0.4486314              1
      8336.0000        34.5648       55.45724         0.6924       -77.0659       2.452171      0.4778136              1
      8336.5000        34.5606       55.44084         0.6878        -76.943       2.575073      0.4774647              1
      8337.0000        34.3958       55.23808         0.6876        -76.839       2.679077      0.4731506              1
      8337.5000        34.0574       54.83385         0.6805       -76.7388       2.779274      0.4645499              1
      8338.0000        34.8013       55.68562         0.6706       -76.7841       2.733971      0.4826728              1
      8338.5000        36.4081       57.53878         0.6456        -76.899       2.619072      0.5221017              1
      8339.0000        38.0388       59.41968         0.6287       -77.0161       2.501976      0.5621209              1
      8339.5000        38.1547       59.54267         0.6306       -77.1631       2.354973      0.5647377              1
