#------------------------------------------------------------------------------
# Created by    : vladimir.rabinovich
# Created on    : 09/19/2023 17:20:46
#------------------------------------------------------------------------------
~Version Information Section
VERS.           2.0     :   CWLS log ASCII Standard - VERSION 2.0
WRAP.           NO      :   One line per depth step
~Well Information Section
#MNEM       .UNIT                                         VALUE :DESCRIPTION
#------------------------------------------------------------------------------
STRT        .FT                                            1000 :START DEPTH
STOP        .FT                                            6719 :STOP DEPTH
STEP        .FT                                             0.5 :STEP      
NULL        .                                           -999.25 :NULL      
COMP        .                                 CALIFORNIA CO THE :COMPANY   
WELL        .                                     ST TR 00695-L :WELL      
FLD         .                                           WILDCAT :FIELD     
LOC         .                                                   :LOCATION  
CNTY        .                      MATAGORDA ISLAND LARGE BLOCK :LOCATION  
STAT        .                                             TEXAS :STATE     
CTRY        .                                     UNITED STATES :COUNTRY   
SRVC        .                                                   :SERVICE COMPANY
DATE        .                             9/13/2023 11:12:01 AM :LOG DATE  
API         .                                    42703000270000 :API NUMBER
UWI         .                                    42703000270000 :UNIQUE WELL ID
XCOORD      .                                   404842.11633791 :SURFACE X 
YCOORD      .                                  10151340.1845366 :SURFACE Y 
LAT         .                                        27.9206537 :LATITUDE  
LON         .                                       -96.8258101 :LONGITUDE 
ELEV        .FT                                              11 :ELEVATION VALUE
ELEV_TYPE   .                                                KB :ELEVATION REFERENCE TYPE
~Curve Information Section
#MNEM       .UNIT                                      API CODE :CURVE DESCRIPTION
#------------------------------------------------------------------------------
DEPT        .FT                                                 :DEPTH     
ASN         .OHMM                                               :          
CILD        .MMHO                                               :          
ILD         .OHMM                                               :          
SP          .MV                                                 :          
SP_NORM     .MV                                                 :SP Normalized
VSH_SP      .V/V                                                :Volume of Shale from SP
~A        DEPTH            ASN           CILD            ILD             SP        SP_NORM         VSH_SP
# ...
      2520.0000         0.5645       3247.742         0.3175       -90.9817       -45.6987      0.2054782
      2520.5000         0.5686       3212.598         0.3131       -91.0997       -45.8167      0.2033327
      2521.0000         0.5881       3178.438         0.3086       -90.3015       -45.0185      0.2178454
      2521.5000         0.6126        3144.27         0.3042       -89.5059       -44.2229      0.2323109
      2522.0000         0.6372       3100.438         0.2998       -89.4718       -44.1888      0.2329309
      2522.5000         0.6668       3131.734         0.2953       -89.4742       -44.1912      0.2328873
      2523.0000          0.701       3144.375         0.2934       -91.6525       -46.3695      0.1932818
      2523.5000         0.7312       3133.996          0.296       -93.6466       -48.3636      0.1570254
      2524.0000         0.7522       3158.578         0.2987       -94.0067       -48.7237      0.1504782
      2524.5000         0.7733       3183.152         0.3014       -94.4117       -49.1287      0.1431145
      2525.0000         0.7624       3208.211         0.3041       -94.8323       -49.5493      0.1354672
      2525.5000         0.7453       3233.305         0.3067       -95.2527       -49.9697      0.1278236
      2526.0000         0.7139       3258.391         0.3094       -96.0444       -50.7614      0.1134291
      2526.5000         0.6906       3280.738         0.3121       -97.2684       -51.9854     0.09117453
      2527.0000         0.6766        3301.16         0.3148       -99.1105       -53.8275     0.05768183
      2527.5000         0.6627       3321.582         0.3173       -99.4072       -54.1242     0.05228729
      2528.0000         0.6487       3268.652         0.3165       -99.0776       -53.7946     0.05827997
      2528.5000         0.6429       3164.668         0.3157        -98.748        -53.465     0.06427272
      2529.0000         0.6382        3060.68          0.315       -98.4185       -53.1355      0.0702636
      2529.5000         0.6335       2956.746         0.3142       -98.4901       -53.2071     0.06896182
      2530.0000         0.6441       2892.031         0.3135       -98.4865       -53.2035      0.0690273
      2530.5000         0.6795        2842.25         0.3127       -98.0035       -52.7205     0.07780907
      2531.0000         0.7087       2817.102          0.312       -97.5209       -52.2379     0.08658364
      2531.5000         0.7056       2870.809         0.3112       -97.1151       -51.8321     0.09396182
      2532.0000         0.6908       2935.723         0.3087       -97.8086       -52.5256     0.08135272
      2532.5000         0.6759       2998.688         0.3061       -98.5022       -53.2192     0.06874181
      2533.0000         0.6611       3028.785         0.3035       -99.1958       -53.9128     0.05613091
      2533.5000         0.6463       3058.895         0.3009       -99.4877       -54.2047     0.05082363
      2534.0000         0.6382        3056.18         0.2983       -99.3031       -54.0201     0.05418001
      2534.5000         0.6314       3019.574         0.2957       -99.1185       -53.8355     0.05753639
      2535.0000         0.6247       2982.965         0.2931        -98.934        -53.651     0.06089089
      2535.5000         0.6252       2948.133         0.2905       -98.7494       -53.4664     0.06424727
      2536.0000         0.6262       3160.516         0.2871       -97.9161       -52.6331     0.07939821
      2536.5000         0.6273       3268.227         0.2816       -96.9635       -51.6805     0.09671818
      2537.0000         0.6283       3343.742         0.2762       -96.0106       -50.7276      0.1140436
      2537.5000         0.6294       3426.129         0.2708       -95.4658       -50.1828      0.1239491
      2538.0000         0.6288       3513.668         0.2653        -96.115        -50.832      0.1121454
      2538.5000          0.627       3564.859         0.2599       -96.8607       -51.5777     0.09858724
      2539.0000         0.5931       3614.551         0.2545       -97.6068       -52.3238     0.08502183
      2539.5000          0.553       3646.109          0.249       -98.3544       -53.0714      0.0714291
      2540.0000         0.5289       3674.742         0.2436        -97.902        -52.619     0.07965455
      2540.5000         0.5285       3690.023         0.2382       -94.4142       -49.1312      0.1430691
      2541.0000         0.5283       3686.531         0.2329       -90.9963       -45.7133      0.2052127
      2541.5000         0.5303       3647.098         0.2311       -88.8357       -43.5527      0.2444964
      2542.0000         0.5396       3607.668         0.2292        -86.675        -41.392      0.2837819
      2542.5000          0.549       3570.285         0.2274       -84.1132       -38.8302        0.33036
      2543.0000         0.5583       3539.488         0.2255       -81.8888       -36.6058      0.3708036
      2543.5000         0.5746       3550.348         0.2237       -83.2072       -37.9242      0.3468328
      2544.0000         0.5756       3575.883         0.2218       -84.5256       -39.2426      0.3228618
      2544.5000         0.5741       3601.418           0.22        -85.236        -39.953      0.3099455
      2545.0000         0.5726       3617.672         0.2253       -85.6992       -40.4162      0.3015237
      2545.5000         0.5711       3631.258         0.2328       -86.0184       -40.7354        0.29572
      2546.0000         0.5696       3644.836         0.2404       -86.2983       -41.0153      0.2906309
      2546.5000          0.568           3643         0.2479       -86.5785       -41.2955      0.2855363
      2547.0000         0.5622       3509.867         0.2555       -86.9066       -41.6236      0.2795709
      2547.5000         0.5564       3367.188         0.2633       -87.2427       -41.9597        0.27346
      2548.0000         0.5505       3167.715         0.3306       -87.5787       -42.2957      0.2673509
      2548.5000         0.5764       2979.543         0.3979       -81.5626       -36.2796      0.3767346
      2549.0000         0.6049       2463.414         0.4651       -76.8813       -31.5983      0.4618491
      2549.5000         0.6333       2103.414         0.4907       -72.2776       -26.9946      0.5455527
      2550.0000         0.6605       2535.133         0.4724       -65.6719       -20.3889      0.6656563
      2550.5000         0.6876       2413.426         0.4542       -62.8414       -17.5584        0.71712
      2551.0000         0.7148       2281.984         0.4359       -60.9918       -15.7088      0.7507491
      2551.5000         0.7388       2168.715         0.4176       -66.0742       -20.7912      0.6583418
      2552.0000         0.7476       2055.496         0.3993       -72.8925       -27.6095      0.5343727
      2552.5000           0.73       2011.135          0.381       -77.2887       -32.0057      0.4544418
      2553.0000         0.7096       2138.363          0.369       -79.3857       -34.1027      0.4163146
      2553.5000         0.6923       2636.969         0.3601       -81.4827       -36.1997      0.3781873
      2554.0000         0.6758       2866.902         0.3512       -83.0653       -37.7823      0.3494127
      2554.5000         0.6728       2929.641         0.3423        -84.575        -39.292      0.3219636
      2555.0000         0.6698       2995.848         0.3334       -85.9664       -40.6834      0.2966655
      2555.5000         0.6667       3049.188         0.3245        -86.745        -41.462      0.2825091
      2556.0000          0.664       3104.227         0.3157       -87.5236       -42.2406      0.2683527
      2556.5000         0.6631       3143.863         0.3068       -88.3021       -43.0191      0.2541982
      2557.0000         0.6623       3016.563         0.2979       -88.8691       -43.5861      0.2438891
      2557.5000          0.688       2969.539         0.3028       -89.4249       -44.1419      0.2337836
