#------------------------------------------------------------------------------
# Created by    : vladimir.rabinovich
# Created on    : 09/19/2023 17:20:46
#------------------------------------------------------------------------------
~Version Information Section
VERS.           2.0     :   CWLS log ASCII Standard - VERSION 2.0
WRAP.           NO      :   One line per depth step
~Well Information Section
#MNEM       .UNIT                                         VALUE :DESCRIPTION
#------------------------------------------------------------------------------
STRT        .FT                                            1000 :START DEPTH
STOP        .FT                                            6719 :STOP DEPTH
STEP        .FT                                             0.5 :STEP      
NULL        .                                           -999.25 :NULL      
COMP        .                                 CALIFORNIA CO THE :COMPANY   
WELL        .                                     ST TR 00695-L :WELL      
FLD         .                                           WILDCAT :FIELD     
LOC         .                                                   :LOCATION  
CNTY        .                      MATAGORDA ISLAND LARGE BLOCK :LOCATION  
STAT        .                                             TEXAS :STATE     
CTRY        .                                     UNITED STATES :COUNTRY   
SRVC        .                                                   :SERVICE COMPANY
DATE        .                             9/13/2023 11:12:01 AM :LOG DATE  
API         .                                    42703000270000 :API NUMBER
UWI         .                                    42703000270000 :UNIQUE WELL ID
XCOORD      .                                   404842.11633791 :SURFACE X 
YCOORD      .                                  10151340.1845366 :SURFACE Y 
LAT         .                                        27.9206537 :LATITUDE  
LON         .                                       -96.8258101 :LONGITUDE 
ELEV        .FT                                              11 :ELEVATION VALUE
ELEV_TYPE   .                                                KB :ELEVATION REFERENCE TYPE
~Curve Information Section
#MNEM       .UNIT                                      API CODE :CURVE DESCRIPTION
#------------------------------------------------------------------------------
DEPT        .FT                                                 :DEPTH     
ASN         .OHMM                                               :          
CILD        .MMHO                                               :          
ILD         .OHMM                                               :          
SP          .MV                                                 :          
SP_NORM     .MV                                                 :SP Normalized
VSH_SP      .V/V                                                :Volume of Shale from SP
~A        DEPTH            ASN           CILD            ILD             SP        SP_NORM         VSH_SP
# ...
      4040.0000         1.3324       901.8799         0.9729       -51.1107        -5.8277      0.9482743
      4040.5000         1.3152       922.0264         0.9754       -51.7571        -6.4741      0.9395392
      4041.0000         1.2996       942.1738         0.9779       -52.4922        -7.2092      0.9296054
      4041.5000         1.2859       960.3213         0.9772       -53.2302        -7.9472      0.9196324
      4042.0000         1.2765       972.3574         0.9747       -53.9681        -8.6851      0.9096608
      4042.5000         1.2701       984.3867         0.9722        -54.706         -9.423      0.8996892
      4043.0000         1.2637        996.416         0.9697       -55.4433       -10.1603      0.8897257
      4043.5000         1.2573       991.4795         0.9671       -56.2387       -10.9557       0.878977
      4044.0000          1.251       967.0332          0.959       -57.0379       -11.7549      0.8681771
      4044.5000         1.2409       942.5859         0.9487       -57.8376       -12.5546      0.8573703
      4045.0000         1.2307       918.1523         0.9384       -58.6368       -13.3538      0.8465703
      4045.5000          1.219       901.0479          0.928       -59.4285       -14.1455      0.8358716
      4046.0000         1.1914       907.0537         0.9177       -60.2001       -14.9171      0.8254446
      4046.5000         1.1638       950.3477         0.8974       -60.9712       -15.6882      0.8150243
      4047.0000         1.1379        1005.54         0.8714       -61.7429       -16.4599      0.8045959
      4047.5000         1.1195       1060.682         0.8454       -62.0005       -16.7175      0.8011149
      4048.0000         1.1011       1126.322         0.8194       -62.2148       -16.9318      0.7982189
      4048.5000         1.0835        1212.66         0.7956       -62.4291       -17.1461       0.795323
      4049.0000         1.0686       1284.051         0.7811       -62.1256       -16.8426      0.7994244
      4049.5000         1.0537       1342.393         0.7666       -61.7067       -16.4237      0.8050851
      4050.0000         1.0389       1377.025          0.752       -61.2877       -16.0047      0.8107473
      4050.5000          1.024       1393.484         0.7402       -60.8687       -15.5857      0.8164095
      4051.0000         1.0092       1400.734         0.7534       -60.4654       -15.1824      0.8218595
      4051.5000         0.9981       1407.977         0.7666        -60.162        -14.879      0.8259594
      4052.0000         0.9903       1415.219         0.7799       -59.8587       -14.5757      0.8300581
      4052.5000          0.984       1422.469         0.7931       -59.9933       -14.7103      0.8282392
      4053.0000         1.0072       1429.711         0.8064       -61.2955       -16.0125      0.8106419
      4053.5000         1.0304       1436.959         0.8196       -63.2975       -18.0145      0.7835878
      4054.0000         1.0511        1422.18         0.8329       -64.9907       -19.7077      0.7607067
      4054.5000         1.0715       1390.484         0.8483       -66.0636       -20.7806      0.7462081
      4055.0000          1.092       1347.666         0.8644       -67.1365       -21.8535      0.7317095
      4055.5000         1.1124        1283.15         0.8805       -68.2092       -22.9262      0.7172135
      4056.0000         1.1329        1214.01         0.8966       -69.2821       -23.9991      0.7027149
      4056.5000         1.1491       1156.719         0.9127       -69.3059       -24.0229      0.7023932
      4057.0000         1.1648       1099.727         0.9169       -64.0172       -18.7342      0.7738622
      4057.5000         1.1805       1054.332         0.9133       -65.9067       -20.6237      0.7483284
      4058.0000          1.201       1021.237         0.9097       -67.7963       -22.5133      0.7227932
      4058.5000         1.1935       988.1426         0.9061       -69.7283       -24.4453      0.6966851
      4059.0000         1.1755        1006.14         0.9025       -71.6902       -26.4072       0.670173
      4059.5000         1.1527       1037.484         0.8989       -73.6534       -28.3704      0.6436433
      4060.0000         1.1256        1068.83          0.872       -74.4182       -29.1352      0.6333081
      4060.5000         1.0984       1108.324         0.8359       -75.1611       -29.8781      0.6232689
      4061.0000         1.0712       1172.217         0.7998       -75.7876       -30.5046      0.6148027
      4061.5000          1.044       1236.107         0.7637       -76.2144       -30.9314      0.6090351
      4062.0000         1.0238         1286.4         0.7428       -76.6411       -31.3581      0.6032689
      4062.5000         1.0037       1330.494         0.7459       -77.0681       -31.7851      0.5974987
      4063.0000         0.9839       1374.588         0.7702       -76.7264       -31.4434      0.6021162
      4063.5000          0.992       1418.707         0.7945       -75.7435       -30.4605      0.6153986
      4064.0000         1.0001       1424.043         0.8188       -74.8824       -29.5994      0.6270351
      4064.5000         1.0083       1399.971          0.843       -74.4967       -29.2137      0.6322473
      4065.0000         1.0164       1375.762         0.8662       -74.4283       -29.1453      0.6331716
      4065.5000         1.0288       1366.992         0.8811       -74.5907       -29.3077       0.630977
      4066.0000         1.0424       1362.023         0.8961       -74.7528       -29.4698      0.6287864
      4066.5000         1.0548       1357.055          0.911       -72.2638       -26.9808      0.6624216
      4067.0000         1.0582       1350.547          0.926       -70.1881       -24.9051      0.6904716
      4067.5000         1.0617       1335.918         0.9409       -68.1112       -22.8282      0.7185379
      4068.0000         1.0625       1291.873         0.9559        -66.431        -21.148      0.7412432
      4068.5000         1.0632       1247.805         0.9638       -65.7505       -20.4675      0.7504392
      4069.0000         1.1463       1203.387         0.9666       -65.0695       -19.7865      0.7596419
      4069.5000         1.2408       1158.842         0.9694        -64.389        -19.106      0.7688378
      4070.0000         1.3161       1114.299         0.9722       -63.8629       -18.5799      0.7759473
      4070.5000         1.3746       1079.004          0.975       -63.6432       -18.3602      0.7789162
      4071.0000         1.4638       1051.059         0.9777       -63.4232       -18.1402      0.7818892
      4071.5000         1.5521       1049.377         0.9801        -63.843         -18.56      0.7762162
      4072.0000         1.5568       1059.875         0.9769       -65.8967       -20.6137      0.7484635
      4072.5000         1.4157       1070.373         0.9736       -68.2236       -22.9406      0.7170189
      4073.0000         1.3173       1080.867         0.9704       -71.0979       -25.8149      0.6781771
      4073.5000         1.2671       1091.365         0.9672       -74.7894       -29.5064      0.6282919
      4074.0000         1.2331       1101.863          0.964       -71.8477       -26.5647      0.6680446
      4074.5000         1.2104       1112.355         0.9608       -68.5785       -23.2955       0.712223
      4075.0000         1.1877       1122.854         0.9572        -65.052        -19.769      0.7598784
      4075.5000         1.2211       1100.775         0.9521       -65.6643       -20.3813      0.7516041
      4076.0000         1.2665       1078.604          0.947       -66.4609       -21.1779      0.7408392
      4076.5000          1.312       1056.432          0.942       -67.2577       -21.9747      0.7300716
      4077.0000         1.3609        1034.26         0.9369       -68.0087       -22.7257       0.719923
      4077.5000         1.4251       1022.962         0.9318       -68.7297       -23.4467      0.7101797
