#------------------------------------------------------------------------------
# Created by    : vladimir.rabinovich
# Created on    : 09/19/2023 17:20:46
#------------------------------------------------------------------------------
~Version Information Section
VERS.           2.0     :   CWLS log ASCII Standard - VERSION 2.0
WRAP.           NO      :   One line per depth step
~Well Information Section
#MNEM       .UNIT                                         VALUE :DESCRIPTION
#------------------------------------------------------------------------------
STRT        .FT                                            1000 :START DEPTH
STOP        .FT                                            6719 :STOP DEPTH
STEP        .FT                                             0.5 :STEP      
NULL        .                                           -999.25 :NULL      
COMP        .                                 CALIFORNIA CO THE :COMPANY   
WELL        .                                     ST TR 00695-L :WELL      
FLD         .                                           WILDCAT :FIELD     
LOC         .                                                   :LOCATION  
CNTY        .                      MATAGORDA ISLAND LARGE BLOCK :LOCATION  
STAT        .                                             TEXAS :STATE     
CTRY        .                                     UNITED STATES :COUNTRY   
SRVC        .                                                   :SERVICE COMPANY
DATE        .                             9/13/2023 11:12:01 AM :LOG DATE  
API         .                                    42703000270000 :API NUMBER
UWI         .                                    42703000270000 :UNIQUE WELL ID
XCOORD      .                                   404842.11633791 :SURFACE X 
YCOORD      .                                  10151340.1845366 :SURFACE Y 
LAT         .                                        27.9206537 :LATITUDE  
LON         .                                       -96.8258101 :LONGITUDE 
ELEV        .FT                                              11 :ELEVATION VALUE
ELEV_TYPE   .                                                KB :ELEVATION REFERENCE TYPE
~Curve Information Section
#MNEM       .UNIT                                      API CODE :CURVE DESCRIPTION
#------------------------------------------------------------------------------
DEPT        .FT                                                 :DEPTH     
ASN         .OHMM                                               :          
CILD        .MMHO                                               :          
ILD         .OHMM                                               :          
SP          .MV                                                 :          
SP_NORM     .MV                                                 :SP Normalized
VSH_SP      .V/V                                                :Volume of Shale from SP
~A        DEPTH            ASN           CILD            ILD             SP        SP_NORM         VSH_SP
# ...
      5560.0000         1.7034       2471.766         0.4834       -98.0645        -55.669      0.3119359
      5560.5000         1.9109       2429.418         0.4904       -97.1309       -54.7383      0.3238679
      5561.0000         1.8788       2391.398         0.4896        -96.906       -54.5163      0.3267141
      5561.5000         1.6811        2363.98         0.4866       -96.8835       -54.4967      0.3269654
      5562.0000         1.6133       2309.887         0.4835       -96.8611       -54.4771      0.3272167
      5562.5000         1.5456       2330.859         0.4793       -95.4863       -53.1052      0.3448051
      5563.0000         1.2351       2400.824         0.4729       -92.1223       -49.7441      0.3878962
      5563.5000         0.9035       2474.965         0.4665       -88.7607       -46.3854      0.4309564
      5564.0000         0.8811       2467.516          0.469       -84.3542       -41.9818      0.4874128
      5564.5000         0.8871       2390.523         0.4812       -78.6409       -36.2714       0.560623
      5565.0000          0.893       2316.234         0.4933       -76.4314       -34.0648      0.5889128
      5565.5000         0.8997       2241.945         0.5055       -74.4556       -32.0919      0.6142064
      5566.0000         0.9072       1963.854         0.5176       -73.0454       -30.6846      0.6322487
      5566.5000         0.9146       1828.686         0.5297       -73.2859        -30.928      0.6291282
      5567.0000         0.9221       1816.275         0.5419       -73.5266       -31.1716      0.6260051
      5567.5000         0.9302       1803.852         0.5538       -73.9395       -31.5873      0.6206756
      5568.0000         0.9482       1794.559         0.5621       -74.4395       -32.0902      0.6142282
      5568.5000         0.8862       1788.953         0.5705       -77.5012       -35.1548      0.5749385
      5569.0000         0.7974        1773.58         0.5789       -83.4746       -41.1311      0.4983192
      5569.5000         0.7526       1756.783         0.5819       -77.2461       -34.9055      0.5781347
      5570.0000         0.7346       1742.561         0.5811       -71.6877         -29.35       0.649359
      5570.5000         0.7301        1728.35         0.5803       -66.1941       -23.8593      0.7197526
      5571.0000         0.7256       1758.232         0.5796       -53.8223       -11.4904      0.8783282
      5571.5000         0.7235       1806.426         0.5914       -51.7566        -9.4276      0.9047744
      5572.0000         0.7231       1845.521         0.6309       -50.9937        -8.6676      0.9145179
      5572.5000         0.7336       1843.246         0.6704       -50.2314        -7.9082      0.9242538
      5573.0000         0.7441       1807.377         0.7099       -49.8877        -7.5674      0.9286231
      5573.5000         0.7546       1730.838         0.7494       -50.2988        -7.9813      0.9233167
      5574.0000         0.7712       1647.148         0.7889        -51.083        -8.7684      0.9132257
      5574.5000         0.8989       1563.461         0.8284       -52.1453        -9.8336      0.8995692
      5575.0000         1.0258       1484.223         0.8793       -53.2063       -10.8975      0.8859295
      5575.5000         1.0611       1414.531         0.9382       -54.2673       -11.9614      0.8722897
      5576.0000         1.0715       1344.891         0.9971        -55.175        -12.872      0.8606154
      5576.5000         1.0819       1275.201         1.0505       -56.0392       -13.7391      0.8494987
      5577.0000         1.0922       1201.813         1.0946       -56.9035       -14.6063      0.8383808
      5577.5000         1.0976       1128.422         1.1388        -56.876       -14.5817      0.8386961
      5578.0000         1.1022       1039.535          1.183       -55.9824        -13.691      0.8501154
      5578.5000         1.1069        920.752         1.2272       -55.6855        -13.397      0.8538846
      5579.0000         1.1115       890.9307         1.1505       -55.8696        -13.584      0.8514872
      5579.5000         1.1162       873.7705         1.0662       -54.9377       -12.6549      0.8633987
      5580.0000         1.0918       887.8066         0.9818       -54.0173       -11.7374      0.8751615
      5580.5000         1.0642       1038.535         0.8974       -53.0964       -10.8194      0.8869308
      5581.0000         1.0423       1468.475         0.8131        -52.176        -9.9019      0.8986936
      5581.5000         1.0229       1782.029         0.7295       -51.6304        -9.3592      0.9056513
      5582.0000         1.0062       1899.213         0.6762       -53.2388       -10.9705      0.8849936
      5582.5000         0.9911       2078.211          0.623       -54.8459       -12.5805      0.8643526
      5583.0000         0.9773       2211.051         0.5697       -57.3063       -15.0438      0.8327718
      5583.5000         0.9641       2412.023         0.5165       -61.0605       -18.8009      0.7846038
      5584.0000         0.9513       2514.906         0.4632       -64.8145       -22.5578      0.7364385
      5584.5000         0.9392       2617.191         0.4137       -68.5686       -26.3148      0.6882718
      5585.0000         0.9256       2780.371         0.3672       -74.6118       -32.3609      0.6107577
      5585.5000         0.9069       2884.754         0.3608         -81.52       -39.2719      0.5221551
      5586.0000          0.891       2936.699         0.3551       -87.1135       -44.8683      0.4504064
      5586.5000         0.8805       2973.566         0.3494       -90.5464       -48.3041      0.4063577
      5587.0000           0.87       3007.363         0.3473       -92.0173       -49.7779      0.3874628
      5587.5000         0.8916       2982.465         0.3465       -93.4895        -51.253      0.3685513
      5588.0000         0.9608       2955.922         0.3457       -94.6729       -52.4393      0.3533423
      5588.5000         1.0589       2921.074          0.345       -95.4687        -53.238      0.3431026
      5589.0000         1.0836       2883.531         0.3442       -94.2854       -52.0576      0.3582359
      5589.5000         1.1079       2845.984         0.3434       -93.1008       -50.8759      0.3733859
      5590.0000         1.1475       2817.863         0.3448       -91.2825       -49.0605      0.3966602
      5590.5000         1.2084       2789.719         0.3493       -87.0186       -44.7995      0.4512885
      5591.0000         1.3045       2761.598         0.3537       -82.3423       -40.1261      0.5112039
      5591.5000         1.3841       2688.582         0.3581       -94.7297       -52.5163      0.3523551
      5592.0000         1.5413       2561.801         0.3625       -95.2451       -53.0346      0.3457103
      5592.5000         1.6217       2478.211          0.367       -95.6292       -53.4216      0.3407487
      5593.0000         1.6712       2405.773         0.3734       -95.9036       -53.6989      0.3371936
      5593.5000         1.5774       2478.012         0.3845       -96.1843       -53.9825      0.3335577
      5594.0000         1.4491       2554.402         0.3957       -96.5005       -54.3016      0.3294666
      5594.5000         1.3766       2630.492         0.3967       -96.8167       -54.6207      0.3253756
      5595.0000         1.3081       2706.082         0.3916       -97.1201        -54.927      0.3214487
      5595.5000          1.244       2781.672         0.3864       -97.4421       -55.2519      0.3172833
      5596.0000         1.0913       2818.641         0.3813       -97.9175       -55.7302      0.3111513
      5596.5000         1.1135       2821.316         0.3879       -98.3931       -56.2087      0.3050167
      5597.0000         1.2103       2737.875         0.3949       -99.9802       -57.7987      0.2846321
      5597.5000         1.3074       2644.191         0.4019      -104.2241       -62.0454      0.2301872
