#------------------------------------------------------------------------------
# Created by    : vladimir.rabinovich
# Created on    : 09/19/2023 17:22:30
#------------------------------------------------------------------------------
~Version Information Section
VERS.           2.0     :   CWLS log ASCII Standard - VERSION 2.0
WRAP.           NO      :   One line per depth step
~Well Information Section
#MNEM       .UNIT                                         VALUE :DESCRIPTION
#------------------------------------------------------------------------------
STRT        .FT                                             328 :START DEPTH
STOP        .FT                                            8026 :STOP DEPTH
STEP        .FT                                             0.5 :STEP      
NULL        .                                           -999.25 :NULL      
COMP        .                                 MESA PETROLEUM CO :COMPANY   
WELL        .                                ST TR 00565-L NW/4 :WELL      
FLD         .                                           WILDCAT :FIELD     
LOC         .                                                   :LOCATION  
CNTY        .                      MATAGORDA ISLAND LARGE BLOCK :LOCATION  
STAT        .                                             TEXAS :STATE     
CTRY        .                                     UNITED STATES :COUNTRY   
SRVC        .                                                   :SERVICE COMPANY
DATE        .                             9/13/2023 11:12:01 AM :LOG DATE  
API         .                                    42703301780000 :API NUMBER
UWI         .                                    42703301780000 :UNIQUE WELL ID
XCOORD      .                                  585273.186473096 :SURFACE X 
YCOORD      .                                  10269188.7462706 :SURFACE Y 
LAT         .                                          28.25878 :LATITUDE  
LON         .                                       -96.2777629 :LONGITUDE 
ELEV        .FT                                              82 :ELEVATION VALUE
ELEV_TYPE   .                                                KB :ELEVATION REFERENCE TYPE
~Curve Information Section
#MNEM       .UNIT                                      API CODE :CURVE DESCRIPTION
#------------------------------------------------------------------------------
DEPT        .FT                                                 :DEPTH     
CILD        .MMHO                                               :          
DT          .US/F                                               :          
ILD         .OHMM                                               :          
SFL         .OHMM                                               :          
SP          .MV                                                 :          
SP_NORM     .MV                                                 :SP Normalized
VSH_SP      .V/V                                                :Volume of Shale from SP
~A        DEPTH           CILD             DT            ILD            SFL             SP        SP_NORM         VSH_SP
# ...
      1869.0000       1513.879       148.1929         0.6943         0.7627       -67.0571      -1.695488              1
      1869.5000       1564.859        150.085         0.6762         0.7305        -67.027      -1.671318              1
      1870.0000       1618.604       122.9868         0.6585         0.7014       -67.0433      -1.693535              1
      1870.5000       1670.998        88.1877         0.6465         0.6737       -67.0597      -1.715866              1
      1871.0000       1711.115        -999.25         0.6358         0.6472       -67.4095      -2.071594      0.9978305
      1871.5000       1741.578       108.6589         0.6275         0.6269        -67.776      -2.444023      0.9865447
      1872.0000       1706.787       152.5222         0.6253         0.6128       -68.3622       -3.03614      0.9686018
      1872.5000       1633.373        151.179         0.6341         0.6045       -69.0676      -3.747467      0.9470465
      1873.0000       1569.955       150.1536         0.6553         0.6242       -69.7727      -4.458496      0.9255001
      1873.5000       1510.629       148.7483          0.694         0.6788       -70.4675      -5.159218      0.9042661
      1874.0000       1452.643       144.9583         0.7348         0.7503       -71.0746      -5.772247      0.8856895
      1874.5000       1393.688       140.1265         0.7779          0.824       -71.6249      -6.328476      0.8688341
      1875.0000       1326.201       135.0706         0.8224         0.9081       -71.9196      -6.629097      0.8597243
      1875.5000       1258.715       129.7817         0.8658         0.9667       -72.2142      -6.929626      0.8506174
      1876.0000       1197.863       126.3459         0.8988         0.9481       -72.4344      -7.155754       0.843765
      1876.5000       1155.379       124.3159         0.9159         0.9285       -72.5101      -7.237381      0.8412915
      1877.0000         1154.1       123.5791         0.9278         0.9017       -72.5857      -7.318901      0.8388212
      1877.5000       1174.432       122.8828         0.9201          0.878       -72.5649      -7.304031      0.8392718
      1878.0000       1199.117       122.0381         0.9107         0.8561       -72.4939      -7.238953      0.8412439
      1878.5000       1223.869       120.8813         0.8907         0.8428       -72.4227      -7.173676       0.843222
      1879.0000       1248.641       120.6802          0.871         0.8315       -72.2311      -6.988007      0.8488483
      1879.5000       1272.629       121.6946         0.8506         0.8231       -72.0261      -6.788933      0.8548808
      1880.0000       1292.639       123.1313         0.8306         0.8148       -71.8213      -6.590057      0.8609074
      1880.5000       1312.648       124.6746         0.8126         0.8023       -71.4105      -6.185181      0.8731763
      1881.0000       1328.807       126.4377         0.7981         0.7898       -70.9989       -5.77951      0.8854694
      1881.5000       1344.221        128.887         0.7847         0.7789       -70.5988      -5.385338       0.897414
      1882.0000       1356.553       131.5791         0.7755         0.7723       -70.2157      -5.008156      0.9088438
      1882.5000       1364.908       134.8279         0.7673         0.7657       -69.8347      -4.633087      0.9202095
      1883.0000        1368.84       137.1179         0.7669         0.7592       -69.5117      -4.316017      0.9298177
      1883.5000        1361.18       138.6799         0.7664         0.7561       -69.1888      -3.999031      0.9394233
      1884.0000        1345.33       139.3494          0.766          0.755       -68.9041      -3.720261      0.9478709
      1884.5000       1321.713       138.0791         0.7765         0.7635       -68.7684      -3.590492      0.9518033
      1885.0000       1293.648       136.2646         0.7877         0.7753       -68.6328      -3.460815      0.9557329
      1885.5000       1260.303        134.803         0.8078         0.8006       -68.6599      -3.493835      0.9547322
      1886.0000       1226.857       133.0208         0.8305         0.8218       -68.7948      -3.634666      0.9504647
      1886.5000       1193.189       131.1794         0.8559         0.8401       -68.9805      -3.826294      0.9446577
      1887.0000       1159.867       129.4778         0.8823         0.8531       -69.1666      -4.018318      0.9388388
      1887.5000       1128.742       128.4551          0.907         0.8586       -69.2306      -4.088242        0.93672
      1888.0000       1097.615       129.1174         0.9322         0.8591       -69.2942      -4.157768      0.9346131
      1888.5000       1083.455       130.8545         0.9484          0.858       -69.4954      -4.364899      0.9283364
      1889.0000       1073.346       132.4692         0.9636         0.8582       -69.7473      -4.622719      0.9205236
      1889.5000       1074.412       133.4924         0.9674         0.8656       -70.2045      -5.085846      0.9064895
      1890.0000       1075.594       133.0808         0.9711         0.8831       -70.7152      -5.602478       0.890834
      1890.5000       1083.363        126.429          0.967         0.9262       -71.2863      -6.179497      0.8733486
      1891.0000       1091.133       121.7749         0.9597         0.9657       -71.7317      -6.630821      0.8596721
      1891.5000       1102.377       120.0256           0.95         0.9195       -72.1237      -7.028755      0.8476135
      1892.0000       1121.115       121.2429         0.9377         0.8576        -71.998      -6.908981       0.851243
      1892.5000       1139.852       124.6089         0.9256         0.8121       -71.6281      -6.544998      0.8622728
      1893.0000       1163.035       126.6709         0.9086         0.8271        -70.775       -5.69783      0.8879445
      1893.5000       1187.094       127.7302         0.8747         0.8828       -69.4629      -4.391655      0.9275256
      1894.0000       1197.414       129.7361         0.8474         0.9252       -68.3096      -3.244278      0.9622946
      1894.5000       1197.857       132.2554         0.8288         0.9011       -67.3728      -2.313408      0.9905028
      1895.0000       1190.193       134.0518         0.8332         0.8584       -67.3123      -2.258835      0.9921565
      1895.5000       1178.553       135.0581         0.8375         0.8458       -67.4481      -2.400551      0.9878621
      1896.0000       1165.516       133.5613         0.8564         0.8624       -67.8966       -2.85498      0.9740915
      1896.5000        1154.08       131.2478         0.8806         0.8915       -68.7603      -3.724609      0.9477391
      1897.0000       1148.447       130.4724         0.9033         0.8935       -69.6002      -4.570435      0.9221081
      1897.5000       1142.813       128.6436         0.9267         0.8716       -70.4126      -5.388756      0.8973104
      1898.0000       1138.785       128.6235         0.9377         0.8579        -70.968      -5.950089      0.8803003
      1898.5000       1135.262       130.2549         0.9455         0.8473          -71.3      -6.288017      0.8700601
      1899.0000       1134.979       132.3345         0.9345         0.8453       -71.4198      -6.413734      0.8662505
      1899.5000       1136.168       133.8037         0.9205         0.8576       -71.2909      -6.290764      0.8699769
      1900.0000       1144.193       134.3916         0.9058          0.871       -71.0825      -6.088287      0.8761125
      1900.5000        1154.34       134.3303          0.912         0.8782       -70.7522      -5.763916      0.8859419
      1901.0000       1164.996       133.9934          0.927         0.8601       -70.2771      -5.294739      0.9001594
      1901.5000        1176.52        134.499         0.9391         0.8444       -69.7197      -4.743271      0.9168706
      1902.0000       1192.408       135.4084         0.9382         0.8306       -69.0563      -4.085793      0.9367942
