#------------------------------------------------------------------------------
# Created by    : vladimir.rabinovich
# Created on    : 09/19/2023 17:20:49
#------------------------------------------------------------------------------
~Version Information Section
VERS.           2.0     :   CWLS log ASCII Standard - VERSION 2.0
WRAP.           NO      :   One line per depth step
~Well Information Section
#MNEM       .UNIT                                         VALUE :DESCRIPTION
#------------------------------------------------------------------------------
STRT        .FT                                            2010 :START DEPTH
STOP        .FT                                            6610 :STOP DEPTH
STEP        .FT                                             0.5 :STEP      
NULL        .                                           -999.25 :NULL      
COMP        .                                      SHELL OIL CO :COMPANY   
WELL        .                                ST TR 00691-L SE/4 :WELL      
FLD         .                                           WILDCAT :FIELD     
LOC         .                                                   :LOCATION  
CNTY        .                      MATAGORDA ISLAND LARGE BLOCK :LOCATION  
STAT        .                                             TEXAS :STATE     
CTRY        .                                     UNITED STATES :COUNTRY   
SRVC        .                                                   :SERVICE COMPANY
DATE        .                             9/13/2023 11:12:05 AM :LOG DATE  
API         .                                    42703000190000 :API NUMBER
UWI         .                                    42703000190000 :UNIQUE WELL ID
XCOORD      .                                  412077.623085271 :SURFACE X 
YCOORD      .                                  10154908.2726125 :SURFACE Y 
LAT         .                                        27.9310704 :LATITUDE  
LON         .                                         -96.80379 :LONGITUDE 
ELEV        .FT                                              82 :ELEVATION VALUE
ELEV_TYPE   .                                                DF :ELEVATION REFERENCE TYPE
~Curve Information Section
#MNEM       .UNIT                                      API CODE :CURVE DESCRIPTION
#------------------------------------------------------------------------------
DEPT        .FT                                                 :DEPTH     
ASN         .OHMM                                               :          
CILD        .MMHO                                               :          
ILD         .OHMM                                               :          
SP          .MV                                                 :          
SP_NORM     .MV                                                 :SP Normalized
VSH_SP      .V/V                                                :Volume of Shale from SP
~A        DEPTH            ASN           CILD            ILD             SP        SP_NORM         VSH_SP
# ...
      5354.0000         1.1192       887.1816         0.9675       -56.0639        -4.9132       0.938017
      5354.5000         1.1345         869.21         0.9588       -55.6462        -4.4992      0.9468256
      5355.0000         1.1109       873.7793         0.9501        -55.381        -4.2378      0.9523872
      5355.5000         1.0851       904.1621         0.9415       -55.1158        -3.9763      0.9579511
      5356.0000          1.061       947.4688         0.9328       -54.8509        -3.7151      0.9635085
      5356.5000         1.0432       971.6914         0.9353       -54.5857        -3.4537      0.9690702
      5357.0000         1.0253       991.6807         0.9491       -54.3205        -3.1922      0.9746341
      5357.5000         1.0497       985.5156         0.9629       -54.0553        -2.9307      0.9801978
      5358.0000         1.0711       963.4219         0.9768       -53.9048         -2.784      0.9833192
      5358.5000         1.0926        941.915         0.9906       -53.9639        -2.8468       0.981983
      5359.0000          1.114       920.7021         1.0044        -54.023        -2.9097      0.9806447
      5359.5000         1.1328       899.4883         1.0182        -54.082        -2.9724      0.9793106
      5360.0000         1.1502       878.2754         1.0266       -54.1411        -3.0352      0.9779745
      5360.5000         1.1157       914.8291          1.019       -54.2001         -3.098      0.9766383
      5361.0000         1.0645       975.9482         0.9861       -54.2592        -3.1608      0.9753021
      5361.5000         1.0021       1037.066         0.9408       -54.3182        -3.2235      0.9739681
      5362.0000         0.9391       1098.186         0.8955       -54.5543        -3.4634      0.9688638
      5362.5000          0.864       1159.354         0.8502        -54.835        -3.7478      0.9628128
      5363.0000          0.818       1220.473          0.805       -55.1155         -4.032      0.9567659
      5363.5000         0.7838       1281.592         0.7688       -55.3961        -4.3164      0.9507149
      5364.0000         0.7556       1342.711         0.7429        -55.677         -4.601      0.9446596
      5364.5000         0.7337        1403.83         0.7169       -55.9576        -4.8853      0.9386106
      5365.0000         0.7181       1455.064         0.7241       -56.0888        -5.0203      0.9357383
      5365.5000         0.7376       1399.574         0.7433       -55.8878         -4.823      0.9399362
      5366.0000         0.7573       1344.131         0.7624       -55.6868        -4.6257      0.9441341
      5366.5000          0.777       1288.639         0.7815       -55.4858        -4.4285      0.9483298
      5367.0000         0.7947       1233.148         0.8007       -55.2849        -4.2313      0.9525256
      5367.5000         0.8106       1182.928         0.8178        -55.103        -4.0532      0.9563149
      5368.0000         0.8265       1169.178         0.8347       -55.1672        -4.1211      0.9548702
      5368.5000         0.8424       1151.098         0.8515       -55.2315        -4.1891      0.9534234
      5369.0000         0.8589       1133.004         0.8684       -55.2958        -4.2572      0.9519745
      5369.5000         0.8761       1103.422         0.8852       -55.4069         -4.372      0.9495319
      5370.0000         0.8933       1059.773         0.8744        -55.629        -4.5978      0.9447277
      5370.5000         0.9093        985.002         0.8586       -55.8513        -4.8239       0.939917
      5371.0000         0.9175       988.7939         0.8414       -56.0735        -5.0498      0.9351106
      5371.5000         0.9235        1014.24         0.8104       -55.6398        -4.6198      0.9442596
      5372.0000         0.9129        1047.27         0.7794       -54.6687        -3.6525      0.9648404
      5372.5000         0.9022       1084.166         0.7484       -53.6964        -2.6839       0.985449
      5373.0000         0.8838       1131.363         0.7175       -52.8039        -1.7951              1
      5373.5000           0.86       1208.926         0.6864       -52.2384        -1.2334              1
      5374.0000         0.8062       1322.355         0.6606       -51.6724        -0.6711              1
      5374.5000          0.759       1461.818         0.6501       -51.1069        -0.1094              1
      5375.0000            0.7       1585.623         0.6396       -50.5408          0.453              1
      5375.5000         0.6499       1630.227         0.6291       -49.9753         1.0148              1
      5376.0000         0.6255       1652.125         0.6185       -50.0015         0.9848              1
      5376.5000         0.6232       1673.998         0.6214       -50.1253         0.8573              1
      5377.0000         0.6437       1617.895         0.6298       -50.6526         0.3263              1
      5377.5000         0.6642       1595.043         0.6382       -52.2089        -1.2338              1
      5378.0000         0.6846       1572.189         0.6466       -53.7651        -2.7937      0.9831128
      5378.5000         0.7084       1541.605          0.655       -56.6183        -5.6506      0.9223276
      5379.0000         0.7345       1507.033         0.6634       -59.2084        -8.2445      0.8671383
      5379.5000         0.7605       1467.789         0.6718       -60.8605        -9.9003      0.8319085
      5380.0000         0.7968       1436.029         0.6725        -61.839       -10.8825      0.8110107
      5380.5000         0.8365       1409.262         0.6723        -61.204       -10.2513      0.8244404
      5381.0000         0.8111       1385.162         0.6721       -60.5698        -9.6208      0.8378553
      5381.5000          0.786       1378.523         0.6719       -59.9349        -8.9896      0.8512851
      5382.0000          0.764       1377.385         0.6717        -59.228        -8.2865      0.8662447
      5382.5000          0.742       1376.248         0.6715       -58.4702        -7.5324      0.8822894
      5383.0000           0.72       1375.113         0.6713        -57.713         -6.779      0.8983191
      5383.5000         0.7004        1372.17         0.6711       -56.9557        -6.0254      0.9143532
      5384.0000         0.7124        1348.07         0.6732       -56.1979        -5.2713      0.9303979
      5384.5000         0.7203       1321.793         0.6775       -55.5273        -4.6045      0.9445851
      5385.0000         0.7283       1292.236         0.6817       -55.2074        -4.2883      0.9513128
      5385.5000         0.7282       1260.893          0.686       -54.8878        -3.9724       0.958034
      5386.0000         0.7276       1238.408         0.6902       -54.5679        -3.6563      0.9647596
      5386.5000         0.7289       1224.793         0.6944       -54.2479          -3.34      0.9714894
      5387.0000          0.734       1216.541         0.6987        -53.928        -3.0238       0.978217
      5387.5000         0.7426       1208.295         0.7029       -53.6081        -2.7077      0.9849426
      5388.0000         0.7543       1200.043         0.7072       -53.3073        -2.4106      0.9912638
      5388.5000         0.7659       1184.104          0.715       -53.1667        -2.2737      0.9941766
      5389.0000         0.7773        1168.09         0.7242       -53.0259        -2.1367      0.9970915
      5389.5000         0.7874        1148.98         0.7333       -52.8851        -1.9996              1
      5390.0000         0.7975       1118.322         0.7424       -52.7446        -1.8629              1
      5390.5000         0.8076       1082.918         0.7515       -52.6038        -1.7258              1
      5391.0000         0.8177        1081.09         0.7606       -52.4631        -1.5888              1
      5391.5000         0.8234       1084.469         0.7697       -52.3224        -1.4519              1
