#------------------------------------------------------------------------------
# Created by    : vladimir.rabinovich
# Created on    : 09/19/2023 17:20:09
#------------------------------------------------------------------------------
~Version Information Section
VERS.           2.0     :   CWLS log ASCII Standard - VERSION 2.0
WRAP.           NO      :   One line per depth step
~Well Information Section
#MNEM       .UNIT                                         VALUE :DESCRIPTION
#------------------------------------------------------------------------------
STRT        .FT                                            1853 :START DEPTH
STOP        .FT                                            6238 :STOP DEPTH
STEP        .FT                                             0.5 :STEP      
NULL        .                                           -999.25 :NULL      
COMP        .               LOUISIANA LAND & EXPLORATION CO THE :COMPANY   
WELL        .                                          SL 79258 :WELL      
FLD         .                                           WILDCAT :FIELD     
LOC         .                                                   :LOCATION  
CNTY        .                      MATAGORDA ISLAND LARGE BLOCK :LOCATION  
STAT        .                                             TEXAS :STATE     
CTRY        .                                     UNITED STATES :COUNTRY   
SRVC        .                                                   :SERVICE COMPANY
DATE        .                             9/13/2023 11:12:01 AM :LOG DATE  
API         .                                    42703301870000 :API NUMBER
UWI         .                                    42703301870000 :UNIQUE WELL ID
XCOORD      .                                  470651.272343367 :SURFACE X 
YCOORD      .                                  10209272.4173218 :SURFACE Y 
LAT         .                                        28.0852496 :LATITUDE  
LON         .                                       -96.6277134 :LONGITUDE 
ELEV        .FT                                              82 :ELEVATION VALUE
ELEV_TYPE   .                                                KB :ELEVATION REFERENCE TYPE
~Curve Information Section
#MNEM       .UNIT                                      API CODE :CURVE DESCRIPTION
#------------------------------------------------------------------------------
DEPT        .FT                                                 :DEPTH     
ASFL        .OHMM                                               :          
CILD        .MMHO                                               :          
ILD         .OHMM                                               :          
SP          .MV                                                 :          
SP_NORM     .MV                                                 :SP Normalized
VSH_SP      .V/V                                                :Volume of Shale from SP
~A        DEPTH           ASFL           CILD            ILD             SP        SP_NORM         VSH_SP
      1853.0000         0.4542        29.6494          1.037       -40.0513       11.44571              1
      1853.5000         0.4845        30.0176         0.7492        -42.864       8.633007              1
      1854.0000         0.6184        35.7334         0.5912       -53.6278      -2.130795      0.9667413
      1854.5000         0.6982        39.8462         0.5647       -58.3915      -6.894493      0.8266326
      1855.0000         0.8201        43.5225         0.5686        -59.976      -8.478996      0.7800295
      1855.5000         0.8606        47.0747         0.5854       -58.7746      -7.277596      0.8153648
      1856.0000         0.8868        58.5879         0.6207       -57.1685      -5.671494      0.8626031
      1856.5000         0.9032       176.6675          0.656       -55.4272      -3.930195      0.9138178
      1857.0000         0.9196       1044.441         0.6913       -53.6544      -2.157394       0.965959
      1857.5000         0.9343       1444.861          0.726       -51.8137     -0.3166962              1
      1858.0000         0.9484       1858.047         0.7543       -49.5015       1.995506              1
      1858.5000         0.9641       1646.398         0.7826       -47.8002       3.696804              1
      1859.0000         0.9864       1440.438         0.8109       -46.9631       4.533905              1
      1859.5000         1.0082       1284.383         0.8392       -47.7241       3.772907              1
      1860.0000         0.9831       1246.506         0.8509       -48.6358       2.861206              1
      1860.5000         0.9581       1222.238         0.8586       -49.8289       1.668106              1
      1861.0000         0.9332       1206.887         0.8664       -51.3163       0.180706              1
      1861.5000         0.9101       1191.529         0.8698        -52.085     -0.5879936              1
      1862.0000         0.8911       1178.477         0.8587       -52.6872      -1.190193      0.9944061
      1862.5000         0.8721       1165.672         0.8476       -53.8433      -2.346294      0.9604031
      1863.0000         0.8531       1155.324         0.8058       -54.5651      -3.068096      0.9391736
      1863.5000         0.8331       1186.637         0.7329       -55.2866      -3.789593      0.9179531
      1864.0000         0.8131       1243.668         0.6803       -56.6508      -5.153793      0.8778296
      1864.5000         0.7931       1307.578         0.6311       -58.2645      -6.767494      0.8303678
      1865.0000         0.7803       1388.592         0.5819       -60.9952      -9.498196       0.750053
      1865.5000         0.7681       1460.734         0.5413       -66.8795       -15.3825      0.5769854
      1866.0000         0.7559       1572.584         0.5048       -72.8434      -21.34639      0.4015767
      1866.5000         0.7437        2048.93         0.4681       -73.8887       -22.3917      0.3708324
      1867.0000          0.733       2439.816          0.427       -74.4879      -22.99089       0.353209
      1867.5000         0.7224       2672.953         0.3859       -74.7881       -23.2911      0.3443795
      1868.0000         0.7119       2826.895         0.3587       -75.2477       -23.7507      0.3308618
      1868.5000         0.7017       2955.035         0.3414       -75.9551       -24.4581       0.310056
      1869.0000         0.6936       3067.402         0.3242        -76.934      -25.43699      0.2812649
      1869.5000         0.6854       3177.605         0.3166       -78.3254       -26.8284      0.2403413
      1870.0000         0.6772        3269.75         0.3136       -79.6215      -28.12449      0.2022208
      1870.5000          0.669       3387.203         0.3106       -79.6578      -28.16079      0.2011531
      1871.0000         0.6618       3164.879         0.3075       -77.9227      -26.42569      0.2521855
      1871.5000         0.6548       3115.625         0.3174       -75.5458      -24.04879      0.3220943
      1872.0000         0.6483       3051.113         0.3316       -73.4265      -21.92949      0.3844267
      1872.5000         0.6446       2938.719         0.3458       -69.9456       -18.4486       0.486806
      1873.0000         0.6409       2858.594          0.363       -67.3925       -15.8955      0.5618972
      1873.5000         0.6404       2632.508          0.399       -65.8396      -14.34259      0.6075708
      1874.0000         0.6489        2467.09         0.4351       -63.0652       -11.5682      0.6891707
      1874.5000         0.6581        1993.35         0.4711       -59.8425      -8.345493      0.7839561
      1875.0000         0.6707       1779.625         0.5059       -54.3897      -2.892696      0.9443325
      1875.5000         0.6832       1629.395         0.5391       -51.7336     -0.2365952              1
      1876.0000         0.6957        1560.74         0.5722        -49.811       1.686005              1
      1876.5000         0.7071       1496.781         0.6076       -48.9757       2.521305              1
      1877.0000         0.7168        1438.08         0.6446       -48.7025       2.794506              1
      1877.5000         0.7264       1390.975         0.6732       -48.7856       2.711407              1
      1878.0000          0.736        1353.27         0.6817       -49.2271       2.269905              1
      1878.5000         0.7459       1322.316         0.6901       -49.8936       1.603405              1
      1879.0000         0.7561       1305.602         0.6986       -50.8151      0.6819038              1
      1879.5000         0.7663       1288.887         0.7071       -51.7542     -0.2571945              1
      1880.0000         0.7765       1274.758         0.7155       -52.7297      -1.232693      0.9931561
      1880.5000         0.7977        1271.75           0.72       -53.7055      -2.208496       0.964456
      1881.0000         0.8161        1268.74         0.7241       -53.0405      -1.543495      0.9840149
      1881.5000         0.8138       1270.225         0.7282       -52.3737     -0.8766937              1
      1882.0000         0.8023       1278.975         0.7323       -51.7069     -0.2098961              1
      1882.5000          0.792       1287.723         0.7364       -51.1879      0.3091049              1
      1883.0000         0.7817       1296.473         0.7376       -50.7336      0.7634048              1
      1883.5000         0.7715       1305.221         0.7366       -51.1411      0.3559036              1
      1884.0000         0.7644       1313.971         0.7355       -51.5486    -0.05159378              1
      1884.5000         0.7595       1326.449         0.7333       -51.9561      -0.459095              1
      1885.0000         0.7559       1340.094         0.7263       -52.4591     -0.9620934              1
      1885.5000          0.764        1347.82         0.7194       -53.0328      -1.535793      0.9842414
      1886.0000         0.7722       1340.146         0.7125       -53.4315      -1.934494      0.9725149
      1886.5000         0.7838       1332.479         0.7108       -52.7989      -1.301895      0.9911208
      1887.0000         0.7953       1324.809         0.7097       -52.1663     -0.6692963              1
      1887.5000         0.8068       1317.135         0.7087       -51.5337    -0.03669357              1
      1888.0000         0.8183       1309.467         0.7115       -50.9011      0.5959053              1
      1888.5000         0.8268       1300.828         0.7176       -49.4824       2.014606              1
      1889.0000         0.8214        1291.93         0.7237       -48.1118       3.385204              1
      1889.5000         0.8056       1283.031         0.7297       -46.8651       4.631905              1
      1890.0000         0.7897        1287.83         0.7358       -46.1168       5.380207              1
      1890.5000         0.7738        1297.68         0.7355       -46.4177       5.079304              1
