#------------------------------------------------------------------------------
# Created by    : vladimir.rabinovich
# Created on    : 09/19/2023 17:20:09
#------------------------------------------------------------------------------
~Version Information Section
VERS.           2.0     :   CWLS log ASCII Standard - VERSION 2.0
WRAP.           NO      :   One line per depth step
~Well Information Section
#MNEM       .UNIT                                         VALUE :DESCRIPTION
#------------------------------------------------------------------------------
STRT        .FT                                            1853 :START DEPTH
STOP        .FT                                            6238 :STOP DEPTH
STEP        .FT                                             0.5 :STEP      
NULL        .                                           -999.25 :NULL      
COMP        .               LOUISIANA LAND & EXPLORATION CO THE :COMPANY   
WELL        .                                          SL 79258 :WELL      
FLD         .                                           WILDCAT :FIELD     
LOC         .                                                   :LOCATION  
CNTY        .                      MATAGORDA ISLAND LARGE BLOCK :LOCATION  
STAT        .                                             TEXAS :STATE     
CTRY        .                                     UNITED STATES :COUNTRY   
SRVC        .                                                   :SERVICE COMPANY
DATE        .                             9/13/2023 11:12:01 AM :LOG DATE  
API         .                                    42703301870000 :API NUMBER
UWI         .                                    42703301870000 :UNIQUE WELL ID
XCOORD      .                                  470651.272343367 :SURFACE X 
YCOORD      .                                  10209272.4173218 :SURFACE Y 
LAT         .                                        28.0852496 :LATITUDE  
LON         .                                       -96.6277134 :LONGITUDE 
ELEV        .FT                                              82 :ELEVATION VALUE
ELEV_TYPE   .                                                KB :ELEVATION REFERENCE TYPE
~Curve Information Section
#MNEM       .UNIT                                      API CODE :CURVE DESCRIPTION
#------------------------------------------------------------------------------
DEPT        .FT                                                 :DEPTH     
ASFL        .OHMM                                               :          
CILD        .MMHO                                               :          
ILD         .OHMM                                               :          
SP          .MV                                                 :          
SP_NORM     .MV                                                 :SP Normalized
VSH_SP      .V/V                                                :Volume of Shale from SP
~A        DEPTH           ASFL           CILD            ILD             SP        SP_NORM         VSH_SP
# ...
      2423.0000         0.6449       2446.844         0.4351       -65.7454       -20.4668      0.5472838
      2423.5000         0.6384       2427.508         0.4316       -68.8965      -23.62194      0.4739083
      2424.0000         0.6211        2528.57          0.428       -71.8934       -26.6229      0.4041187
      2424.5000         0.6196       2694.922         0.4229       -73.3944      -28.12795      0.3691175
      2425.0000         0.6419       2844.465         0.4145       -74.5228      -29.26039      0.3427816
      2425.5000         0.6648       2842.547         0.4062       -68.7362      -23.47784      0.4772594
      2426.0000         0.6939       2720.523         0.3979       -63.1367      -17.88239      0.6073862
      2426.5000          0.723       2441.488         0.4325       -59.9917      -14.74144      0.6804315
      2427.0000         0.7593        2241.18         0.4764        -56.038      -10.79179      0.7722839
      2427.5000         0.8012       1908.775         0.5284       -50.8034      -5.561241      0.8939247
      2428.0000         0.8422       1604.576         0.5806       -49.4023      -4.164196      0.9264141
      2428.5000         0.8826       1472.332         0.6329       -48.5735      -3.339447      0.9455943
      2429.0000         1.0542       1062.525         0.6858         -47.86      -2.629993      0.9620932
      2429.5000         1.0756       891.1133         0.7645        -47.235      -2.009045      0.9765338
      2430.0000         1.1599       798.7734         0.8432       -46.6099      -1.387997      0.9909768
      2430.5000         1.2084       735.1328          0.959       -46.1837     -0.9658432              1
      2431.0000         1.2636       684.1953         1.1491       -45.8804     -0.6665955              1
      2431.5000         1.3228       655.9873         1.2512       -45.8138     -0.6040459              1
      2432.0000         1.3646       630.9668         1.3098       -46.5905      -1.384792      0.9910513
      2432.5000          1.382       617.9502         1.3206       -47.2214      -2.019745       0.976285
      2433.0000         1.3992       609.6084         1.3313       -47.8523      -2.654694      0.9615188
      2433.5000         1.4159       621.2979         1.3381       -48.0754      -2.881844      0.9562362
      2434.0000         1.4349       632.9814         1.3362       -47.7604      -2.570892      0.9634676
      2434.5000         1.3883       644.6719         1.3342       -47.1456      -1.960144      0.9776711
      2435.0000         1.3521       666.6631         1.3293       -46.5304      -1.348991      0.9918839
      2435.5000         1.3176       691.8496         1.3221       -45.9155     -0.7381439              1
      2436.0000         1.2754       717.0352         1.3149       -45.3134     -0.1400948              1
      2436.5000         1.2312       742.2334         1.3076       -44.8556      0.3136597              1
      2437.0000         1.1994       767.4199          1.298       -44.3976      0.7676086              1
      2437.5000          1.175       782.1846         1.2884       -43.9396       1.221554              1
      2438.0000         1.1591       789.9766         1.2788       -43.6223       1.534809              1
      2438.5000         1.1422       797.7715           1.27       -44.0878       1.065258              1
      2439.0000         1.1463       805.5645         1.2663       -44.5532      0.5958061              1
      2439.5000         1.1692       813.3564         1.2625       -45.0188      0.1261597              1
      2440.0000         1.1939       812.3926         1.2588       -45.4843     -0.3433914              1
      2440.5000         1.2222       798.9268          1.255       -45.9614     -0.8245392              1
      2441.0000         1.2505       785.4619         1.2512       -46.4531       -1.32029      0.9928824
      2441.5000         1.2829       771.9961         1.2474       -46.9445      -1.815742      0.9818724
      2442.0000         1.3133       758.5371         1.2418       -47.4361       -2.31139       0.970858
      2442.5000         1.3096       745.8887         1.2363       -47.9286      -2.807941      0.9598235
      2443.0000         1.2708       734.7334         1.2308       -48.4234      -3.306793      0.9487379
      2443.5000         1.2259       728.4248         1.2252       -48.6709      -3.558338       0.943148
      2444.0000         1.1829       752.4561         1.2197       -48.7156       -3.60709      0.9420646
      2444.5000         1.1558       778.1328         1.2141        -48.019      -2.914543      0.9574546
      2445.0000         1.1304       807.8398         1.2086       -47.3222       -2.22179      0.9728491
      2445.5000         1.1034       837.5479         1.1851       -46.6816      -1.585239      0.9869947
      2446.0000         1.0746       867.2549         1.1616       -46.1615      -1.069191      0.9984624
      2446.5000         1.0429       896.9619         1.1381       -45.6415     -0.5532379              1
      2447.0000         1.0004       929.8262         1.1147       -45.1214    -0.03718948              1
      2447.5000         0.9602       965.3447         1.0878       -44.4601        0.62006              1
      2448.0000         0.9214       1000.863         1.0555       -43.7584       1.317711              1
      2448.5000         0.8834       1036.381         1.0232       -43.1145       1.957561              1
      2449.0000          0.869       1072.674         0.9908       -42.6829       2.385109              1
      2449.5000         0.8547       1110.158         0.9627       -43.0763       1.987659              1
      2450.0000         0.8409       1142.377         0.9532       -43.4697        1.59021              1
      2450.5000         0.8532       1158.594         0.9436       -43.8632       1.192657              1
      2451.0000         0.8661       1174.818         0.9341       -44.2566      0.7952118              1
      2451.5000         0.8793       1159.945         0.9245        -44.379      0.6687584              1
      2452.0000         0.8991       1144.688          0.915       -44.4434      0.6003075              1
      2452.5000         0.9189       1127.357         0.9122       -44.5079      0.5317612              1
      2453.0000         0.9387       1097.418         0.9155       -44.5723      0.4633102              1
      2453.5000         0.9584       1067.465         0.9188       -45.0319  -0.0003356934              1
      2454.0000          0.978       1037.523         0.9221        -45.532     -0.5044899              1
      2454.5000         0.9975       1007.571         0.9254       -46.2228      -1.199341      0.9955702
      2455.0000         1.0246       972.3848         0.9288       -47.3989      -2.379486      0.9693447
      2455.5000         1.0058       936.7314         0.9359       -48.4136      -3.398239      0.9467058
      2456.0000         0.9934       931.1074         0.9488       -47.7703      -2.758991      0.9609113
      2456.5000         1.0151       925.8662         0.9616       -47.1564      -2.149136      0.9744636
      2457.0000         1.0437        920.626         0.9745       -46.5424      -1.539188       0.988018
      2457.5000         1.0721       925.0752         0.9873       -45.9285     -0.9293404              1
      2458.0000          1.098       931.7334         1.0017       -45.6267      -0.631588              1
      2458.5000         1.1238       938.3926         1.0184       -47.6572      -2.666138      0.9629747
      2459.0000         1.1518       943.1719          1.035       -49.3117      -4.324688       0.926118
      2459.5000         1.1814       937.6582         1.0516        -50.314      -5.331036      0.9037548
      2460.0000         1.2189       932.1455         1.0683       -48.9153      -3.936386       0.934747
      2460.5000          1.302       926.6348           1.08       -47.5161      -2.541241      0.9657502
