#------------------------------------------------------------------------------
# Created by    : vladimir.rabinovich
# Created on    : 09/19/2023 17:20:45
#------------------------------------------------------------------------------
~Version Information Section
VERS.           2.0     :   CWLS log ASCII Standard - VERSION 2.0
WRAP.           NO      :   One line per depth step
~Well Information Section
#MNEM       .UNIT                                         VALUE :DESCRIPTION
#------------------------------------------------------------------------------
STRT        .FT                                            1401 :START DEPTH
STOP        .FT                                            4951 :STOP DEPTH
STEP        .FT                                             0.5 :STEP      
NULL        .                                           -999.25 :NULL      
COMP        .                      GULF ENERGY EXPLORATION CORP :COMPANY   
WELL        .                                ST TR 00596-L NE/4 :WELL      
FLD         .                        SHERMAN OFFSHORE SOUTHWEST :FIELD     
LOC         .                                                   :LOCATION  
CNTY        .                      MATAGORDA ISLAND LARGE BLOCK :LOCATION  
STAT        .                                             TEXAS :STATE     
CTRY        .                                     UNITED STATES :COUNTRY   
SRVC        .                                                   :SERVICE COMPANY
DATE        .                             9/13/2023 11:12:01 AM :LOG DATE  
API         .                                    42703301240000 :API NUMBER
UWI         .                                    42703301240000 :UNIQUE WELL ID
XCOORD      .                                    480210.3272994 :SURFACE X 
YCOORD      .                                  10243409.1849528 :SURFACE Y 
LAT         .                                        28.1797739 :LATITUDE  
LON         .                                       -96.6012532 :LONGITUDE 
ELEV        .FT                                              82 :ELEVATION VALUE
ELEV_TYPE   .                                                KB :ELEVATION REFERENCE TYPE
~Curve Information Section
#MNEM       .UNIT                                      API CODE :CURVE DESCRIPTION
#------------------------------------------------------------------------------
DEPT        .FT                                                 :DEPTH     
ASN         .OHMM                                               :          
CILD        .MMHO                                               :          
ILD         .OHMM                                               :          
SP          .MV                                                 :          
SP_NORM     .MV                                                 :SP Normalized
VSH_SP      .V/V                                                :Volume of Shale from SP
~A        DEPTH            ASN           CILD            ILD             SP        SP_NORM         VSH_SP
# ...
      4441.0000         0.5632       3851.931         0.2596       -76.9836       -58.1157              0
      4441.5000         0.5592        3928.22         0.2546       -76.9815       -58.1136              0
      4442.0000          0.607       3983.094         0.2511       -76.8804       -58.0125              0
      4442.5000          0.609       4002.928         0.2498       -76.7793       -57.9114              0
      4443.0000          0.617       4002.885         0.2498       -76.7772       -57.9093              0
      4443.5000         0.6309       4006.818         0.2496        -76.676       -57.8081              0
      4444.0000         0.6329       4006.775         0.2496       -76.6739        -57.806              0
      4444.5000          0.633       4050.461         0.2469       -76.7708       -57.9029              0
      4445.0000          0.635       4070.295         0.2457       -76.7687       -57.9008              0
      4445.5000          0.631       4062.302         0.2462       -76.8656       -57.9977              0
      4446.0000         0.6231       4041.341         0.2474       -76.8629        -57.995              0
      4446.5000         0.6172       4020.381         0.2487       -76.8613       -57.9934              0
      4447.0000         0.6152       3999.421           0.25       -76.8592       -57.9913              0
      4447.5000         0.6212       3978.461         0.2514       -76.8571       -57.9892              0
      4448.0000         0.6351         3957.5         0.2527        -76.855       -57.9871              0
      4448.5000         0.6352       3969.744         0.2519       -76.8529        -57.985              0
      4449.0000         0.6332       3897.257         0.2566       -76.9498       -58.0819              0
      4449.5000         0.6253        3824.77         0.2615       -77.1456       -58.2777              0
      4450.0000         0.6173       3752.283         0.2665       -77.2425       -58.3746              0
      4450.5000         0.6114       3652.364         0.2738       -77.2404       -58.3725              0
      4451.0000         0.6055       3644.393         0.2744       -77.2383       -58.3704              0
      4451.5000         0.5995       3628.471         0.2756       -77.0382       -58.1703              0
      4452.0000         0.5956       3540.956         0.2824       -76.9371       -58.0692              0
      4452.5000         0.5916       3461.391         0.2889        -76.837       -57.9691              0
      4453.0000         0.5877       3393.773         0.2947       -76.2399        -57.372              0
      4453.5000         0.5818       3346.031         0.2989       -75.9408       -57.0729              0
      4454.0000         0.5778       3306.239         0.3025       -75.2447       -56.3768      0.0113309
      4454.5000         0.5719       3290.299         0.3021       -74.6487       -55.7808     0.02216727
      4455.0000         0.5679       3274.357         0.3028       -74.1516       -55.2837     0.03120547
      4455.5000         0.5659       3246.492         0.3036       -74.1495       -55.2816     0.03124362
      4456.0000          0.562       3238.501         0.3028       -74.1474       -55.2795     0.03128184
      4456.5000          0.558       3398.408         0.2856       -74.0463       -55.1784     0.03312003
      4457.0000         0.5561       3492.844         0.2831       -73.8462       -54.9783     0.03675821
      4457.5000         0.5581       3488.828         0.2857       -73.5471       -54.6792     0.04219638
      4458.0000         0.5621       3480.837         0.2884        -73.446       -54.5781     0.04403458
      4458.5000         0.5701       3480.796         0.2912       -73.4439        -54.576     0.04407272
      4459.0000         0.5741       3433.056          0.294       -73.7388       -54.8709     0.03871092
      4459.5000         0.5801       3302.019         0.2968       -74.1326       -55.2647     0.03155088
      4460.0000         0.5822       3130.818         0.2997       -74.4275       -55.5596     0.02618908
      4460.5000         0.5841       3134.773         0.3027       -74.8213       -55.9534      0.0190291
      4461.0000         0.5881       3134.733         0.3057       -74.9182       -56.0503     0.01726726
      4461.5000         0.5901       3130.739         0.3088       -74.8171       -55.9492     0.01910546
      4462.0000         0.5921        3103.89         0.3119        -74.716       -55.8481     0.02094366
      4462.5000         0.5942       3077.042         0.3151       -74.4169        -55.549     0.02638182
      4463.0000         0.5942       3050.194         0.3184       -74.0188       -55.1509     0.03361997
      4463.5000         0.5942       3023.345         0.3218       -73.7197       -54.8518      0.0390582
      4464.0000         0.5942       2996.497         0.3252       -73.6186       -54.7507     0.04089633
      4464.5000         0.5943       2969.648         0.3287       -73.3195       -54.4516     0.04633456
      4465.0000         0.5943       2931.661         0.3325       -72.9215       -54.0536      0.0535709
      4465.5000         0.5943       2943.566         0.3292       -72.8204       -53.9525      0.0554091
      4466.0000         0.5943       2955.451          0.326       -72.7193       -53.8514      0.0572473
      4466.5000         0.5924       2967.356         0.3228       -72.5192       -53.6513     0.06088548
      4467.0000         0.5924       2975.267         0.3197       -72.5171       -53.6492     0.06092363
      4467.5000         0.5904       2995.101         0.3167       -72.5149        -53.647     0.06096365
      4468.0000         0.5885       3018.911         0.3137       -72.6118       -53.7439     0.05920181
      4468.5000         0.5845       3026.821         0.3108       -72.7087       -53.8408     0.05743998
      4469.0000         0.5786        3042.68         0.3079       -72.8056       -53.9377     0.05567821
      4469.5000         0.5746       3062.514         0.3051       -73.1004       -54.2325     0.05031822
      4470.0000         0.5548       3070.424         0.3029       -73.1973       -54.3294     0.04855638
      4470.5000         0.5528       3114.106         0.3029       -73.5912       -54.7233     0.04139453
      4471.0000         0.5509       3141.889          0.304        -73.787       -54.9191     0.03783451
      4471.5000         0.5509       3153.773         0.3051       -74.1809        -55.313     0.03067273
      4472.0000         0.5529       3149.759         0.3061       -74.6726       -55.8047     0.02173275
      4472.5000         0.5549       3145.744         0.3072       -74.8696       -56.0017     0.01815088
      4473.0000          0.555       3137.755         0.3083       -75.0654       -56.1975     0.01459094
      4473.5000          0.555       3125.792         0.3094       -75.1623       -56.2944      0.0128291
      4474.0000          0.557       3121.778         0.3105       -75.2592       -56.3913     0.01106727
      4474.5000          0.557       3117.764         0.3116       -75.2571       -56.3892     0.01110549
      4475.0000          0.557        3113.75         0.3127        -75.156       -56.2881     0.01294361
      4475.5000         0.5571       3105.761         0.3139       -74.9559        -56.088      0.0165818
      4476.0000         0.5591       3105.719          0.315       -74.6568       -55.7889     0.02202003
      4476.5000         0.5591       3105.681         0.3161       -74.5557       -55.6878     0.02385816
      4477.0000         0.5591       3097.693         0.3159       -74.3556       -55.4877     0.02749634
      4477.5000         0.5611       3097.653         0.3117       -74.2545       -55.3866     0.02933454
      4478.0000         0.5632       3097.614         0.3076       -74.1534       -55.2855     0.03117274
      4478.5000         0.5672       3101.549         0.3036       -73.8543       -54.9864      0.0366109
