#------------------------------------------------------------------------------
# Created by    : vladimir.rabinovich
# Created on    : 09/19/2023 17:20:54
#------------------------------------------------------------------------------
~Version Information Section
VERS.           2.0     :   CWLS log ASCII Standard - VERSION 2.0
WRAP.           NO      :   One line per depth step
~Well Information Section
#MNEM       .UNIT                                         VALUE :DESCRIPTION
#------------------------------------------------------------------------------
STRT        .FT                                            2835 :START DEPTH
STOP        .FT                                            6351 :STOP DEPTH
STEP        .FT                                             0.5 :STEP      
NULL        .                                           -999.25 :NULL      
COMP        .                                   PENNZOIL CO INC :COMPANY   
WELL        .                                     ST TR 00659-L :WELL      
FLD         .                                           WILDCAT :FIELD     
LOC         .                                                   :LOCATION  
CNTY        .                      MATAGORDA ISLAND LARGE BLOCK :LOCATION  
STAT        .                                             TEXAS :STATE     
CTRY        .                                     UNITED STATES :COUNTRY   
SRVC        .                                                   :SERVICE COMPANY
DATE        .                             9/13/2023 11:19:13 AM :LOG DATE  
API         .                                    42703300020000 :API NUMBER
UWI         .                                    42703300020000 :UNIQUE WELL ID
XCOORD      .                                  437819.375414617 :SURFACE X 
YCOORD      .                                  10187782.3810297 :SURFACE Y 
LAT         .                                        28.0235144 :LATITUDE  
LON         .                                       -96.7273206 :LONGITUDE 
ELEV        .FT                                              73 :ELEVATION VALUE
ELEV_TYPE   .                                                KB :ELEVATION REFERENCE TYPE
~Curve Information Section
#MNEM       .UNIT                                      API CODE :CURVE DESCRIPTION
#------------------------------------------------------------------------------
DEPT        .FT                                                 :DEPTH     
ASN         .OHMM                                               :          
CILD        .MMHO                                               :          
ILD         .OHMM                                               :          
SP          .MV                                                 :          
SP_NORM     .MV                                                 :SP Normalized
VSH_SP      .V/V                                                :Volume of Shale from SP
~A        DEPTH            ASN           CILD            ILD             SP        SP_NORM         VSH_SP
# ...
      6103.0000         1.5253       670.5703         1.4875        -43.025      0.3391533              1
      6103.5000         1.5071       690.5137         1.4495       -42.2807       1.078484              1
      6104.0000         1.4925       713.7979         1.3837       -42.5238      0.8304176              1
      6104.5000         1.4797       737.1074         1.3178       -42.7669      0.5823479              1
      6105.0000         1.4415       765.8262          1.256       -43.0103      0.3339767              1
      6105.5000         1.4007       800.1299         1.2038       -43.2534      0.0859108              1
      6106.0000         1.3493       839.2197         1.1516       -43.8047     -0.4703598              1
      6106.5000         1.2985       888.3311         1.1002       -44.3823      -1.052933       0.998797
      6107.0000         1.2702       954.6445         1.0743       -44.9598      -1.635403       0.985559
      6107.5000         1.2489       994.6816         1.0442       -45.5374      -2.217968      0.9723189
      6108.0000         1.2292       1022.578         0.9969       -45.9366      -2.622139      0.9631332
      6108.5000         1.2036       1044.268         1.0028       -46.2836       -2.97411      0.9551339
      6109.0000         1.1797       1031.377         1.0247       -46.6303      -3.325779      0.9471414
      6109.5000         1.1588       986.9033         1.0467       -47.1118      -3.812248      0.9360853
      6110.0000         1.1387       942.4785         1.0686       -46.3071      -3.012516       0.954261
      6110.5000         1.2608       893.0684         1.1233       -43.7265     -0.4368896              1
      6111.0000         1.3423       848.5937         1.1804       -42.9718      0.3128395              1
      6111.5000         1.4718       817.5312         1.2376         -42.97      0.3096733              1
      6112.0000         1.5066       781.6816         1.2947       -43.3495    -0.07479477              1
      6112.5000         1.5312       741.0459         1.3442       -43.7287     -0.4589653              1
      6113.0000         1.5504       716.9141         1.3772       -44.1082     -0.8434334              1
      6113.5000         1.5609       701.5576         1.4103       -44.4877      -1.227905      0.9948204
      6114.0000         1.5695       690.9248         1.4434        -44.988      -1.733173       0.983337
      6114.5000         1.5774       681.6328         1.4772       -45.6194      -2.369545       0.968874
      6115.0000         1.5854        673.873         1.5037       -46.2508      -3.005913      0.9544111
      6115.5000         1.6049       666.1201         1.5112        -47.506      -4.266083      0.9257708
      6116.0000         1.6392       661.4395         1.5138       -48.9252      -5.690254      0.8934033
      6116.5000         1.7337       658.1738          1.514        -50.014      -6.784023      0.8685449
      6117.0000         1.7947       654.9111         1.5099       -51.1016      -7.876591      0.8437138
      6117.5000         1.7591        654.792         1.5002       -52.1866       -8.96656      0.8189418
      6118.0000         1.7235       658.1016         1.4874       -52.9288       -9.71373      0.8019607
      6118.5000          1.703       661.4141           1.47       -53.6234       -10.4133      0.7860613
      6119.0000         1.6871       675.6807         1.4526       -54.3186      -11.11347      0.7701485
      6119.5000         1.6644       691.8477         1.4352       -55.0607      -11.86054      0.7531696
      6120.0000         1.6318        709.834         1.4132       -55.8423      -12.64711       0.735293
      6120.5000          1.607       729.1045         1.3872       -57.2127      -14.02248      0.7040346
      6121.0000         1.5889       740.0742         1.3613         -58.58      -15.39475      0.6728466
      6121.5000         1.5734       750.4697         1.3354       -57.7828      -14.60252      0.6908519
      6122.0000         1.5467       768.2197          1.297       -56.9855      -13.81019      0.7088594
      6122.5000         1.5128       793.8975          1.257        -56.189      -13.01865      0.7268488
      6123.0000         1.4749       822.0186          1.217       -55.3917      -12.22633      0.7448562
      6123.5000         1.4333       861.0586         1.1768       -54.3155      -11.15509      0.7692024
      6124.0000         1.3753       893.3672         1.1363         -52.88      -9.724564      0.8017145
      6124.5000         1.3085       922.1113         1.0958       -51.4433      -8.292831      0.8342538
      6125.0000          1.239       948.7607          1.065       -49.7687      -6.623203         0.8722
      6125.5000         1.1577       974.7383         1.0406       -45.5787      -2.438175      0.9673142
      6126.0000         1.2297       986.8535          1.057       -45.4548      -2.319241      0.9700173
      6126.5000          1.274       983.8252         1.0735       -47.3283      -4.197712      0.9273247
      6127.0000          1.293       965.4395         1.0899       -49.2231      -6.097481      0.8841482
      6127.5000         1.3108       946.0439         1.1063       -50.8788      -7.758152      0.8464056
      6128.0000         1.3218       926.6738         1.1227       -52.0577       -8.94202      0.8194996
      6128.5000         1.3234       909.5469         1.1391       -53.2367      -10.12599      0.7925912
      6129.0000         1.3231       893.0801         1.1556       -51.9413       -8.83556      0.8219191
      6129.5000         1.3169       876.6143          1.172       -48.8477      -5.746929      0.8921152
      6130.0000         1.3107       859.8613         1.1884        -45.754      -2.658199      0.9623137
      6130.5000         1.2998       835.9287         1.2077       -41.8818        1.20903              1
      6131.0000         1.2966       823.3145         1.2276       -41.0264        2.05946              1
      6131.5000         1.3161       812.4199         1.2431       -41.4707       1.610195              1
      6132.0000         1.3286        809.126          1.242       -41.9144       1.161526              1
      6132.5000         1.3409       821.0713         1.2409       -42.3586      0.7123528              1
      6133.0000         1.3538       890.5254         1.2398       -43.0507     0.01528168              1
      6133.5000         1.3381         965.04         1.2058        -43.734     -0.6729851              1
      6134.0000         1.2826       989.8955         1.1704       -44.0153     -0.9592552              1
      6134.5000         1.2032       1014.102         1.1186       -43.7221     -0.6710243              1
      6135.0000         1.1748       1035.441         1.0604       -43.4005     -0.3543968              1
      6135.5000         1.1432       1053.129         1.0163       -42.6534      0.3877373              1
      6136.0000         1.1158        1062.49          0.979       -41.9069       1.129269              1
      6136.5000         1.0941       1071.852         0.9468       -41.1597       1.871498              1
      6137.0000         1.0845       1080.496         0.9326       -41.4141       1.612129              1
      6137.5000         1.0863       1086.922         0.9184       -41.7231       1.298161              1
      6138.0000         1.0881       1093.348         0.9082       -42.0323      0.9839897              1
      6138.5000         1.0899       1098.943         0.9174       -42.3414      0.6699181              1
      6139.0000         1.0917       1103.295         0.9266       -42.6505      0.3558502              1
      6139.5000         1.0935       1097.729         0.9357       -43.1752     -0.1738205              1
      6140.0000          1.093       1085.064         0.9449       -43.7528     -0.7563896              1
      6140.5000         1.0792       1072.387          0.958       -44.5988      -1.607361      0.9861963
