#------------------------------------------------------------------------------
# Created by    : vladimir.rabinovich
# Created on    : 09/19/2023 17:20:49
#------------------------------------------------------------------------------
~Version Information Section
VERS.           2.0     :   CWLS log ASCII Standard - VERSION 2.0
WRAP.           NO      :   One line per depth step
~Well Information Section
#MNEM       .UNIT                                         VALUE :DESCRIPTION
#------------------------------------------------------------------------------
STRT        .FT                                            2010 :START DEPTH
STOP        .FT                                            6610 :STOP DEPTH
STEP        .FT                                             0.5 :STEP      
NULL        .                                           -999.25 :NULL      
COMP        .                                      SHELL OIL CO :COMPANY   
WELL        .                                ST TR 00691-L SE/4 :WELL      
FLD         .                                           WILDCAT :FIELD     
LOC         .                                                   :LOCATION  
CNTY        .                      MATAGORDA ISLAND LARGE BLOCK :LOCATION  
STAT        .                                             TEXAS :STATE     
CTRY        .                                     UNITED STATES :COUNTRY   
SRVC        .                                                   :SERVICE COMPANY
DATE        .                             9/13/2023 11:12:05 AM :LOG DATE  
API         .                                    42703000190000 :API NUMBER
UWI         .                                    42703000190000 :UNIQUE WELL ID
XCOORD      .                                  412077.623085271 :SURFACE X 
YCOORD      .                                  10154908.2726125 :SURFACE Y 
LAT         .                                        27.9310704 :LATITUDE  
LON         .                                         -96.80379 :LONGITUDE 
ELEV        .FT                                              82 :ELEVATION VALUE
ELEV_TYPE   .                                                DF :ELEVATION REFERENCE TYPE
~Curve Information Section
#MNEM       .UNIT                                      API CODE :CURVE DESCRIPTION
#------------------------------------------------------------------------------
DEPT        .FT                                                 :DEPTH     
ASN         .OHMM                                               :          
CILD        .MMHO                                               :          
ILD         .OHMM                                               :          
SP          .MV                                                 :          
SP_NORM     .MV                                                 :SP Normalized
VSH_SP      .V/V                                                :Volume of Shale from SP
~A        DEPTH            ASN           CILD            ILD             SP        SP_NORM         VSH_SP
# ...
      5050.0000         0.2792       4307.063         0.2128       -95.6254        -42.257      0.1434681
      5050.5000         0.2902       4220.445         0.2171       -94.9379       -41.5729      0.1580234
      5051.0000         0.3011       4120.031         0.2297        -94.661       -41.2994      0.1638425
      5051.5000         0.3125           3990         0.2462       -94.4531       -41.0949      0.1681937
      5052.0000          0.324        3937.73         0.2626       -94.2697       -40.9149      0.1720234
      5052.5000         0.3355       3903.645         0.2791       -94.0861       -40.7347      0.1758575
      5053.0000          0.347         3865.5         0.3062       -93.9023       -40.5543      0.1796958
      5053.5000         0.3585       3803.867         0.3665       -93.7189       -40.3743      0.1835256
      5054.0000         0.3744       3462.895         0.4269       -92.0162        -38.675      0.2196809
      5054.5000          0.394       3122.309         0.4873       -89.7888        -36.451          0.267
      5055.0000         0.4136       2781.727         0.5477       -84.6996       -31.3652      0.3752085
      5055.5000         0.4426       2441.145         0.6134       -81.2798       -27.9488      0.4478979
      5056.0000         0.4917       2100.559           0.68       -78.9233       -25.5957      0.4979638
      5056.5000         0.5696       1917.125         0.7466       -76.8839       -23.5597       0.541283
      5057.0000         0.7339        1771.75         0.7853       -74.4574       -21.1366      0.5928383
      5057.5000         0.7885       1626.375         0.7583       -71.9005       -18.5831      0.6471681
      5058.0000         0.8253           1481         0.7313       -69.6682       -16.3542      0.6945915
      5058.5000         0.8497       1335.625         0.7042       -68.1077       -14.7971      0.7277213
      5059.0000          0.852        1190.25         0.6772       -67.1187       -13.8115      0.7486915
      5059.5000         0.8309       1244.305         0.6501       -66.1292       -12.8254      0.7696723
      5060.0000          0.802       1325.291          0.623       -65.8708       -12.5704      0.7750978
      5060.5000         0.7731       1406.277          0.596       -65.6196       -12.3226      0.7803702
      5061.0000         0.7442       1487.264          0.569       -65.3683       -12.0747      0.7856447
      5061.5000         0.7178        1568.25         0.5587       -65.1173       -11.8271      0.7909127
      5062.0000         0.6921       1649.236         0.5561       -64.8661       -11.5793      0.7961851
      5062.5000         0.6663       1609.453         0.5536       -64.6174        -11.334      0.8014042
      5063.0000         0.6406       1559.393         0.5606       -64.3905       -11.1105      0.8061596
      5063.5000         0.6185       1509.334         0.5897       -64.1635       -10.8869       0.810917
      5064.0000         0.6011       1459.322         0.6189       -63.9366       -10.6634      0.8156723
      5064.5000         0.5916       1409.262         0.6481       -63.7096       -10.4397      0.8204319
      5065.0000         0.6153       1385.236         0.6773       -63.4827       -10.2162      0.8251873
      5065.5000         0.6345       1359.643         0.7064       -63.2557        -9.9926      0.8299447
      5066.0000         0.6537       1325.119         0.7342       -63.0287         -9.769      0.8347021
      5066.5000         0.6728       1292.406         0.7609       -62.8143         -9.558      0.8391915
      5067.0000          0.692       1264.318         0.7876       -62.6172        -9.3643      0.8433128
      5067.5000         0.7337       1216.607         0.8143       -62.4204        -9.1709      0.8474277
      5068.0000         0.7804       1144.771         0.8411       -62.2234        -8.9773      0.8515468
      5068.5000         0.8045       1079.738         0.8678       -62.0264        -8.7837       0.855666
      5069.0000         0.8099       1069.951         0.8959       -61.8296        -8.5903      0.8597808
      5069.5000         0.8018       1094.297         0.9383       -61.6326        -8.3967         0.8639
      5070.0000         0.7937       1118.188         0.9755        -61.447        -8.2145      0.8677766
      5070.5000         0.7856         1132.6         0.9788       -61.3342        -8.1051      0.8701043
      5071.0000         0.7853       1146.998         0.9446       -61.2214        -7.9957      0.8724319
      5071.5000         0.7927       1161.398         0.9104       -61.1087        -7.8864      0.8747575
      5072.0000         0.8001       1175.809         0.9227        -60.996        -7.7771       0.877083
      5072.5000         0.8074       1165.152         0.9411       -60.8832        -7.6677      0.8794106
      5073.0000          0.825       1145.592         0.9594        -60.824        -7.6119      0.8805979
      5073.5000         0.8489       1084.877         0.9777       -60.7878        -7.5791      0.8812957
      5074.0000         0.8729       1045.777          0.996       -60.7516        -7.5463      0.8819936
      5074.5000         0.8968       1004.771          0.976       -60.7153        -7.5134      0.8826936
      5075.0000         0.8809       999.5684         0.9336       -60.6792        -7.4807      0.8833894
      5075.5000         0.8605       998.5732         0.8913       -60.6429        -7.4478      0.8840894
      5076.0000         0.8401       997.5781         0.8489       -60.6068        -7.4151      0.8847851
      5076.5000         0.8111       1012.747         0.8065       -60.4777        -7.2894      0.8874596
      5077.0000         0.7753        1034.01         0.7641       -60.3058        -7.1209      0.8910447
      5077.5000         0.7446        1127.01         0.7217        -60.134        -6.9525      0.8946277
      5078.0000         0.7205       1267.842         0.6793       -59.9622        -6.7841      0.8982106
      5078.5000         0.6964       1408.578         0.6369       -59.7904        -6.6157      0.9017936
      5079.0000         0.6267       1549.313         0.5958       -59.6187        -6.4474      0.9053745
      5079.5000         0.5982       1690.146         0.5552       -59.4468        -6.2789      0.9089596
      5080.0000         0.5734       1788.896         0.5537        -59.275        -6.1105      0.9125426
      5080.5000         0.5501         1740.5          0.579       -58.8436        -5.6825      0.9216489
      5081.0000         0.5334       1692.055         0.6077       -58.3522        -5.1945      0.9320319
      5081.5000         0.5381       1643.609         0.6373       -57.8608        -4.7065      0.9424149
      5082.0000         0.5531       1595.164          0.667       -57.3694        -4.2185      0.9527979
      5082.5000          0.568       1546.768         0.6856        -56.878        -3.7305      0.9631808
      5083.0000          0.583       1498.324         0.6931       -56.3229        -3.1788      0.9749191
      5083.5000         0.5926       1449.879         0.7006       -56.5787         -3.438      0.9694043
      5084.0000         0.5957       1401.434         0.7081       -56.8344        -3.6971      0.9638915
      5084.5000         0.5989       1392.111         0.7062       -57.0897        -3.9558      0.9583873
      5085.0000         0.6021       1427.393         0.6945       -57.3454        -4.2149      0.9528745
      5085.5000         0.5987       1462.674         0.6828       -57.6011         -4.474      0.9473617
      5086.0000          0.594       1497.957          0.671       -57.8223        -4.6986       0.942583
      5086.5000         0.5892       1533.238         0.6593       -57.8197        -4.6993      0.9425681
      5087.0000         0.5845        1568.52         0.6475       -57.8171        -4.7001      0.9425511
      5087.5000         0.5798       1603.801         0.6399       -57.8146         -4.701      0.9425319
