#------------------------------------------------------------------------------
# Created by    : vladimir.rabinovich
# Created on    : 09/19/2023 17:20:45
#------------------------------------------------------------------------------
~Version Information Section
VERS.           2.0     :   CWLS log ASCII Standard - VERSION 2.0
WRAP.           NO      :   One line per depth step
~Well Information Section
#MNEM       .UNIT                                         VALUE :DESCRIPTION
#------------------------------------------------------------------------------
STRT        .FT                                            1401 :START DEPTH
STOP        .FT                                            4951 :STOP DEPTH
STEP        .FT                                             0.5 :STEP      
NULL        .                                           -999.25 :NULL      
COMP        .                      GULF ENERGY EXPLORATION CORP :COMPANY   
WELL        .                                ST TR 00596-L NE/4 :WELL      
FLD         .                        SHERMAN OFFSHORE SOUTHWEST :FIELD     
LOC         .                                                   :LOCATION  
CNTY        .                      MATAGORDA ISLAND LARGE BLOCK :LOCATION  
STAT        .                                             TEXAS :STATE     
CTRY        .                                     UNITED STATES :COUNTRY   
SRVC        .                                                   :SERVICE COMPANY
DATE        .                             9/13/2023 11:12:01 AM :LOG DATE  
API         .                                    42703301240000 :API NUMBER
UWI         .                                    42703301240000 :UNIQUE WELL ID
XCOORD      .                                    480210.3272994 :SURFACE X 
YCOORD      .                                  10243409.1849528 :SURFACE Y 
LAT         .                                        28.1797739 :LATITUDE  
LON         .                                       -96.6012532 :LONGITUDE 
ELEV        .FT                                              82 :ELEVATION VALUE
ELEV_TYPE   .                                                KB :ELEVATION REFERENCE TYPE
~Curve Information Section
#MNEM       .UNIT                                      API CODE :CURVE DESCRIPTION
#------------------------------------------------------------------------------
DEPT        .FT                                                 :DEPTH     
ASN         .OHMM                                               :          
CILD        .MMHO                                               :          
ILD         .OHMM                                               :          
SP          .MV                                                 :          
SP_NORM     .MV                                                 :SP Normalized
VSH_SP      .V/V                                                :Volume of Shale from SP
~A        DEPTH            ASN           CILD            ILD             SP        SP_NORM         VSH_SP
# ...
      3263.0000         0.7774       2346.247         0.4262       -60.0418       -49.6919     0.06616203
      3263.5000         0.7754       2524.991          0.396       -60.3397       -49.9802     0.06039597
      3264.0000         0.7753       2703.735         0.3699       -61.1336       -50.7644     0.04471199
      3264.5000         0.7793       2882.479         0.3469       -61.9276       -51.5488     0.02902397
      3265.0000         0.7852       3044.102         0.3285       -62.2255        -51.837     0.02325996
      3265.5000         0.7892       3083.805         0.3243       -62.9212       -52.5231    0.009537964
      3266.0000         0.7971       3095.727          0.323       -63.5171       -53.1093              0
      3266.5000         0.7991       3095.742          0.323       -63.7167       -53.2993              0
      3267.0000         0.8495       3071.942         0.3255       -63.7183       -53.2912              0
      3267.5000            0.9       2955.128         0.3384       -63.7199       -53.2832              0
      3268.0000         0.9504       2838.315         0.3523       -63.6224        -53.176              0
      3268.5000         0.9856       2721.501         0.3674       -63.5249       -53.0689              0
      3269.0000         1.0213       2604.687         0.3839       -63.3283       -52.8626    0.002748032
      3269.5000         1.0633       2487.873         0.4019       -63.4289       -52.9536   0.0009279632
      3270.0000         1.0907        2371.06         0.4218       -63.7277       -53.2427              0
      3270.5000         1.0828       2258.396         0.4428       -64.1255       -53.6309              0
      3271.0000         1.0547       2278.247         0.4389       -64.2261       -53.7218              0
      3271.5000         1.0266       2373.355         0.4213       -64.1286       -53.6147              0
      3272.0000         0.9986       2468.464         0.4051       -64.0311       -53.5075              0
      3272.5000         0.9705       2563.573         0.3901       -63.7363       -53.2031              0
      3273.0000         0.9557       2663.307         0.3755       -63.5397       -52.9968  0.00006401062
      3273.5000         0.9457       2667.283         0.3749       -63.2441       -52.6916    0.006167984
      3274.0000         0.9437       2659.364          0.376       -62.8493       -52.2871     0.01425796
      3274.5000         0.9823       2635.554         0.3794       -62.6528        -52.081     0.01837998
      3275.0000         1.0209       2564.125           0.39       -62.3571       -51.7756     0.02448799
      3275.5000         1.0747       2468.872          0.405       -61.9624       -51.3713     0.03257401
      3276.0000         1.0627       2307.321         0.4334       -61.6667       -51.0659     0.03868202
      3276.5000         1.0478       2145.769          0.466       -61.1736       -50.5632     0.04873596
      3277.0000         1.0328       1984.218          0.504       -60.6798       -50.0597       0.058806
      3277.5000         1.0178       1822.667         0.5486       -58.5016       -47.8719       0.102562
      3278.0000         1.0029       1661.115          0.602       -54.6712       -44.0318       0.179364
      3278.5000         0.9872       1499.564         0.6669       -50.8408       -40.1918       0.256164
      3279.0000         0.9813       1338.012         0.7474       -25.1216       -14.4629       0.770742
      3279.5000         1.0648       1176.461           0.85        -24.825       -14.1566       0.776868
      3280.0000         1.1483       1087.623         0.9467       -24.5289       -13.8509       0.782982
      3280.5000         1.2318        1155.11         0.9169       -29.8881       -19.2004       0.675992
      3281.0000         1.2908       1186.868         0.8808       -33.4638       -22.7665        0.60467
      3281.5000         1.2829       1255.997         0.8446       -37.2144       -26.5074       0.529852
      3282.0000          1.245       1353.607         0.8085       -37.4132       -26.6966       0.526068
      3282.5000         1.2072       1365.519         0.7724       -37.5136       -26.7873       0.524254
      3283.0000         1.1693       1401.252         0.7278       -37.5142       -26.7783       0.524434
      3283.5000         1.1315       1421.107         0.7277       -32.7794       -22.0338       0.619324
      3284.0000         1.0936       1444.932         0.7177        -26.125       -15.3698       0.752604
      3284.5000         1.0387       1452.878         0.7077       -38.0952       -27.3303       0.513394
      3285.0000         1.0387       1528.306         0.6878       -39.8207       -29.0462       0.479076
      3285.5000         1.0406       1583.884         0.6777       -41.5462        -30.762        0.44476
      3286.0000         1.0406       1623.593         0.6578       -43.2717       -32.4779       0.410442
      3286.5000         1.0287       1655.354         0.6378       -45.6504       -34.8469       0.363062
      3287.0000         1.0088       1687.129         0.5927       -45.1556       -34.3425        0.37315
      3287.5000         0.9795       1691.102         0.5913       -41.8517       -31.0289       0.439422
      3288.0000         0.9502       1691.111         0.5913       -38.5478       -27.7154       0.505692
      3288.5000         0.9209       1691.119         0.5913       -35.2439       -24.4018       0.571964
      3289.0000         0.8916       1683.187         0.5941         -31.94       -21.0883       0.638234
      3289.5000         0.8623       1679.225         0.5955       -28.6361       -17.7747       0.704506
      3290.0000         0.8341       1667.328         0.5998       -25.3322       -14.4612       0.770776
      3290.5000          0.836       1286.232         0.7775       -22.7713       -11.8906       0.822188
      3291.0000         0.8561       1302.115          0.768       -25.8919       -15.0016       0.759968
      3291.5000         0.8697       1321.971         0.7564       -29.0125       -18.1125        0.69775
      3292.0000         0.8717       1509.093         0.6626       -32.1331       -21.2235        0.63553
      3292.5000         0.8509       1724.005           0.58       -35.2537       -24.3344       0.573312
      3293.0000           0.83       1938.917         0.5158       -38.3743       -27.4454       0.511092
      3293.5000         0.8101       2153.829         0.4643       -41.4949       -30.5563       0.448874
      3294.0000         0.8101       2368.741         0.4222       -44.6155       -33.6673       0.386654
      3294.5000         0.9014       2583.653          0.387        -47.736       -36.7781       0.324438
      3295.0000         0.9133       2798.565         0.3573       -50.8566       -39.8891       0.262218
      3295.5000         0.9173       3013.477         0.3318       -53.9772            -43            0.2
      3296.0000          0.893       3228.389         0.3098       -57.0978        -46.111        0.13778
      3296.5000         0.8687       3443.301         0.2786       -60.2184       -49.2219     0.07556198
      3297.0000         0.8444       3759.699         0.2587        -63.339       -52.3329     0.01334198
      3297.5000         0.8201       3759.708         0.2486       -65.8983       -54.8825              0
      3298.0000         0.7958       3767.667         0.2485       -66.1972       -55.1717              0
      3298.5000         0.7715       3771.656         0.2484       -66.2979       -55.2628              0
      3299.0000         0.7472       3767.703         0.2483       -66.2995       -55.2547              0
      3299.5000         0.7229       3500.708         0.2483        -66.202       -55.1476              0
      3300.0000         0.6986       3233.713         0.2581       -65.9062       -54.8421              0
      3300.5000         0.6743       2966.718         0.2659       -56.7307        -45.657        0.14686
