#------------------------------------------------------------------------------
# Created by    : vladimir.rabinovich
# Created on    : 09/19/2023 17:20:46
#------------------------------------------------------------------------------
~Version Information Section
VERS.           2.0     :   CWLS log ASCII Standard - VERSION 2.0
WRAP.           NO      :   One line per depth step
~Well Information Section
#MNEM       .UNIT                                         VALUE :DESCRIPTION
#------------------------------------------------------------------------------
STRT        .FT                                            1000 :START DEPTH
STOP        .FT                                            6719 :STOP DEPTH
STEP        .FT                                             0.5 :STEP      
NULL        .                                           -999.25 :NULL      
COMP        .                                 CALIFORNIA CO THE :COMPANY   
WELL        .                                     ST TR 00695-L :WELL      
FLD         .                                           WILDCAT :FIELD     
LOC         .                                                   :LOCATION  
CNTY        .                      MATAGORDA ISLAND LARGE BLOCK :LOCATION  
STAT        .                                             TEXAS :STATE     
CTRY        .                                     UNITED STATES :COUNTRY   
SRVC        .                                                   :SERVICE COMPANY
DATE        .                             9/13/2023 11:12:01 AM :LOG DATE  
API         .                                    42703000270000 :API NUMBER
UWI         .                                    42703000270000 :UNIQUE WELL ID
XCOORD      .                                   404842.11633791 :SURFACE X 
YCOORD      .                                  10151340.1845366 :SURFACE Y 
LAT         .                                        27.9206537 :LATITUDE  
LON         .                                       -96.8258101 :LONGITUDE 
ELEV        .FT                                              11 :ELEVATION VALUE
ELEV_TYPE   .                                                KB :ELEVATION REFERENCE TYPE
~Curve Information Section
#MNEM       .UNIT                                      API CODE :CURVE DESCRIPTION
#------------------------------------------------------------------------------
DEPT        .FT                                                 :DEPTH     
ASN         .OHMM                                               :          
CILD        .MMHO                                               :          
ILD         .OHMM                                               :          
SP          .MV                                                 :          
SP_NORM     .MV                                                 :SP Normalized
VSH_SP      .V/V                                                :Volume of Shale from SP
~A        DEPTH            ASN           CILD            ILD             SP        SP_NORM         VSH_SP
# ...
      5180.0000         1.1277       1464.674         0.5677       -64.2522       -19.6591      0.7736013
      5180.5000         1.1041       1543.764         0.5607       -63.1082        -18.518      0.7882308
      5181.0000         1.1202       1604.654         0.5538       -65.2468       -20.6595      0.7607756
      5181.5000         1.1486       1661.246         0.5465       -68.7358       -24.1514      0.7160077
      5182.0000          1.177       1700.742         0.5352       -72.2251       -27.6436      0.6712359
      5182.5000         1.2055       1739.311         0.5238       -76.9163       -32.3377      0.6110551
      5183.0000          1.234        1758.42         0.5124       -81.8826       -37.3068      0.5473487
      5183.5000         1.2655       1777.543         0.4966       -85.2566       -40.6837      0.5040551
      5184.0000         1.4403       1796.652         0.4705       -88.3633       -43.7933      0.4641885
      5184.5000         1.5852       1815.775         0.4444       -90.3477       -45.7806      0.4387102
      5185.0000         1.5608       1855.619         0.4182       -92.3335       -47.7693      0.4132141
      5185.5000         1.4981        1917.41         0.3921       -93.4724       -48.9111      0.3985757
      5186.0000         1.4354        1964.43         0.3748       -94.4048       -49.8464      0.3865846
      5186.5000         1.3727       1969.318         0.3639       -95.3364       -50.7809      0.3746039
      5187.0000          1.174       1970.309         0.3531       -96.2112       -51.6586      0.3633513
      5187.5000         1.1014       2203.852         0.3555        -96.801       -52.2513      0.3557526
      5188.0000         1.0287       2554.703         0.3763       -97.3909       -52.8441      0.3481525
      5188.5000         0.9592       2577.711         0.3972       -97.9807       -53.4368      0.3405539
      5189.0000         0.9511       2589.121         0.4181       -96.5322       -51.9911      0.3590885
      5189.5000         1.1062       2465.016          0.439       -94.8079       -50.2697      0.3811577
      5190.0000         1.2407       2252.844         0.4213       -93.7019       -49.1666         0.3953
      5190.5000         1.4877       2162.656         0.4036       -92.7578       -48.2254      0.4073667
      5191.0000         1.3298       2104.016         0.3858       -91.8757       -47.3462      0.4186385
      5191.5000         1.1863       2052.723         0.3681       -92.3687       -47.8421      0.4122808
      5192.0000         1.1351       2010.404         0.3504       -92.8621       -48.3384      0.4059179
      5192.5000         1.0847       1986.533         0.3326       -93.2222       -48.7014      0.4012641
      5193.0000         1.0404       2036.326         0.3395       -93.5662       -49.0483      0.3968166
      5193.5000         1.0107       2326.633         0.3496       -93.9102       -49.3952      0.3923692
      5194.0000         1.0785       2446.117         0.3598       -93.5793       -49.0672      0.3965743
      5194.5000         1.1443       2554.402         0.3699       -92.7153       -48.2061      0.4076141
      5195.0000         1.2102        2694.98         0.3901       -91.8503       -47.3439       0.418668
      5195.5000         1.2608        2780.57          0.421       -90.9863       -46.4828      0.4297077
      5196.0000         1.3088       2713.578         0.4519       -90.3274       -45.8268      0.4381179
      5196.5000         1.3005       2614.094         0.4827       -89.9397        -45.442      0.4430513
      5197.0000         1.2072       2514.008         0.5136       -89.5667       -45.0719      0.4477962
      5197.5000         1.1339       2400.922         0.5327       -91.0251       -46.5332      0.4290616
      5198.0000         1.1447        2287.84         0.5374       -92.5283       -48.0393      0.4097526
      5198.5000         1.1791       2211.801          0.542       -94.3203       -49.8342       0.386741
      5199.0000         1.2134       2135.563         0.5467       -95.7512        -51.268      0.3683589
      5199.5000         1.2478        2062.32         0.5501       -96.9897       -52.5094      0.3524436
      5200.0000         1.2822       2041.475          0.535       -97.1516       -52.6742      0.3503308
      5200.5000         1.3165        2056.91         0.5198       -96.5535       -52.0789      0.3579628
      5201.0000          1.364       2083.867         0.5046        -96.104       -51.6323      0.3636884
      5201.5000         1.4172       2229.246         0.4894       -95.6545       -51.1857      0.3694141
      5202.0000         1.4128       2398.625          0.475       -96.0005       -51.5346       0.364941
      5202.5000         1.2792       2524.555         0.4768       -96.9265       -52.4635      0.3530321
      5203.0000         1.1542       2597.445         0.4786       -97.9331        -53.473      0.3400897
      5203.5000         1.0799       2670.285         0.4804       -98.9399       -54.4827      0.3271449
      5204.0000         1.0625       2731.227          0.483       -99.9465       -55.4922      0.3142026
      5204.5000         1.0452        2790.57         0.4857      -100.9531       -56.5017      0.3012602
      5205.0000           1.02       2847.512         0.4883       -102.082       -57.6335        0.28675
      5205.5000         0.9937       2901.852          0.491      -103.2505       -58.8049       0.271732
      5206.0000         0.9683       2949.395         0.4936      -104.4189       -59.9762      0.2567154
      5206.5000         1.0291       2898.055         0.4963      -104.3638        -59.924      0.2573846
      5207.0000         1.0899       2846.711         0.4989      -103.9783       -59.5413       0.262291
      5207.5000         1.1278       2795.367         0.5015      -103.5928       -59.1587      0.2671962
      5208.0000         1.0468       2744.074         0.5032        -102.97       -58.5388      0.2751436
      5208.5000         0.9743       2692.383         0.4969      -102.1472       -57.7189      0.2856551
      5209.0000         0.9381       2561.902         0.4906      -101.3035       -56.8781      0.2964346
      5209.5000         0.9046       2424.422         0.4871       -99.9514       -55.5289      0.3137321
      5210.0000         0.8926       2219.449            0.5       -96.7485       -52.3289      0.3547577
      5210.5000         0.8806       1994.381         0.5128       -95.1277        -50.711         0.3755
      5211.0000         0.8611       1993.553         0.5257       -96.7722       -52.3584      0.3543795
      5211.5000         0.8207       1992.293         0.5385       -97.8792       -53.4683        0.34015
      5212.0000         0.7803       1989.453         0.5513       -93.2869       -48.8789      0.3989885
      5212.5000         0.7457       1938.809         0.5775       -83.8594       -39.4542      0.5198179
      5213.0000         0.7185       1859.318         0.6047       -69.5132       -25.1109      0.7037064
      5213.5000         0.7085       1741.436         0.6318       -65.7542       -21.3548      0.7518616
      5214.0000         0.7253       1603.455          0.659       -65.9192       -21.5227       0.749709
      5214.5000         0.7581       1406.883         0.6862        -66.167       -21.7734      0.7464949
      5215.0000         0.8079       1281.051         0.7111       -64.9495       -20.5588      0.7620667
      5215.5000         0.8578       1236.156         0.7294       -62.8926       -18.5048         0.7884
      5216.0000         0.8978       1198.662         0.7477       -60.8354       -16.4505      0.8147372
      5216.5000          0.907       1174.316         0.7659       -57.2415       -12.8595      0.8607756
      5217.0000         0.9162       1149.969         0.7842       -53.3176        -8.9385      0.9110449
      5217.5000         0.9235       1126.234         0.8025        -49.429        -5.0528      0.9608616
