#------------------------------------------------------------------------------
# Created by    : vladimir.rabinovich
# Created on    : 09/19/2023 17:22:51
#------------------------------------------------------------------------------
~Version Information Section
VERS.           2.0     :   CWLS log ASCII Standard - VERSION 2.0
WRAP.           NO      :   One line per depth step
~Well Information Section
#MNEM       .UNIT                                         VALUE :DESCRIPTION
#------------------------------------------------------------------------------
STRT        .FT                                             970 :START DEPTH
STOP        .FT                                           10993 :STOP DEPTH
STEP        .FT                                             0.5 :STEP      
NULL        .                                           -999.25 :NULL      
COMP        .                               AMOCO PRODUCTION CO :COMPANY   
WELL        .                                     ST TR 00558-L :WELL      
FLD         .                                           WILDCAT :FIELD     
LOC         .                                                   :LOCATION  
CNTY        .                      MATAGORDA ISLAND LARGE BLOCK :LOCATION  
STAT        .                                             TEXAS :STATE     
CTRY        .                                     UNITED STATES :COUNTRY   
SRVC        .                                                   :SERVICE COMPANY
DATE        .                             9/13/2023 11:19:13 AM :LOG DATE  
API         .                                    42703301770000 :API NUMBER
UWI         .                                    42703301770000 :UNIQUE WELL ID
XCOORD      .                                   593347.98828382 :SURFACE X 
YCOORD      .                                   10274817.073936 :SURFACE Y 
LAT         .                                        28.2748406 :LATITUDE  
LON         .                                       -96.2531821 :LONGITUDE 
ELEV        .FT                                              93 :ELEVATION VALUE
ELEV_TYPE   .                                                KB :ELEVATION REFERENCE TYPE
~Curve Information Section
#MNEM       .UNIT                                      API CODE :CURVE DESCRIPTION
#------------------------------------------------------------------------------
DEPT        .FT                                                 :DEPTH     
GR          .GAPI                                               :          
GR_NORM     .GAPI                                               :GammaRay Normalized
ILD         .OHMM                                               :          
SP          .MV                                                 :          
SP_NORM     .MV                                                 :SP Normalized
VSH_GR      .V/V                                                :Volume of Shale from GR
VSH_SP      .V/V                                                :Volume of Shale from SP
~A        DEPTH             GR        GR_NORM            ILD             SP        SP_NORM         VSH_GR         VSH_SP
# ...
      6966.5000        44.3145       49.01306         1.2922       -93.2812       -5.85051      0.3407034       0.919781
      6967.0000         42.743       44.88674          1.177       -97.7898      -10.36136      0.2529093       0.825805
      6967.5000        43.1379       45.93027         1.0573      -104.1251      -16.69891      0.2751122      0.6937728
      6968.0000        44.1714       48.65272         0.9416      -110.6237      -23.19975      0.3330366      0.5583385
      6968.5000        45.4365       51.98407         0.8232      -114.5682      -27.14649      0.4039163      0.4761147
      6969.0000        46.2826       54.21383         0.7068      -116.9874      -29.56794      0.4513581      0.4256679
      6969.5000        46.6911       55.29313         0.6444      -119.0325      -31.61529      0.4743218      0.3830148
      6970.0000        46.8764       55.78556         0.5887      -120.8486      -33.43363      0.4847992      0.3451327
      6970.5000        47.0435       56.23018         0.5534      -120.8256      -33.41288      0.4942592       0.345565
      6971.0000        46.8972       55.85088         0.5266      -113.6176      -26.20712       0.486189       0.495685
      6971.5000        46.6313       55.15708         0.5128      -108.3038      -20.89557      0.4714273      0.6063423
      6972.0000        46.3777       54.49563         0.5043      -111.2834      -23.87742      0.4573539      0.5442204
      6972.5000        46.2874       54.26353         0.4964      -120.2581      -32.85436      0.4524156      0.3572008
      6973.0000        46.4507       54.69814         0.4827      -124.0145      -36.61301      0.4616626      0.2788957
      6973.5000        46.2885       54.27702         0.4662      -126.5828      -39.18356      0.4527025      0.2253426
      6974.0000        45.6624       52.63623         0.4491      -133.1592      -45.76219      0.4177922     0.08828767
      6974.5000        44.3771       49.26238         0.4293      -135.0439      -47.64914      0.3460081     0.04897626
      6975.0000        43.6375       47.32322         0.4092      -133.1912      -45.79868      0.3047493     0.08752743
      6975.5000        43.0895       45.88775         0.3876       -129.981      -42.59074      0.2742074      0.1543597
      6976.0000        43.1166        45.9643          0.367      -129.4226      -42.03458      0.2758362      0.1659462
      6976.5000        43.8563       47.91432         0.3492      -126.9161      -39.53033       0.317326      0.2181182
      6977.0000          44.72       50.19038          0.339      -129.2681      -41.88457      0.3657528      0.1690715
      6977.5000        43.4702       46.90985         0.3445      -134.6882      -47.30692      0.2959542     0.05610593
      6978.0000         42.004       43.06038         0.3605      -137.3486      -49.96957      0.2140505   0.0006340345
      6978.5000        41.1568       40.83832         0.3804      -130.5591       -43.1823      0.1667727      0.1420353
      6979.0000        42.1033       43.33203         0.4015      -119.7756      -32.40105      0.2198304      0.3666449
      6979.5000        43.6901       47.50915         0.4181      -108.3606       -20.9883      0.3087054      0.6044104
      6980.0000        45.4401       52.11535         0.4342      -106.2889      -18.91885      0.4067096      0.6475241
      6980.5000        46.9335        56.0469         0.4482      -113.2416      -25.87379      0.4903595      0.5026295
      6981.0000        47.5472       57.66569         0.4605       -123.791      -36.42544      0.5248019      0.2828034
      6981.5000        46.6674       55.35789         0.4715      -129.5474      -42.18407      0.4756997      0.1628318
      6982.0000        45.6671       52.73335         0.4816      -121.7621      -34.40102      0.4198586      0.3249787
      6982.5000        44.9707       50.90773         0.4869      -107.5022      -20.14337      0.3810156      0.6220131
      6983.0000        46.5563       55.08169         0.4764       -101.745      -14.38842      0.4698232      0.7419079
      6983.5000        49.4626       62.72792         0.4614      -104.0045      -16.65016      0.6325089      0.6947883
      6984.0000        49.5688       63.01242         0.4545      -110.5244      -23.17231      0.6385622      0.5589102
      6984.5000        49.2374        62.1464         0.4536      -118.1935      -30.84365      0.6201363      0.3990906
      6985.0000         48.891       61.24099         0.4566      -121.3914       -34.0438       0.600872      0.3324208
      6985.5000        48.5037       60.22806         0.4552      -122.3846      -35.03925      0.5793205      0.3116824
      6986.0000        46.5327       55.05143         0.4439       -123.901      -36.55789      0.4691794      0.2800439
      6986.5000        43.4513       46.95547         0.4243      -126.6501      -39.30923      0.2969248      0.2227243
      6987.0000        41.3892       41.53934         0.4052      -130.8855      -43.54688      0.1816882      0.1344399
      6987.5000        39.6829       37.05864         0.4284      -135.0925      -47.75613     0.08635395     0.04674737
      6988.0000        38.7429       34.59259         0.4608      -138.4128      -51.07867      0.0338849              0
      6988.5000        37.8538       32.26037         0.4937      -130.7295      -43.39763              0      0.1375494
      6989.0000        37.8502        32.2562         0.5285      -121.5634      -34.23376              0      0.3284632
      6989.5000        39.5469       36.72226         0.5703      -108.0909       -20.7635     0.07919701      0.6090937
      6990.0000        41.7486         42.516         0.6207      -102.9049      -15.57976      0.2024681      0.7170884
      6990.5000        43.3567       46.74914         0.6885       -99.5421       -12.2192      0.2925349         0.7871
      6991.0000        44.5095       49.78522         0.7745       -97.9938      -10.67314      0.3571324      0.8193095
      6991.5000        45.3683       52.04839         0.8665       -96.6547      -9.336296       0.405285      0.8471605
      6992.0000        45.6328       52.74906         0.9358       -95.4185      -8.102341      0.4201927      0.8728679
      6992.5000        44.8968       50.81937         0.9992       -94.2257      -6.911781      0.3791355      0.8976712
      6993.0000        44.2672       49.16941         1.0606       -93.6165      -6.304832      0.3440299       0.910316
      6993.5000        43.7212       47.73922         1.1209       -93.5874      -6.277977      0.3136003      0.9108755
      6994.0000        43.9124       48.24717         1.1842       -93.8052      -6.498016      0.3244079      0.9062913
      6994.5000        45.8196       53.26667         1.2502        -93.847      -6.542068      0.4312057      0.9053736
      6995.0000        46.9536       56.25336         1.3182        -93.416      -6.113312      0.4947524       0.914306
      6995.5000           47.3       57.16935         1.3526       -92.9159      -5.615456      0.5142415       0.924678
      6996.0000        47.0399       56.49082         1.3493       -94.9059      -7.607704      0.4998046      0.8831728
      6996.5000        46.3494       54.68073         1.3387       -96.3833      -9.087349      0.4612922      0.8523469
      6997.0000        45.4153       52.23021         1.3282       -97.4263      -10.13259      0.4091533       0.830571
      6997.5000        44.7141         50.392           1.31       -97.0555      -9.764038      0.3700425      0.8382492
      6998.0000        45.5867       52.69143         1.2717       -96.1102      -8.820984      0.4189665      0.8578961
      6998.5000        47.0009       56.41475         1.2345       -95.2384      -7.951431      0.4981861      0.8760118
      6999.0000        47.9113       58.81359         1.1755       -94.4194      -7.134682      0.5492253      0.8930275
      6999.5000        48.6716       60.81776         1.1205        -93.894      -6.611519      0.5918671      0.9039267
