#------------------------------------------------------------------------------
# Created by    : vladimir.rabinovich
# Created on    : 09/19/2023 17:20:46
#------------------------------------------------------------------------------
~Version Information Section
VERS.           2.0     :   CWLS log ASCII Standard - VERSION 2.0
WRAP.           NO      :   One line per depth step
~Well Information Section
#MNEM       .UNIT                                         VALUE :DESCRIPTION
#------------------------------------------------------------------------------
STRT        .FT                                            1000 :START DEPTH
STOP        .FT                                            6719 :STOP DEPTH
STEP        .FT                                             0.5 :STEP      
NULL        .                                           -999.25 :NULL      
COMP        .                                 CALIFORNIA CO THE :COMPANY   
WELL        .                                     ST TR 00695-L :WELL      
FLD         .                                           WILDCAT :FIELD     
LOC         .                                                   :LOCATION  
CNTY        .                      MATAGORDA ISLAND LARGE BLOCK :LOCATION  
STAT        .                                             TEXAS :STATE     
CTRY        .                                     UNITED STATES :COUNTRY   
SRVC        .                                                   :SERVICE COMPANY
DATE        .                             9/13/2023 11:12:01 AM :LOG DATE  
API         .                                    42703000270000 :API NUMBER
UWI         .                                    42703000270000 :UNIQUE WELL ID
XCOORD      .                                   404842.11633791 :SURFACE X 
YCOORD      .                                  10151340.1845366 :SURFACE Y 
LAT         .                                        27.9206537 :LATITUDE  
LON         .                                       -96.8258101 :LONGITUDE 
ELEV        .FT                                              11 :ELEVATION VALUE
ELEV_TYPE   .                                                KB :ELEVATION REFERENCE TYPE
~Curve Information Section
#MNEM       .UNIT                                      API CODE :CURVE DESCRIPTION
#------------------------------------------------------------------------------
DEPT        .FT                                                 :DEPTH     
ASN         .OHMM                                               :          
CILD        .MMHO                                               :          
ILD         .OHMM                                               :          
SP          .MV                                                 :          
SP_NORM     .MV                                                 :SP Normalized
VSH_SP      .V/V                                                :Volume of Shale from SP
~A        DEPTH            ASN           CILD            ILD             SP        SP_NORM         VSH_SP
# ...
      4800.0000         0.8586       1893.965         0.2643      -125.8143       -82.4392              0
      4800.5000         0.8717       1942.008         0.2634      -125.6505       -82.2718              0
      4801.0000         0.8847        1989.15         0.2646      -125.5155       -82.1331              0
      4801.5000         0.8977       2005.184         0.2659      -125.3774       -81.9913              0
      4802.0000         0.9105       2005.313         0.2671      -125.0985       -81.7088              0
      4802.5000         0.9233       2005.439         0.2684      -124.8192       -81.4258              0
      4803.0000         0.9361       2005.568         0.2696      -124.5402       -81.1432              0
      4803.5000          0.946       2005.695         0.2709      -123.7397        -80.339              0
      4804.0000          0.913       2005.824         0.2721      -122.7432       -79.3389    0.008475671
      4804.5000         0.8867       2005.951         0.2734      -122.1377       -78.7297     0.01628592
      4805.0000         0.8621        2006.08          0.275      -121.5328       -78.1211     0.02408844
      4805.5000         0.8375       2006.207         0.2767      -120.9274       -77.5121     0.03189615
      4806.0000         0.8188       2028.627         0.2784      -120.7523       -77.3333     0.03418849
      4806.5000         0.8029       2057.148           0.28       -120.788       -77.3654     0.03377689
      4807.0000         0.7869       2085.691         0.2817      -120.8236       -77.3973     0.03336794
      4807.5000          0.771       2114.215         0.2833      -121.2429       -77.8129     0.02803979
      4808.0000         0.7588       2143.461          0.285      -121.6903       -78.2567     0.02235002
      4808.5000         0.7498        2166.32         0.2866      -122.1377       -78.7004     0.01666152
      4809.0000         0.7409        2179.73         0.2883       -122.327       -78.8861     0.01428076
      4809.5000         0.7334       2193.152           0.29      -122.3958       -78.9512     0.01344612
      4810.0000         0.7275       2178.805         0.2921       -121.749       -78.3007     0.02178593
      4810.5000         0.7217       2129.461         0.2945      -121.1017       -77.6498     0.03013073
      4811.0000         0.7185        2084.07         0.2969      -120.5171       -77.0615     0.03767307
      4811.5000         0.7155       2046.375         0.2993       -120.979       -77.5198     0.03179746
      4812.0000         0.7125       1773.781         0.3017      -120.9062       -77.4433     0.03277823
      4812.5000         0.7124       1724.188         0.3042      -120.3851       -76.9185     0.03950638
      4813.0000         0.7139       1671.846         0.3066       -119.864       -76.3938     0.04623335
      4813.5000         0.7153       1619.502          0.309      -119.3427       -75.8688     0.05296414
      4814.0000         0.7081        1567.16         0.3114      -118.9584       -75.4809     0.05793713
      4814.5000         0.6967       1514.818         0.3138      -118.6188       -75.1376     0.06233841
      4815.0000         0.6853       1459.725         0.3165      -118.2794       -74.7946     0.06673588
      4815.5000         0.6739       1401.484         0.3207      -118.0894       -74.6009     0.06921925
      4816.0000         0.6625       1343.242         0.3248      -117.9026       -74.4104     0.07166153
      4816.5000         0.6512           1285         0.3289      -117.7157       -74.2199     0.07410382
      4817.0000         0.6399       1230.707          0.333      -117.5289       -74.0294     0.07654611
      4817.5000         0.6286       1183.715         0.3372      -117.4663       -73.9632     0.07739483
      4818.0000         0.6274       1136.721         0.3413      -117.4272       -73.9204     0.07794356
      4818.5000         0.6498       1089.777           0.34      -117.3884       -73.8779     0.07848847
      4819.0000         0.6664       1054.258         0.3324      -117.3635       -73.8494      0.0788538
      4819.5000          0.683        1142.52         0.3248        -117.37       -73.8522      0.0788179
      4820.0000         0.6965       1320.695         0.3171      -117.3892       -73.8678     0.07861798
      4820.5000         0.7047       1589.656         0.3095      -117.4775       -73.9524     0.07753333
      4821.0000         0.7129       1743.035         0.3019      -117.5659       -74.0371     0.07644741
      4821.5000         0.7211       1839.422         0.2943      -117.6542       -74.1218      0.0753615
      4822.0000         0.7206       1930.459         0.2831      -117.7844       -74.2483     0.07373976
      4822.5000         0.7035       1971.629         0.2698      -118.0381       -74.4984     0.07053336
      4823.0000         0.6864       1996.463         0.2564      -118.2917       -74.7483      0.0673295
      4823.5000         0.6693       2015.334         0.2431      -118.5587       -75.0116     0.06395389
      4824.0000         0.6521        2025.59         0.2297      -118.8508       -75.3001      0.0602551
      4824.5000         0.6385       2022.211         0.2163      -119.1429       -75.5885     0.05655768
      4825.0000         0.6331       2049.047          0.203      -119.2001       -75.6421     0.05587054
      4825.5000         0.6581       2078.043         0.1896      -119.2064       -75.6447     0.05583719
      4826.0000         0.6858       2107.066         0.1763      -119.1233       -75.5579     0.05695001
      4826.5000         0.7139       2138.211         0.1745      -118.8065       -75.2375     0.06105765
      4827.0000         0.7394       2206.801         0.1751      -118.4897        -74.917     0.06516667
      4827.5000          0.738       2261.242         0.1756      -118.2861       -74.7098     0.06782307
      4828.0000         0.7367       2311.438         0.1762       -118.338        -74.758     0.06720509
      4828.5000         0.7371        2360.43         0.1767      -118.4777        -74.894     0.06546158
      4829.0000         0.7391       2407.523         0.1773      -118.6898       -75.1025     0.06278845
      4829.5000         0.7412       2449.004         0.1799       -118.902        -75.311     0.06011542
      4830.0000         0.7579       2466.352         0.1939      -119.0474       -75.4528     0.05829747
      4830.5000         0.7853       2484.473         0.2079      -119.1072       -75.5089     0.05757816
      4831.0000         0.8138       2436.617         0.2219       -119.167        -75.565     0.05685894
      4831.5000          0.881       1990.658         0.2359      -119.2268       -75.6212     0.05613846
      4832.0000         0.9416       1989.795         0.3002      -119.2866       -75.6773     0.05541924
      4832.5000         0.9992       2118.762         0.3882      -116.8495       -73.2366     0.08671022
      4833.0000         1.0644       2263.742         0.7337        -115.25       -71.6334      0.1072641
      4833.5000         1.2107       2365.828         1.2659      -113.6329       -70.0126      0.1280435
      4834.0000          1.411       2505.211         1.6987      -112.0133       -68.3894      0.1488539
      4834.5000         1.6113       2593.898         2.2595      -107.8732       -64.2456      0.2019795
      4835.0000         1.8116       2636.289         2.3851      -105.6913       -62.0601      0.2299987
      4835.5000         2.0615       2528.207          2.111       -103.916       -60.2811      0.2528064
      4836.0000         3.2881       2407.621         1.4655      -103.0432       -59.4047      0.2640423
      4836.5000         3.7244       2463.215         0.9622      -102.4885       -58.8463      0.2712013
      4837.0000         3.4307       2650.988         0.8047      -102.2573       -58.6114      0.2742128
      4837.5000          3.137       2834.164         0.5661      -102.0898       -58.4403      0.2764064
