#------------------------------------------------------------------------------
# Created by    : vladimir.rabinovich
# Created on    : 09/19/2023 17:22:30
#------------------------------------------------------------------------------
~Version Information Section
VERS.           2.0     :   CWLS log ASCII Standard - VERSION 2.0
WRAP.           NO      :   One line per depth step
~Well Information Section
#MNEM       .UNIT                                         VALUE :DESCRIPTION
#------------------------------------------------------------------------------
STRT        .FT                                             328 :START DEPTH
STOP        .FT                                            8026 :STOP DEPTH
STEP        .FT                                             0.5 :STEP      
NULL        .                                           -999.25 :NULL      
COMP        .                                 MESA PETROLEUM CO :COMPANY   
WELL        .                                ST TR 00565-L NW/4 :WELL      
FLD         .                                           WILDCAT :FIELD     
LOC         .                                                   :LOCATION  
CNTY        .                      MATAGORDA ISLAND LARGE BLOCK :LOCATION  
STAT        .                                             TEXAS :STATE     
CTRY        .                                     UNITED STATES :COUNTRY   
SRVC        .                                                   :SERVICE COMPANY
DATE        .                             9/13/2023 11:12:01 AM :LOG DATE  
API         .                                    42703301780000 :API NUMBER
UWI         .                                    42703301780000 :UNIQUE WELL ID
XCOORD      .                                  585273.186473096 :SURFACE X 
YCOORD      .                                  10269188.7462706 :SURFACE Y 
LAT         .                                          28.25878 :LATITUDE  
LON         .                                       -96.2777629 :LONGITUDE 
ELEV        .FT                                              82 :ELEVATION VALUE
ELEV_TYPE   .                                                KB :ELEVATION REFERENCE TYPE
~Curve Information Section
#MNEM       .UNIT                                      API CODE :CURVE DESCRIPTION
#------------------------------------------------------------------------------
DEPT        .FT                                                 :DEPTH     
CILD        .MMHO                                               :          
DT          .US/F                                               :          
ILD         .OHMM                                               :          
SFL         .OHMM                                               :          
SP          .MV                                                 :          
SP_NORM     .MV                                                 :SP Normalized
VSH_SP      .V/V                                                :Volume of Shale from SP
~A        DEPTH           CILD             DT            ILD            SFL             SP        SP_NORM         VSH_SP
# ...
       830.5000       834.6846        174.522          1.308         1.5338       -92.5653      -2.744942      0.9534411
       831.0000       835.8936       176.5239         1.2651         1.5272       -92.5918      -2.771439      0.9517851
       831.5000       837.1025       177.7012         1.2269         1.4345       -92.3358      -2.515442      0.9677849
       832.0000       838.3125       177.6475         1.1924         1.3614       -91.9277      -2.107338      0.9932914
       832.5000       837.5713       177.3237         1.2373          1.359       -91.2966      -1.476242              1
       833.0000       835.2168       176.9507         1.2652         1.3395        -90.738     -0.9176407              1
       833.5000       832.8623       176.4687         1.2922         1.2716       -90.2601      -0.439743              1
       834.0000       830.5078       176.1597         1.3138         1.2864        -89.972     -0.1516418              1
       834.5000       825.2041       176.4419         1.3342         1.4075       -89.8406    -0.02024078              1
       835.0000       819.8574       176.7905         1.3482         1.4956       -89.7826     0.03775787              1
       835.5000       814.5117       177.1113         1.3606         1.5014       -89.9177    -0.09734344              1
       836.0000       802.9795       177.1948         1.3858         1.4485       -90.1031     -0.2827454              1
       836.5000       788.2734        175.999         1.4189         1.3857       -90.3658     -0.5454407              1
       837.0000       773.5654       173.0264         1.4677         1.3321       -90.6796     -0.8592453              1
       837.5000       753.2959       169.7358          1.527         1.3448       -91.2786      -1.458244              1
       838.0000       732.8281       166.4976         1.5957         1.4147       -91.7777      -1.957344              1
       838.5000       700.4678       163.6917         1.6888          1.541       -92.2528      -2.432442      0.9729724
       839.0000        665.584       160.5862         1.7741         1.6271       -92.7706      -2.950241      0.9406099
       839.5000        628.834       159.0559         1.8543         1.7085       -92.8671      -3.046745      0.9345784
       840.0000       597.6924       156.9951         1.9043         1.8117       -92.8638      -3.043442      0.9347849
       840.5000       571.1172        155.083         1.9542         1.9123       -92.6492      -2.828842      0.9481974
       841.0000       555.9922       154.5093         1.9976         1.9817       -92.2794      -2.459045      0.9713097
       841.5000       554.6406       158.1499         2.0304         2.0252       -91.7012      -1.880844              1
       842.0000       557.4795       162.9265         2.0205         2.0362       -91.1147      -1.294342              1
       842.5000       572.2295       167.7026         1.9792         1.9967       -90.7717     -0.9513397              1
       843.0000       588.2363       171.1516         1.9138         1.8578       -90.4707     -0.6503448              1
       843.5000       609.0078       173.6931         1.7813         1.7158       -90.1895     -0.3691406              1
       844.0000       630.9854       175.0906          1.658         1.5856       -89.9084    -0.08804321              1
       844.5000        654.876        175.844         1.5593         1.4669       -89.7595     0.06085968              1
       845.0000       679.6406       176.2407         1.4869         1.3837       -89.8912    -0.07083893              1
       845.5000       703.2148       175.9614         1.4581         1.3418       -90.2136     -0.3932419              1
       846.0000       715.1641       174.4373         1.4577         1.3178       -90.7129       -0.89254              1
       846.5000       714.1172       170.5752         1.4686         1.3032       -91.5551      -1.734741              1
       847.0000       707.6768       165.5159         1.4942         1.3064        -92.967      -3.146645      0.9283347
       847.5000       701.2373       160.4185         1.5257         1.3602       -95.1997      -5.379341      0.7887912
       848.0000       690.1113       157.0579         1.5611         1.5315       -98.1431      -8.322739      0.6048288
       848.5000       678.5605       154.3813         1.5918         1.7346      -100.5525      -10.73214      0.4542413
       849.0000       668.5264         155.24         1.6174         1.8519      -102.2684      -12.44804      0.3469973
       849.5000       659.4873       157.3672         1.6374         1.8576      -103.3336      -13.51324      0.2804222
       850.0000       650.4492       159.1011         1.6531         1.8313      -103.9569      -14.13654       0.241466
       850.5000       648.0225       160.0012         1.6604         1.7946      -104.4269      -14.60654       0.212091
       851.0000       646.2988       160.2754         1.6588         1.7737      -104.9863      -15.16594      0.1771288
       851.5000       648.6504       159.9216         1.6524         1.7636      -105.7358      -15.91544      0.1302848
       852.0000       651.0029       159.1343         1.6313         1.7608      -106.4043      -16.58394     0.08850384
       852.5000       655.0146       157.8682         1.6101         1.7606      -106.6353      -16.81494     0.07406616
       853.0000       659.1182       156.1738         1.5835         1.7609      -106.0521      -16.23174      0.1105161
       853.5000       663.4443       154.2817         1.5574         1.7529      -105.8297      -16.00934      0.1244164
       854.0000       668.5117        152.584          1.538         1.7226      -105.6145      -15.79414       0.137866
       854.5000       673.5781       151.2021         1.5209         1.6821      -105.3872      -15.56684      0.1520724
       855.0000       675.7109       151.5645         1.5162         1.6407      -105.0476      -15.22724      0.1732974
       855.5000       677.7813       155.4243         1.5205         1.5977       -103.897      -14.07664      0.2452097
       856.0000       676.9883       159.2979          1.545         1.5361      -102.8052      -12.98484      0.3134475
       856.5000       674.0723       162.2014         1.5728         1.4686      -102.4036      -12.58324      0.3385472
       857.0000       671.1553        162.887         1.6026         1.4774       -102.158      -12.33764      0.3538976
       857.5000       664.5791        149.823         1.6331         1.5126      -102.0332      -12.21284      0.3616972
       858.0000       657.4326       113.1061         1.6489         1.5424      -102.1409      -12.32054      0.3549662
       858.5000       656.4258        -999.25         1.6591         1.5584        -102.64      -12.81964      0.3237724
       859.0000       657.3408        94.9631         1.6531         1.5318      -103.0493      -13.22894      0.2981911
       859.5000       666.5635       169.1255         1.6408         1.4453      -103.2517      -13.43134      0.2855411
       860.0000       676.3154       169.6323         1.6237         1.4313      -103.5447      -13.72434      0.2672286
       860.5000       688.0967       163.2368         1.6013         1.5476      -103.7546      -13.93424      0.2541099
       861.0000       699.8789        157.509         1.5869         1.7112      -103.7941      -13.97374      0.2516413
       861.5000       704.6973       156.9119         1.5817         1.7366      -103.2261      -13.40574      0.2871413
       862.0000       705.5381       167.3174         1.5818          1.598      -102.4841      -12.66374      0.3335161
       862.5000       704.2383       171.7305         1.5854          1.392      -101.7753      -11.95494      0.3778162
       863.0000       699.5605       173.7898         1.5913         1.3176       -101.292      -11.47164      0.4080224
       863.5000       694.7432       170.1316         1.6033         1.3181      -101.6289      -11.80854      0.3869662
