#------------------------------------------------------------------------------
# Created by    : vladimir.rabinovich
# Created on    : 09/19/2023 17:20:49
#------------------------------------------------------------------------------
~Version Information Section
VERS.           2.0     :   CWLS log ASCII Standard - VERSION 2.0
WRAP.           NO      :   One line per depth step
~Well Information Section
#MNEM       .UNIT                                         VALUE :DESCRIPTION
#------------------------------------------------------------------------------
STRT        .FT                                             556 :START DEPTH
STOP        .FT                                            7001 :STOP DEPTH
STEP        .FT                                             0.5 :STEP      
NULL        .                                           -999.25 :NULL      
COMP        .                          HUMBLE OIL & REFINING CO :COMPANY   
WELL        .                                     ST TR 00598-L :WELL      
FLD         .                                           WILDCAT :FIELD     
LOC         .                                                   :LOCATION  
CNTY        .                      MATAGORDA ISLAND LARGE BLOCK :LOCATION  
STAT        .                                             TEXAS :STATE     
CTRY        .                                     UNITED STATES :COUNTRY   
SRVC        .                                                   :SERVICE COMPANY
DATE        .                             9/13/2023 11:12:05 AM :LOG DATE  
API         .                                    42703000080000 :API NUMBER
UWI         .                                    42703000080000 :UNIQUE WELL ID
XCOORD      .                                  502144.869554487 :SURFACE X 
YCOORD      .                                  10234432.9570627 :SURFACE Y 
LAT         .                                        28.1568958 :LATITUDE  
LON         .                                       -96.5324651 :LONGITUDE 
ELEV        .FT                                              15 :ELEVATION VALUE
ELEV_TYPE   .                                                KB :ELEVATION REFERENCE TYPE
~Curve Information Section
#MNEM       .UNIT                                      API CODE :CURVE DESCRIPTION
#------------------------------------------------------------------------------
DEPT        .FT                                                 :DEPTH     
ASN         .OHMM                                               :          
CALI        .IN                                                 :          
CILD        .MMHO                                               :          
DT          .US/F                                               :          
ILD         .OHMM                                               :          
SP          .MV                                                 :          
SP_NORM     .MV                                                 :SP Normalized
VSH_SP      .V/V                                                :Volume of Shale from SP
~A        DEPTH            ASN           CALI           CILD             DT            ILD             SP        SP_NORM         VSH_SP
# ...
      1411.5000         0.6595        12.6017       1231.184        175.666         0.6476       -63.2175        -3.9128         0.8696
      1412.0000         0.6521        12.5741       1278.021       178.7888         0.6367       -63.1165        -3.8173      0.8832428
      1412.5000         0.6447        12.5509       1335.963       188.1514         0.6254       -63.1484        -3.8548      0.8778857
      1413.0000         0.6315        12.5345       1403.451       188.6545         0.6139        -63.207        -3.9189      0.8687286
      1413.5000         0.6085        12.5239       1526.484       189.3625         0.5981       -63.2657        -3.9831      0.8595572
      1414.0000         0.5855        12.6356       1577.934       185.6121         0.5823        -63.342        -4.0649      0.8478714
      1414.5000         0.5691        12.8779       1617.748        183.135         0.5668       -63.4409        -4.1694      0.8329428
      1415.0000         0.5626        13.0205       1651.732       185.7915         0.5581       -63.5397        -4.2737      0.8180428
      1415.5000          0.556        13.1015       1697.324       188.6934         0.5493       -63.6386        -4.3781      0.8031286
      1416.0000         0.5495        13.0152       1749.873       191.4292         0.5406       -63.5467        -4.2917      0.8154715
      1416.5000         0.5429        12.9165       1770.762       193.0359         0.5319       -63.2233        -3.9738      0.8608857
      1417.0000          0.541        12.9049       1791.656       185.8201         0.5231       -62.8939          -3.65      0.9071428
      1417.5000         0.5416        12.9452        1797.73       138.5959         0.5144       -62.4504         -3.212      0.9697143
      1418.0000         0.5422        12.9356       1803.035        -999.25         0.5143       -62.0069         -2.774              1
      1418.5000         0.5428        12.8908       1797.223        -999.25         0.5178       -61.6378        -2.4104              1
      1419.0000         0.5434        12.8006       1782.584       161.2834         0.5214       -61.4971        -2.2753              1
      1419.5000          0.544        12.6393       1772.748       189.8572         0.5249       -61.3821        -2.1658              1
      1420.0000         0.5446        12.5502       1764.523       189.5195         0.5284       -61.7749        -2.5641              1
      1420.5000         0.5477        12.7984       1756.299       188.5583         0.5319       -62.1677        -2.9624              1
      1421.0000         0.5532        12.0459       1748.338       187.8381         0.5355       -62.6169        -3.4171      0.9404143
      1421.5000         0.5586        12.0952         1740.6       190.8752          0.539       -63.0266        -3.8324      0.8810857
      1422.0000         0.5641         12.058       1732.861       194.6296         0.5438       -62.7797         -3.591      0.9155714
      1422.5000         0.5695        11.8775       1718.609       192.8174         0.5507       -62.5329        -3.3497      0.9500428
      1423.0000          0.575        11.7475       1698.705       187.7061         0.5576       -62.3322        -3.1545      0.9779286
      1423.5000         0.5804        11.6525       1678.795        185.217         0.5645       -62.1384        -2.9663              1
      1424.0000         0.5867        11.5585       1637.477       183.0435         0.5714       -61.9683        -2.8017              1
      1424.5000         0.5974        11.5629       1587.641       180.0623         0.5783       -62.1107        -2.9496              1
      1425.0000         0.6081         11.728       1539.934       176.0488         0.5852        -62.253        -3.0974      0.9860857
      1425.5000         0.6188        11.8676       1493.254       173.8523         0.5921       -62.3953        -3.2452      0.9649714
      1426.0000         0.6295        11.9931       1450.125       172.9792          0.599       -62.7816        -3.6371      0.9089857
      1426.5000         0.6402        12.1046       1418.703       172.0703          0.607       -63.4304        -4.2914      0.8155143
      1427.0000         0.6509        12.1955       1387.283       171.0037         0.6156       -63.8388        -4.7053      0.7563857
      1427.5000         0.6566        12.2714       1353.324       169.3416         0.6242       -63.8003        -4.6723         0.7611
      1428.0000         0.6612        12.3697       1315.594       164.5779         0.6328       -63.2889        -4.1665      0.8333572
      1428.5000         0.6659        12.3519       1287.396       158.5571         0.6413       -62.8154        -3.6985      0.9002143
      1429.0000         0.6705        12.4391       1275.219       157.0937         0.6499       -62.7028        -3.5914      0.9155143
      1429.5000         0.6752        12.5024       1263.041       155.7046         0.6585       -62.5901        -3.4842      0.9308286
      1430.0000         0.6798        12.5717       1250.861       154.1948         0.6671       -62.5959        -3.4955      0.9292143
      1430.5000         0.6845        12.6026       1239.449       153.1604         0.6756       -62.6529        -3.5581      0.9202715
      1431.0000         0.6874        12.5496        1232.17       156.7678         0.6842       -62.7098        -3.6205      0.9113571
      1431.5000           0.69         12.559       1224.891       165.4895         0.6911       -62.7668         -3.683      0.9024286
      1432.0000         0.6927        12.9281       1217.611       165.2686         0.6979       -62.8285        -3.7502      0.8928286
      1432.5000         0.6953        13.2452       1211.934       166.0942         0.7046       -62.8948         -3.822      0.8825714
      1433.0000         0.6979        13.4866       1206.793       171.2397         0.7114       -62.9611        -3.8939         0.8723
      1433.5000         0.7006        13.4204       1201.652       172.4705         0.7182       -63.0273        -3.9656      0.8620571
      1434.0000         0.7041        13.0058       1196.203       172.2429          0.725       -63.0936        -4.0374         0.8518
      1434.5000         0.7084        12.6756       1188.951       168.6025         0.7318       -63.1334        -4.0827      0.8453286
      1435.0000         0.7126        12.2602       1181.701       162.3247         0.7385       -62.9813        -3.9362      0.8662571
      1435.5000         0.7169         12.105       1174.451       168.1079         0.7453       -62.8293        -3.7897      0.8871857
      1436.0000         0.7211        12.2079       1172.074       167.4517         0.7521       -62.7549        -3.7208      0.8970286
      1436.5000         0.7254        12.6635        1170.01       166.0364         0.7589        -62.843        -3.8144      0.8836572
      1437.0000         0.7296        13.0846       1163.268       172.4951          0.759       -62.9302        -3.9071      0.8704143
      1437.5000         0.7339        13.3857       1154.881       169.1758         0.7578       -63.0169        -3.9994      0.8572286
      1438.0000         0.7414         13.181       1145.039       161.3403         0.7567       -63.1036        -4.0916      0.8440571
      1438.5000         0.7512        12.8811       1132.309       161.6521         0.7555       -63.1346        -4.1281      0.8388429
      1439.0000         0.7609        12.9148       1119.578       158.9333         0.7544       -63.0563        -4.0553      0.8492428
      1439.5000         0.7706        13.0066       1107.021       150.2251         0.7532        -62.978        -3.9826      0.8596286
      1440.0000         0.7803        12.8211       1094.621       152.9512         0.7521       -62.8996        -3.9097      0.8700429
      1440.5000         0.7834        12.6091       1094.721       157.2219          0.751       -62.8213        -3.8369      0.8804429
