#------------------------------------------------------------------------------
# Created by    : vladimir.rabinovich
# Created on    : 09/19/2023 17:20:09
#------------------------------------------------------------------------------
~Version Information Section
VERS.           2.0     :   CWLS log ASCII Standard - VERSION 2.0
WRAP.           NO      :   One line per depth step
~Well Information Section
#MNEM       .UNIT                                         VALUE :DESCRIPTION
#------------------------------------------------------------------------------
STRT        .FT                                            1853 :START DEPTH
STOP        .FT                                            6238 :STOP DEPTH
STEP        .FT                                             0.5 :STEP      
NULL        .                                           -999.25 :NULL      
COMP        .               LOUISIANA LAND & EXPLORATION CO THE :COMPANY   
WELL        .                                          SL 79258 :WELL      
FLD         .                                           WILDCAT :FIELD     
LOC         .                                                   :LOCATION  
CNTY        .                      MATAGORDA ISLAND LARGE BLOCK :LOCATION  
STAT        .                                             TEXAS :STATE     
CTRY        .                                     UNITED STATES :COUNTRY   
SRVC        .                                                   :SERVICE COMPANY
DATE        .                             9/13/2023 11:12:01 AM :LOG DATE  
API         .                                    42703301870000 :API NUMBER
UWI         .                                    42703301870000 :UNIQUE WELL ID
XCOORD      .                                  470651.272343367 :SURFACE X 
YCOORD      .                                  10209272.4173218 :SURFACE Y 
LAT         .                                        28.0852496 :LATITUDE  
LON         .                                       -96.6277134 :LONGITUDE 
ELEV        .FT                                              82 :ELEVATION VALUE
ELEV_TYPE   .                                                KB :ELEVATION REFERENCE TYPE
~Curve Information Section
#MNEM       .UNIT                                      API CODE :CURVE DESCRIPTION
#------------------------------------------------------------------------------
DEPT        .FT                                                 :DEPTH     
ASFL        .OHMM                                               :          
CILD        .MMHO                                               :          
ILD         .OHMM                                               :          
SP          .MV                                                 :          
SP_NORM     .MV                                                 :SP Normalized
VSH_SP      .V/V                                                :Volume of Shale from SP
~A        DEPTH           ASFL           CILD            ILD             SP        SP_NORM         VSH_SP
# ...
      3297.0000         0.9028       2021.461         0.5288      -111.7239      -42.00954     0.08867696
      3297.5000         0.9694       2084.168         0.5102      -111.8287      -42.09835     0.08670332
      3298.0000         0.9852       2181.273         0.4927      -112.4242      -42.67786     0.07382524
      3298.5000         0.9821       2275.234         0.4922      -113.6244      -43.86208     0.04750943
      3299.0000         0.9909       2284.234         0.4917      -115.2843        -45.506     0.01097785
      3299.5000         1.0192       2265.246         0.4912      -117.0911      -47.29681              0
      3300.0000         1.0473       2239.336         0.4908      -118.4182      -48.60792              0
      3300.5000          1.101       2213.438         0.4913      -120.1609      -50.33463              0
      3301.0000         1.1433       2187.637         0.4921      -121.2664      -51.42415              0
      3301.5000         1.1273        2161.91          0.493      -121.8048      -51.94656              0
      3302.0000         1.1029       2136.195         0.4938      -121.6033      -51.72907              0
      3302.5000         1.0894       2110.434         0.4947      -120.2355      -50.34528              0
      3303.0000         1.1195       2069.547         0.4955      -118.8669      -48.96069              0
      3303.5000         1.1662        2028.66         0.5063      -116.5455      -46.62331              0
      3304.0000         1.2039       1974.822         0.5257       -114.123      -44.18483     0.04033712
      3304.5000         1.2378       1871.818         0.5487      -107.7209      -37.76674      0.1829614
      3305.0000         1.2821       1682.617         0.5906      -101.9956      -32.02545      0.3105455
      3305.5000         1.2346       1460.193         0.6325       -97.1876      -27.20146      0.4177453
      3306.0000         1.1651       1409.797         0.6743       -89.9508      -19.94868      0.5789183
      3306.5000         1.1208       1359.254         0.7082       -87.3693       -17.3512      0.6366401
      3307.0000         1.1486       1307.063          0.739       -86.1086       -16.0745      0.6650111
      3307.5000         1.1818       1254.896         0.7699       -86.3615      -16.31142      0.6597461
      3308.0000         1.2189         1217.4         0.8007       -86.6143      -16.54823      0.6544837
      3308.5000         1.2342       1188.025         0.8259       -85.1896      -15.10754       0.686499
      3309.0000         1.2238        1158.65         0.8396       -78.9514      -8.853355       0.825481
      3309.5000         1.2033       1146.457         0.8532       -76.7644      -6.650368      0.8744363
      3310.0000         1.1679       1141.063         0.8669        -75.092       -4.96199      0.9119558
      3310.5000         1.1274       1144.961         0.8654       -73.8494        -3.7034      0.9399245
      3311.0000         1.0698       1154.934         0.8635       -73.1005      -2.938515      0.9569219
      3311.5000         0.9851       1169.234         0.8573       -74.4559      -4.277924      0.9271573
      3312.0000         0.9917       1195.605         0.8384       -75.4866      -5.292641       0.904608
      3312.5000         0.9983       1234.035         0.8181       -76.6276      -6.417656      0.8796076
      3313.0000         1.0049       1272.467         0.7948       -78.8541      -8.628166      0.8304852
      3313.5000         1.0115       1309.986         0.7715       -83.1924      -12.95048      0.7344338
      3314.0000          1.018       1346.918         0.7482       -87.5419      -17.28399      0.6381336
      3314.5000         1.0246        1383.85         0.7294       -89.4823       -19.2084      0.5953688
      3315.0000         1.0331       1420.805         0.7111       -91.2343      -20.94442      0.5567906
      3315.5000         1.0416       1467.025         0.6927       -93.0156      -22.70973      0.5175615
      3316.0000         1.0501       1523.662         0.7063       -94.9056      -24.58375      0.4759167
      3316.5000         1.0586        1551.65         0.7207       -97.6462      -27.30836      0.4153698
      3317.0000         1.0671        1517.74         0.7326       -98.8204      -28.46657      0.3896318
      3317.5000         1.0755        1484.68         0.7444       -93.7368      -23.36698       0.502956
      3318.0000          1.084       1461.385         0.7562       -91.3907       -21.0049      0.5554467
      3318.5000         1.0926        1438.08          0.768       -89.0435      -18.64172      0.6079619
      3319.0000         1.1012        1410.73         0.7799       -84.8542      -14.43642      0.7014128
      3319.5000         1.1084       1275.549         0.7897       -80.7958      -10.36204      0.7919547
      3320.0000         1.0941       1249.479          0.798       -76.1849      -5.735146      0.8947746
      3320.5000         1.0681       1223.408         0.8063        -77.149      -6.683266      0.8737052
      3321.0000         1.0385       1203.824         0.8146       -79.2479      -8.766182      0.8274182
      3321.5000          1.009       1193.965         0.8223        -78.123       -7.62529      0.8527713
      3322.0000         0.9837       1207.977         0.8195       -76.0371      -5.523407      0.8994799
      3322.5000         0.9591        1221.99         0.8167       -74.4141      -3.884415      0.9359019
      3323.0000         0.9344        1237.66         0.8139       -73.2163      -2.670631      0.9628748
      3323.5000         0.9104       1261.975         0.8027        -72.582      -2.020348      0.9773256
      3324.0000         0.8867       1286.275         0.7886       -72.7159      -2.138252      0.9747055
      3324.5000         0.8656       1310.576         0.7746         -72.85      -2.256371      0.9720806
      3325.0000         0.8482        1342.15         0.7606       -72.9839      -2.374283      0.9694604
      3325.5000         0.8307       1377.756         0.7459       -74.5693      -3.943695      0.9345846
      3326.0000         0.8207       1419.797         0.7271       -75.6949      -5.053307      0.9099265
      3326.5000         0.8137       1477.566         0.7084       -75.8669       -5.20932      0.9064596
      3327.0000         0.8067       1547.029         0.6896       -73.2484      -2.589714       0.964673
      3327.5000         0.8253       1607.637          0.696       -71.6783      -1.019615      0.9995641
      3328.0000         0.8644       1579.316         0.7274       -71.9156       -1.25692      0.9942906
      3328.5000         0.9035       1521.475         0.7587       -72.9858      -2.327118      0.9705085
      3329.0000         0.9263       1442.207         0.7901       -73.5288      -2.870117      0.9584419
      3329.5000         0.9411       1369.672         0.8247       -73.8464      -3.187714      0.9513841
      3330.0000         0.9559        1300.33         0.8671       -74.0571      -3.398415      0.9467019
      3330.5000         0.9707       1246.469         0.9094       -74.4893       -3.83062      0.9370973
      3331.0000         0.9856       1203.051         0.9528        -75.015      -4.356316      0.9254152
      3331.5000         0.9671       1255.266         0.9501       -76.8014      -6.142715      0.8857175
      3332.0000         0.9326       1322.543         0.8371       -85.4263      -14.76762       0.694053
      3332.5000          0.892       1390.164         0.7353       -90.0076      -19.34892      0.5922464
      3333.0000         0.8175       1568.752         0.6431       -96.2755      -25.61681      0.4529597
      3333.5000         0.7685        1693.92         0.5645       -96.2318      -25.57311      0.4539308
      3334.0000         0.7497        1820.17         0.5873        -92.488      -21.82932      0.5371263
      3334.5000         0.8909        1888.43         0.6144       -87.8586      -17.19991       0.640002
