#------------------------------------------------------------------------------
# Created by    : vladimir.rabinovich
# Created on    : 09/19/2023 17:20:46
#------------------------------------------------------------------------------
~Version Information Section
VERS.           2.0     :   CWLS log ASCII Standard - VERSION 2.0
WRAP.           NO      :   One line per depth step
~Well Information Section
#MNEM       .UNIT                                         VALUE :DESCRIPTION
#------------------------------------------------------------------------------
STRT        .FT                                             695 :START DEPTH
STOP        .FT                                            9139 :STOP DEPTH
STEP        .FT                                             0.5 :STEP      
NULL        .                                           -999.25 :NULL      
COMP        .                   COASTAL STATES GAS TRANSMISSION :COMPANY   
WELL        .                                     ST TR 00592-L :WELL      
FLD         .                                           WILDCAT :FIELD     
LOC         .                                                   :LOCATION  
CNTY        .                      MATAGORDA ISLAND LARGE BLOCK :LOCATION  
STAT        .                                             TEXAS :STATE     
CTRY        .                                     UNITED STATES :COUNTRY   
SRVC        .                                                   :SERVICE COMPANY
DATE        .                             9/13/2023 11:12:01 AM :LOG DATE  
API         .                                    42703000420000 :API NUMBER
UWI         .                                    42703000420000 :UNIQUE WELL ID
XCOORD      .                                  562172.631053371 :SURFACE X 
YCOORD      .                                   10240692.584136 :SURFACE Y 
LAT         .                                        28.1787665 :LATITUDE  
LON         .                                       -96.3469802 :LONGITUDE 
ELEV        .FT                                              11 :ELEVATION VALUE
ELEV_TYPE   .                                                KB :ELEVATION REFERENCE TYPE
~Curve Information Section
#MNEM       .UNIT                                      API CODE :CURVE DESCRIPTION
#------------------------------------------------------------------------------
DEPT        .FT                                                 :DEPTH     
ASN         .OHMM                                               :          
CALI        .IN                                                 :          
CILD        .MMHO                                               :          
DT          .US/F                                               :          
ILD         .OHMM                                               :          
SP          .MV                                                 :          
SP_NORM     .MV                                                 :SP Normalized
VSH_SP      .V/V                                                :Volume of Shale from SP
~A        DEPTH            ASN           CALI           CILD             DT            ILD             SP        SP_NORM         VSH_SP
# ...
      2937.0000         0.8889        15.6499       2273.066       140.5186         0.6276       -81.9088        -32.807     0.06450003
      2937.5000          0.846        15.7536       2506.648       149.7527         0.5685       -82.7284       -33.6266     0.04039405
      2938.0000         0.7743        15.8572       2629.758       150.6538         0.5196       -82.2239       -33.1221     0.05523233
      2938.5000         0.7242        15.9557       2690.773        156.645         0.4892        -81.743       -32.6412     0.06937655
      2939.0000          0.673        15.9684       2688.707       157.7556         0.5052       -81.5413       -32.4395     0.07530886
      2939.5000          0.623        15.9811       2572.621       159.5229         0.5355       -81.3395       -32.2377     0.08124407
      2940.0000         0.5948        15.9919       2451.953       160.4219         0.5675       -77.5098        -28.408      0.1938822
      2940.5000         0.6059        15.9975       2313.859       162.1484         0.5994       -72.3098        -23.208      0.3468235
      2941.0000         0.6271        15.9965       2204.824       165.1099         0.6313       -70.1487       -21.0469      0.4103854
      2941.5000         0.6499        15.9944           1853       163.7505         0.6633       -68.1334       -19.0316      0.4696588
      2942.0000         0.6695        15.9924       1556.908       162.5557         0.6955       -65.3824       -16.2806      0.5505705
      2942.5000         0.6915        15.9903       1399.273       166.0063         0.7277       -62.9037       -13.8019      0.6234735
      2943.0000         0.7164        15.9882        1241.74       168.8242           0.76        -61.182       -12.0802      0.6741118
      2943.5000         0.7478        15.9862       1137.188       172.6272         0.7922       -59.6829       -10.5811      0.7182029
      2944.0000          0.766        15.9841       1088.184       173.8374         0.8244       -58.9069      -9.805099      0.7410265
      2944.5000         0.7827         15.982       1024.828       171.7871         0.8742       -58.5261      -9.424301      0.7522264
      2945.0000         0.7998          15.98       984.1357       169.4817         0.9246       -58.3362      -9.234402      0.7578117
      2945.5000         0.8169        15.9779       949.2725       167.5911         0.9751       -58.1464      -9.044601      0.7633941
      2946.0000          0.831        15.9758       927.6162       166.9263         1.0223       -57.9564      -8.854603      0.7689823
      2946.5000         0.8412        15.9738       911.0215       167.2681         1.0694        -57.976      -8.874203      0.7684058
      2947.0000         0.8515        15.9717       895.1387       167.5608         1.0926       -58.0164        -8.9146      0.7672176
      2947.5000         0.8649        15.9697       881.2451       163.8767         1.1066       -58.0568      -8.955002      0.7660294
      2948.0000         0.8801        15.9673       867.3516       161.8796         1.1155       -58.0972      -8.995399      0.7648412
      2948.5000          0.895        15.9648       866.7158       158.7349         1.1068       -58.2914      -9.189602      0.7591293
      2949.0000         0.9089        15.9623       889.1768        153.229         1.0662       -58.5439      -9.442101      0.7517029
      2949.5000         0.9234        15.9383       911.6514       150.3708         1.0192       -58.8483      -9.746502      0.7427499
      2950.0000          0.933         15.697       969.0771       146.3154         0.9422       -59.4784       -10.3766      0.7242176
      2950.5000         0.9221        15.1421        1116.84       141.2913         0.8801       -60.1084       -11.0066      0.7056882
      2951.0000          0.904        14.9693       1224.768       136.2668         0.8396       -60.8706       -11.7688      0.6832705
      2951.5000         0.8859        14.8558       1361.402       132.3867          0.799       -61.7385       -12.6367      0.6577441
      2952.0000         0.8663        14.7085       1511.986       127.7736         0.7586       -62.6063       -13.5045      0.6322206
      2952.5000         0.8423        14.7418       1598.357       121.7018         0.7218       -63.6146       -14.5128      0.6025646
      2953.0000         0.8184        15.2084        1636.23       119.8873         0.6849       -65.2582       -16.1564      0.5542235
      2953.5000         0.7988        15.6157       1686.934       123.8512         0.6683        -66.756       -17.6542      0.5101706
      2954.0000         0.7795        15.8743       1710.371       129.8435         0.6548       -68.2152       -19.1134      0.4672529
      2954.5000         0.7586         15.914       1726.529       133.5776         0.6566         -69.98       -20.8782      0.4153469
      2955.0000         0.7302        15.9254       1654.814       141.4719         0.6748       -69.6261       -20.5243      0.4257559
      2955.5000         0.7433        15.9303       1495.316       138.9512         0.6937       -68.6147       -19.5129      0.4555029
      2956.0000         0.7563        15.9349       1418.828       136.6704         0.7148       -67.6033       -18.5015      0.4852499
      2956.5000         0.7694        15.9327        1384.77       132.2405         0.7358       -66.5918         -17.49          0.515
      2957.0000         0.7785        15.9284       1350.713       128.7095         0.7568       -64.7522       -15.6504      0.5691059
      2957.5000         0.7848        15.8803        1311.24       131.8752         0.7799       -62.7661       -13.6643      0.6275205
      2958.0000         0.7911        15.7603       1270.496       142.8735         0.8051       -60.7964       -11.6946      0.6854529
      2958.5000         0.7951        15.4251       1227.865       146.9048         0.8303       -58.8204      -9.718601      0.7435706
      2959.0000         0.7986        15.2995       1184.377       152.5605         0.8555       -56.8432      -7.741402      0.8017235
      2959.5000         0.8021        15.4818       1148.619        155.376          0.873       -55.0207        -5.9189      0.8553265
      2960.0000          0.804         15.792       1120.316        156.999         0.8871       -53.3054      -4.203602      0.9057764
      2960.5000         0.8048        15.9466           1099        152.041         0.9012       -51.6896      -2.587803      0.9532999
      2961.0000         0.8032        15.9528       1080.031       150.8933          0.927       -50.6559        -1.5541       0.983703
      2961.5000         0.8001        15.9587       1064.836       149.9851         0.9757       -50.0481     -0.9463005              1
      2962.0000          0.797        15.9638       1052.686       151.9761         0.9837        -49.419     -0.3171997              1
      2962.5000         0.7927        15.9689       1040.309       153.9526         0.9893       -48.8093      0.2924995              1
      2963.0000         0.7884         15.974       1053.535       159.5657         0.9744       -48.2941      0.8076973              1
      2963.5000         0.7841         15.976       1071.539       159.1299         0.9594       -47.7788       1.322998              1
      2964.0000         0.7801         15.974       1089.557       158.5107         0.9445       -47.5247       1.577099              1
      2964.5000         0.7762        15.9719       1106.189       157.8914         0.9322       -47.2759       1.825897              1
      2965.0000         0.7723        15.9699       1121.191       158.6667         0.9254        -47.124       1.977798              1
      2965.5000         0.7685        15.9673       1136.199       164.5132         0.9187       -47.1256         1.9762              1
      2966.0000         0.7645        15.9635       1150.363       168.9319         0.9119       -47.1272       1.974598              1
