#------------------------------------------------------------------------------
# Created by    : vladimir.rabinovich
# Created on    : 09/19/2023 17:20:49
#------------------------------------------------------------------------------
~Version Information Section
VERS.           2.0     :   CWLS log ASCII Standard - VERSION 2.0
WRAP.           NO      :   One line per depth step
~Well Information Section
#MNEM       .UNIT                                         VALUE :DESCRIPTION
#------------------------------------------------------------------------------
STRT        .FT                                             556 :START DEPTH
STOP        .FT                                            7001 :STOP DEPTH
STEP        .FT                                             0.5 :STEP      
NULL        .                                           -999.25 :NULL      
COMP        .                          HUMBLE OIL & REFINING CO :COMPANY   
WELL        .                                     ST TR 00598-L :WELL      
FLD         .                                           WILDCAT :FIELD     
LOC         .                                                   :LOCATION  
CNTY        .                      MATAGORDA ISLAND LARGE BLOCK :LOCATION  
STAT        .                                             TEXAS :STATE     
CTRY        .                                     UNITED STATES :COUNTRY   
SRVC        .                                                   :SERVICE COMPANY
DATE        .                             9/13/2023 11:12:05 AM :LOG DATE  
API         .                                    42703000080000 :API NUMBER
UWI         .                                    42703000080000 :UNIQUE WELL ID
XCOORD      .                                  502144.869554487 :SURFACE X 
YCOORD      .                                  10234432.9570627 :SURFACE Y 
LAT         .                                        28.1568958 :LATITUDE  
LON         .                                       -96.5324651 :LONGITUDE 
ELEV        .FT                                              15 :ELEVATION VALUE
ELEV_TYPE   .                                                KB :ELEVATION REFERENCE TYPE
~Curve Information Section
#MNEM       .UNIT                                      API CODE :CURVE DESCRIPTION
#------------------------------------------------------------------------------
DEPT        .FT                                                 :DEPTH     
ASN         .OHMM                                               :          
CALI        .IN                                                 :          
CILD        .MMHO                                               :          
DT          .US/F                                               :          
ILD         .OHMM                                               :          
SP          .MV                                                 :          
SP_NORM     .MV                                                 :SP Normalized
VSH_SP      .V/V                                                :Volume of Shale from SP
~A        DEPTH            ASN           CALI           CILD             DT            ILD             SP        SP_NORM         VSH_SP
# ...
      5689.0000         0.6666         8.4069       2128.156       108.6497         0.5256       -58.3077       -18.9428         0.1932
      5689.5000         0.6877         8.4364       2001.625       109.0408         0.6126       -57.1183        -17.755      0.2497619
      5690.0000         0.7353          8.453       2019.334       109.6158         0.6997       -54.3439       -14.9823      0.3817953
      5690.5000         0.7867         8.4536       1438.504       107.2271         0.7456       -53.3337       -13.9737      0.4298238
      5691.0000         0.8548         8.4528       1230.361       106.0819         0.7347       -52.5062       -13.1479      0.4691476
      5691.5000         0.9559         8.4507       1297.357        104.348         0.7164       -52.0729       -12.7162      0.4897048
      5692.0000         0.9517         8.4472       1359.955       101.7985         0.6704       -52.3013       -12.9463      0.4787476
      5692.5000          0.909         8.4466       1428.063         99.598         0.6243       -53.9274        -14.574      0.4012381
      5693.0000         0.8587         8.4494       1588.545        97.6783         0.5783       -54.8628       -15.5111      0.3566143
      5693.5000         0.8046         8.4745       2189.254        97.0934         0.5322       -55.6367       -16.2866      0.3196857
      5694.0000          0.763         8.5347       2199.695        97.2766         0.5361       -56.3985       -17.0501      0.2833286
      5694.5000         0.7328         8.5714       2064.254        98.6077         0.5521       -57.1524       -17.8056      0.2473524
      5695.0000         0.7216         8.5818       1956.188       100.8417         0.5681       -57.9191        -18.574      0.2107619
      5695.5000         0.7444         8.5783       1999.313       102.6965         0.5841       -58.3861       -19.0427      0.1884429
      5696.0000          0.798         8.5789       1957.172       104.0437         0.6191       -58.6713       -19.3295      0.1747857
      5696.5000         1.0221         8.5821       1770.297       105.0129         0.6689       -58.5055       -19.1654         0.1826
      5697.0000          1.184         8.5861       1621.416        102.709         0.7187       -58.3397       -19.0012      0.1904191
      5697.5000         1.1611          8.632       1513.428        90.5046         0.7685       -58.1569       -18.8201      0.1990428
      5698.0000         1.1127         8.7117       1412.498        77.8511         0.8199       -57.8965       -18.5613      0.2113667
      5698.5000         1.0824         8.6702       1223.883        73.4441         0.8849       -57.6359       -18.3024      0.2236952
      5699.0000         1.0549         8.5722       1095.014        77.0728           0.95       -57.3752       -18.0433      0.2360333
      5699.5000         1.0326         8.5723       1019.559        88.6385          1.015       -57.1656       -17.8354      0.2459334
      5700.0000          1.016         8.5793       955.7529        93.0492          1.078       -56.9711       -17.6425      0.2551191
      5700.5000         1.0386         8.5839       891.4629        97.5424         1.1384       -56.7764       -17.4495      0.2643096
      5701.0000         1.0827         8.5873       826.8838         98.035         1.1987         -56.58       -17.2547      0.2735857
      5701.5000         1.1394         8.5908       763.2705        96.3673         1.2532       -55.8882       -16.5646      0.3064476
      5702.0000         1.1974         8.5938       714.0625        94.0696         1.2908       -55.1971       -15.8751      0.3392809
      5702.5000         1.3787         8.5954       675.1992        92.4891          1.293       -53.8909       -14.5706         0.4014
      5703.0000         1.3538         8.5963       650.5469        90.5894         1.2486       -49.6113       -10.2926      0.6051143
      5703.5000         1.2621         8.6676       749.7842        88.4763         1.2041       -48.0134        -8.6964      0.6811239
      5704.0000         1.1543         8.7684       837.2764        90.5396         1.1077       -47.2193        -7.9039      0.7188619
      5704.5000         1.0549         8.7727       931.3418        95.4741         0.9984       -46.6694        -7.3557      0.7449667
      5705.0000         0.9409         8.7752        1007.16       101.9506         0.8891       -46.0306        -6.7185      0.7753095
      5705.5000         0.8503         8.7823       1021.685       110.3555         0.7797       -45.5331        -6.2227       0.798919
      5706.0000         0.7438         8.7879           1223       111.0983         0.6699       -46.0977        -6.7889      0.7719572
      5706.5000         0.6657         8.7844         1674.5       109.0045         0.5603       -47.2388        -7.9317      0.7175381
      5707.0000         0.6154         8.7808       2341.035       108.2374         0.4911       -49.5479       -10.2424      0.6075047
      5707.5000         0.5785         8.7716       2886.289       107.5417         0.4526        -54.814       -15.5102      0.3566572
      5708.0000         0.5492         8.7359       3499.602       106.6021          0.414       -57.8295       -18.5273      0.2129857
      5708.5000         0.5251         8.5999       3676.859       105.1682         0.3882       -58.9457       -19.6452      0.1597523
      5709.0000         0.5097         8.5286       3634.516       106.0146         0.3733       -59.7294       -20.4305      0.1223571
      5709.5000          0.504         8.4993       3581.004       106.8616         0.3584       -60.3774       -21.0802     0.09141904
      5710.0000         0.5174          8.492       3495.445       108.0042         0.3435       -60.6683       -21.3727     0.07749049
      5710.5000         0.5524         8.5039       3341.828       107.4515         0.3345       -60.6063       -21.3124     0.08036187
      5711.0000         0.6084         8.5298       3095.594        98.3182         0.3405       -60.5441       -21.2518     0.08324759
      5711.5000         0.6577          8.566       3017.961        83.5093         0.3465       -60.4821       -21.1915     0.08611906
      5712.0000           0.61         8.5824       2932.984        72.2129         0.3525       -60.4199       -21.1309     0.08900479
      5712.5000         0.5884          8.586       2832.781        60.1656         0.3585       -60.2847       -20.9974     0.09536189
      5713.0000         0.5669         8.5527       2792.078        62.9224           0.37       -60.1356       -20.8499      0.1023857
      5713.5000         0.5547         8.5263       2812.719        73.9792         0.3892        -59.984          -20.7      0.1095238
      5714.0000         0.5425          8.504       2844.648        97.5847         0.4085       -59.4816       -20.1992      0.1333714
      5714.5000         0.5337          8.508       2890.641       108.3472         0.4277       -58.9799       -19.6992       0.157181
      5715.0000         0.5435         8.5538       2861.008       116.3455          0.447       -56.7864       -17.5073      0.2615572
      5715.5000         0.5949         8.5996           2644       116.8307         0.4662       -57.3126       -18.0352       0.236419
      5716.0000          0.856         8.6054       1906.609       116.5765         0.4855       -57.8381       -18.5623      0.2113191
      5716.5000         0.9742         8.6141       1732.787       116.4901         0.5343       -58.1774       -18.9033       0.195081
      5717.0000         1.0133         8.6889       1528.414       103.0981         0.5953       -58.2485        -18.976      0.1916191
      5717.5000         1.0205         8.7325       1239.063        85.0859         0.6564       -57.5513       -18.2805      0.2247381
      5718.0000         1.0179         8.7324       1191.496         72.123         0.7173        -56.446       -17.1768      0.2772953
