#------------------------------------------------------------------------------
# Created by    : vladimir.rabinovich
# Created on    : 09/19/2023 17:20:49
#------------------------------------------------------------------------------
~Version Information Section
VERS.           2.0     :   CWLS log ASCII Standard - VERSION 2.0
WRAP.           NO      :   One line per depth step
~Well Information Section
#MNEM       .UNIT                                         VALUE :DESCRIPTION
#------------------------------------------------------------------------------
STRT        .FT                                            2010 :START DEPTH
STOP        .FT                                            6610 :STOP DEPTH
STEP        .FT                                             0.5 :STEP      
NULL        .                                           -999.25 :NULL      
COMP        .                                      SHELL OIL CO :COMPANY   
WELL        .                                ST TR 00691-L SE/4 :WELL      
FLD         .                                           WILDCAT :FIELD     
LOC         .                                                   :LOCATION  
CNTY        .                      MATAGORDA ISLAND LARGE BLOCK :LOCATION  
STAT        .                                             TEXAS :STATE     
CTRY        .                                     UNITED STATES :COUNTRY   
SRVC        .                                                   :SERVICE COMPANY
DATE        .                             9/13/2023 11:12:05 AM :LOG DATE  
API         .                                    42703000190000 :API NUMBER
UWI         .                                    42703000190000 :UNIQUE WELL ID
XCOORD      .                                  412077.623085271 :SURFACE X 
YCOORD      .                                  10154908.2726125 :SURFACE Y 
LAT         .                                        27.9310704 :LATITUDE  
LON         .                                         -96.80379 :LONGITUDE 
ELEV        .FT                                              82 :ELEVATION VALUE
ELEV_TYPE   .                                                DF :ELEVATION REFERENCE TYPE
~Curve Information Section
#MNEM       .UNIT                                      API CODE :CURVE DESCRIPTION
#------------------------------------------------------------------------------
DEPT        .FT                                                 :DEPTH     
ASN         .OHMM                                               :          
CILD        .MMHO                                               :          
ILD         .OHMM                                               :          
SP          .MV                                                 :          
SP_NORM     .MV                                                 :SP Normalized
VSH_SP      .V/V                                                :Volume of Shale from SP
~A        DEPTH            ASN           CILD            ILD             SP        SP_NORM         VSH_SP
# ...
      3834.0000         0.3533       4035.969         0.2794      -103.1497       -38.9987     0.07503252
      3834.5000         0.3453       4005.922         0.2785      -102.5265       -38.3755     0.09061251
      3835.0000         0.3382       3926.891         0.2777      -101.9032       -37.7523      0.1061925
      3835.5000         0.3312       3843.141         0.2768      -101.2683       -37.1174       0.122065
      3836.0000         0.3242        3862.59         0.2759      -100.6334       -36.4825      0.1379375
      3836.5000         0.3173       3909.445          0.277       -99.9988       -35.8479      0.1538025
      3837.0000         0.3103       3998.813         0.2843       -99.3406       -35.1897      0.1702575
      3837.5000         0.3033       4096.188         0.2915       -98.6703       -34.5194       0.187015
      3838.0000         0.2961       4281.227         0.2988            -98       -33.8491      0.2037725
      3838.5000         0.2885       4336.031          0.306       -97.1669        -33.016         0.2246
      3839.0000         0.3007       4296.391         0.3133       -96.2775       -32.1265      0.2468375
      3839.5000         0.3163       4142.547         0.3228       -95.2941       -31.1432        0.27142
      3840.0000         0.3357       4050.375         0.3323       -94.7778       -30.6269      0.2843275
      3840.5000         0.3551       3974.551         0.3418       -95.6924       -31.5415      0.2614625
      3841.0000         0.3745       3689.754         0.3513       -96.7434       -32.5925      0.2351875
      3841.5000         0.3939       3404.957         0.3608       -97.7692       -33.6183      0.2095425
      3842.0000         0.4147       3119.961         0.3729       -98.7416       -34.5907      0.1852325
      3842.5000         0.4456       2835.164         0.3887       -99.7133       -35.5624        0.16094
      3843.0000         0.4766       2650.434         0.4045      -100.6746       -36.5237      0.1369075
      3843.5000         0.5078       2620.379         0.4203      -101.6304       -37.4795      0.1130125
      3844.0000         0.5476       2599.543         0.4361      -102.5836       -38.4327     0.08918247
      3844.5000         0.5874       2580.215         0.4519      -103.4644       -39.3135     0.06716251
      3845.0000         0.6707       2478.625         0.4729      -104.3458       -40.1949     0.04512749
      3845.5000         0.7518       2336.719         0.4978      -104.3661       -40.2151     0.04462252
      3846.0000         0.8005       2253.234         0.5227      -103.7542       -39.6033     0.05991755
      3846.5000          0.847         2070.5         0.5476      -103.1423       -38.9914     0.07521496
      3847.0000          1.189       1949.768         0.5725      -102.5302       -38.3792        0.09052
      3847.5000         1.2547       1892.539         0.6372      -101.9121       -37.7612        0.10597
      3848.0000         1.3226       1685.547         0.7061      -101.2849       -37.1339      0.1216525
      3848.5000         1.3854       1478.555         0.7778       -99.9573       -35.8064        0.15484
      3849.0000         1.4343       1271.561          0.861       -93.8835       -29.7326       0.306685
      3849.5000         1.4848       1064.568         0.9443       -91.5638       -27.4128        0.36468
      3850.0000         1.5433       946.1475          1.036       -89.1165       -24.9656        0.42586
      3850.5000         1.6372       911.9424         1.1545       -88.1979        -24.047       0.448825
      3851.0000         1.8012       893.0908         1.2645       -89.0679        -24.917       0.427075
      3851.5000         1.9652        874.251         1.3549       -90.0592       -25.9082       0.402295
      3852.0000          2.001       838.3936         1.4452       -91.0513       -26.9004        0.37749
      3852.5000         2.1433       799.3691         1.5265       -91.7402       -27.5892        0.36027
      3853.0000         2.2229       759.6582         1.5561       -91.9707       -27.8198       0.354505
      3853.5000         2.3041       703.9219         1.4593       -91.5482       -27.3973      0.3650675
      3854.0000         2.3853       707.8369         1.2968        -91.158        -27.007       0.374825
      3854.5000         2.4404       843.1895         1.1131       -90.7937       -26.6428        0.38393
      3855.0000         2.4303       978.6396              1       -90.6647       -26.5138       0.387155
      3855.5000         2.1631        1114.09         0.9259       -91.5079       -27.3569      0.3660775
      3856.0000          2.001       1249.541         0.8197       -92.7471       -28.5962       0.335095
      3856.5000         1.7426        1384.99         0.7054       -94.4526       -30.3017      0.2924575
      3857.0000         1.4539       1520.344         0.6299       -97.1055       -32.9546       0.226135
      3857.5000         1.1649       1655.795         0.5408       -98.4453       -34.2943      0.1926425
      3858.0000         0.8762        2061.02         0.4629       -99.7705       -35.6196        0.15951
      3858.5000         0.7085        2325.07         0.4248      -100.8965       -36.7456        0.13136
      3859.0000         0.6636       2588.926         0.4049      -102.0225       -37.8716        0.10321
      3859.5000         0.6225       2852.781         0.4047      -102.8774       -38.7265     0.08183746
      3860.0000           0.61       3108.949         0.4044      -103.6771       -39.5262     0.06184502
      3860.5000         0.6185        3048.91         0.4042      -104.3745       -40.2235     0.04441252
      3861.0000         0.6268       2988.914         0.4039      -104.5502       -40.3993     0.04001751
      3861.5000         0.6348       2928.871         0.4084      -104.7256       -40.5747     0.03563251
      3862.0000         0.6429       2868.879         0.4148      -104.8206       -40.6697     0.03325748
      3862.5000          0.651       2808.836         0.4213      -104.5867       -40.4358     0.03910504
      3863.0000         0.6591       2748.844         0.4278       -104.353        -40.202     0.04495001
      3863.5000         0.6671       2688.801         0.4342      -104.1193       -39.9684     0.05079002
      3864.0000         0.6752       2628.805         0.4407      -103.6415       -39.4906     0.06273498
      3864.5000         0.6843       2568.766         0.4442      -102.9604       -38.8095     0.07976246
      3865.0000         0.6933        2508.77         0.4404      -102.2788       -38.1279     0.09680252
      3865.5000         0.7024       2482.836         0.4365      -101.5978       -37.4469      0.1138275
      3866.0000         0.7114       2633.457         0.4327      -100.8485       -36.6976        0.13256
      3866.5000         0.7142       2784.074         0.4289      -100.0502       -35.8993      0.1525175
      3867.0000         0.6504       2934.598         0.4174       -99.2517       -35.1008        0.17248
      3867.5000         0.6004       3085.219         0.4052       -98.6008       -34.4499      0.1887525
      3868.0000          0.573        3235.84         0.3929       -98.9204       -34.7695      0.1807625
      3868.5000         0.5456       3386.457         0.3807       -99.8337       -35.6828        0.15793
      3869.0000         0.5191       3537.078         0.3685      -100.7465       -36.5956        0.13511
      3869.5000         0.4995       3687.699         0.3553      -101.5615       -37.4106       0.114735
      3870.0000         0.4798        3838.32         0.3404      -102.3033       -38.1524     0.09618998
      3870.5000         0.4602       3958.344         0.3255      -103.0446       -38.8937     0.07765751
      3871.0000         0.4455       4001.594         0.3107      -103.6593       -39.5084        0.06229
      3871.5000         0.4313       4090.668         0.2958      -104.0059       -39.8549     0.05362749
