#------------------------------------------------------------------------------
# Created by    : vladimir.rabinovich
# Created on    : 09/19/2023 17:19:56
#------------------------------------------------------------------------------
~Version Information Section
VERS.           2.0     :   CWLS log ASCII Standard - VERSION 2.0
WRAP.           NO      :   One line per depth step
~Well Information Section
#MNEM       .UNIT                                         VALUE :DESCRIPTION
#------------------------------------------------------------------------------
STRT        .FT                                             748 :START DEPTH
STOP        .FT                                            7997 :STOP DEPTH
STEP        .FT                                             0.5 :STEP      
NULL        .                                           -999.25 :NULL      
COMP        .                                        EXXON CORP :COMPANY   
WELL        .                                     ST TR 00560-L :WELL      
FLD         .                                           WILDCAT :FIELD     
LOC         .                                                   :LOCATION  
CNTY        .                      MATAGORDA ISLAND LARGE BLOCK :LOCATION  
STAT        .                                             TEXAS :STATE     
CTRY        .                                     UNITED STATES :COUNTRY   
SRVC        .                                                   :SERVICE COMPANY
DATE        .                             9/13/2023 11:19:05 AM :LOG DATE  
API         .                                    42703302000000 :API NUMBER
UWI         .                                    42703302000000 :UNIQUE WELL ID
XCOORD      .                                  556028.985600478 :SURFACE X 
YCOORD      .                                   10283706.324983 :SURFACE Y 
LAT         .                                        28.2964478 :LATITUDE  
LON         .                                       -96.3697382 :LONGITUDE 
ELEV        .FT                                              92 :ELEVATION VALUE
ELEV_TYPE   .                                                KB :ELEVATION REFERENCE TYPE
~Curve Information Section
#MNEM       .UNIT                                      API CODE :CURVE DESCRIPTION
#------------------------------------------------------------------------------
DEPT        .FT                                                 :DEPTH     
ASFL        .OHMM                                               :          
CILD        .MMHO                                               :          
DT          .US/F                                               :          
GR          .GAPI                                               :          
GR_NORM     .GAPI                                               :GammaRay Normalized
ILD         .OHMM                                               :          
SP          .MV                                                 :          
SP_NORM     .MV                                                 :SP Normalized
VSH_GR      .V/V                                                :Volume of Shale from GR
VSH_SP      .V/V                                                :Volume of Shale from SP
~A        DEPTH           ASFL           CILD             DT             GR        GR_NORM            ILD             SP        SP_NORM         VSH_GR         VSH_SP
# ...
      6530.0000         0.9202       1199.051        -999.25        -999.25        -999.25         0.8045       -54.6783      -3.181293        -999.25      0.9394085
      6530.5000         0.9088       1214.736        -999.25        -999.25        -999.25         0.7805       -53.0162      -1.519196        -999.25      0.9855779
      6531.0000         0.9038        1225.59        -999.25        -999.25        -999.25         0.7681       -51.6981     -0.2010956        -999.25              1
      6531.5000         0.8988       1230.801        -999.25        -999.25        -999.25         0.7683       -51.5166     -0.0195961        -999.25              1
      6532.0000         0.8939       1236.008        -999.25        -999.25        -999.25         0.7685       -51.3351      0.1619072        -999.25              1
      6532.5000         0.8889       1241.221        -999.25        -999.25        -999.25         0.7687       -51.1613      0.3357048        -999.25              1
      6533.0000         0.8839       1246.426        -999.25        -999.25        -999.25         0.7691       -51.1377      0.3593063        -999.25              1
      6533.5000         0.8787       1251.639        -999.25        -999.25        -999.25         0.7713       -51.1141      0.3829041        -999.25              1
      6534.0000         0.8729       1256.846        -999.25        -999.25        -999.25         0.7734       -51.0904      0.4066048        -999.25              1
      6534.5000         0.8671        1267.74        -999.25        -999.25        -999.25         0.7756       -51.2962      0.2008057        -999.25              1
      6535.0000         0.8612       1279.635        -999.25        -999.25        -999.25         0.7763       -51.6458     -0.1487961        -999.25              1
      6535.5000         0.8554       1291.539        -999.25        -999.25        -999.25         0.7685       -51.9954      -0.498394        -999.25              1
      6536.0000         0.8496       1303.434        -999.25        -999.25        -999.25         0.7607       -52.2272     -0.7301941        -999.25              1
      6536.5000         0.8429       1315.338        -999.25        -999.25        -999.25         0.7529       -52.4152     -0.9181938        -999.25              1
      6537.0000         0.8359        1327.23        -999.25        -999.25        -999.25          0.745       -52.6032      -1.106194        -999.25      0.9970502
      6537.5000         0.8289       1338.023        -999.25        -999.25        -999.25         0.7368       -52.7914      -1.294395        -999.25      0.9918224
      6538.0000         0.8218       1348.729        -999.25        -999.25        -999.25         0.7283       -52.9794      -1.482395        -999.25      0.9866002
      6538.5000          0.815       1359.447        -999.25        -999.25        -999.25         0.7199       -53.1587      -1.661694        -999.25      0.9816196
      6539.0000         0.8117       1370.154        -999.25        -999.25        -999.25         0.7125       -53.2968      -1.799793        -999.25      0.9777835
      6539.5000         0.8084       1375.939        -999.25        -999.25        -999.25         0.7107       -53.4349      -1.937893        -999.25      0.9739474
      6540.0000         0.8201       1377.504        -999.25        -999.25        -999.25          0.709       -53.5729      -2.075893        -999.25      0.9701141
      6540.5000         0.8326       1379.068        -999.25        -999.25        -999.25         0.7072       -54.9756      -3.478596        -999.25      0.9311501
      6541.0000         0.8452       1368.393        -999.25        -999.25        -999.25         0.7064       -54.4528      -2.955795        -999.25      0.9456723
      6541.5000         0.8571       1347.053        -999.25        -999.25        -999.25         0.7103       -53.9299      -2.432896        -999.25      0.9601973
      6542.0000         0.8671       1325.715        -999.25        -999.25        -999.25         0.7143       -53.3986      -1.901596        -999.25      0.9749557
      6542.5000         0.8773       1304.375        -999.25        -999.25        -999.25         0.7182       -52.8477      -1.350693        -999.25      0.9902585
      6543.0000         0.8874       1283.035        -999.25        -999.25        -999.25         0.7221       -52.1735     -0.6764946        -999.25              1
      6543.5000         0.8974         1261.6        -999.25        -999.25        -999.25         0.7323       -51.5625    -0.06549454        -999.25              1
      6544.0000         0.9075       1239.354        -999.25        -999.25        -999.25         0.7425       -51.1248      0.3722038        -999.25              1
      6544.5000          0.917       1217.109        -999.25        -999.25        -999.25         0.7527       -50.7761      0.7209053        -999.25              1
      6545.0000         0.9258       1194.891        -999.25        -999.25        -999.25         0.7628       -50.5208      0.9762039        -999.25              1
      6545.5000         0.9346       1172.645        -999.25        -999.25        -999.25          0.773       -50.5475      0.9495049        -999.25              1
      6546.0000         0.9434         1150.4        -999.25        -999.25        -999.25         0.7819       -50.8588      0.6382065        -999.25              1
      6546.5000           0.95       1138.855        -999.25        -999.25        -999.25         0.7897       -51.1697      0.3273048        -999.25              1
      6547.0000         0.9508       1132.311        -999.25        -999.25        -999.25         0.7974        -51.481     0.01600647        -999.25              1
      6547.5000         0.9517        1125.77        -999.25        -999.25        -999.25         0.8052       -51.7923     -0.2952957        -999.25              1
      6548.0000         0.9525        1119.23        -999.25        -999.25        -999.25         0.8129       -52.0492     -0.5521927        -999.25              1
      6548.5000         0.9533       1112.689        -999.25        -999.25        -999.25         0.8207       -52.2979     -0.8008957        -999.25              1
      6549.0000         0.9535        1106.15        -999.25        -999.25        -999.25         0.8253       -52.5465      -1.049496        -999.25      0.9986251
      6549.5000         0.9509       1110.096        -999.25        -999.25        -999.25         0.8295       -52.7949      -1.297894        -999.25       0.994951
      6550.0000         0.9483       1114.795        -999.25        -999.25        -999.25         0.8337       -53.0435      -1.546494        -999.25      0.9907374
      6550.5000         0.9456       1119.486        -999.25        -999.25        -999.25         0.8378       -52.9807      -1.483696        -999.25      0.9918017
      6551.0000          0.943        1124.18        -999.25        -999.25        -999.25          0.842       -52.8746      -1.377594        -999.25      0.9936001
      6551.5000         0.9404       1128.879        -999.25        -999.25        -999.25         0.8462       -52.6508      -1.153793        -999.25      0.9973933
      6552.0000         0.9377        1133.57        -999.25        -999.25        -999.25         0.8504       -52.2161     -0.7190933        -999.25              1
      6552.5000         0.9356        1138.27        -999.25        -999.25        -999.25         0.8495       -51.7491     -0.2520943        -999.25              1
      6553.0000         0.9335       1142.961        -999.25        -999.25        -999.25         0.8476        -51.056      0.4410057        -999.25              1
      6553.5000         0.9314       1147.727        -999.25        -999.25        -999.25         0.8458        -50.549      0.9480057        -999.25              1
      6554.0000         0.9293       1152.529        -999.25        -999.25        -999.25         0.8439       -50.2618       1.235207        -999.25              1
