#------------------------------------------------------------------------------
# Created by    : vladimir.rabinovich
# Created on    : 09/19/2023 17:19:49
#------------------------------------------------------------------------------
~Version Information Section
VERS.           2.0     :   CWLS log ASCII Standard - VERSION 2.0
WRAP.           NO      :   One line per depth step
~Well Information Section
#MNEM       .UNIT                                         VALUE :DESCRIPTION
#------------------------------------------------------------------------------
STRT        .FT                                            1295 :START DEPTH
STOP        .FT                                            4592 :STOP DEPTH
STEP        .FT                                             0.5 :STEP      
NULL        .                                           -999.25 :NULL      
COMP        .                     FREEPORT-MCMORAN OIL & GAS CO :COMPANY   
WELL        .                                     ST TR 00662-L :WELL      
FLD         .                                         SIX-SIXTY :FIELD     
LOC         .                                                   :LOCATION  
CNTY        .                      MATAGORDA ISLAND LARGE BLOCK :LOCATION  
STAT        .                                             TEXAS :STATE     
CTRY        .                                     UNITED STATES :COUNTRY   
SRVC        .                                                   :SERVICE COMPANY
DATE        .                             9/13/2023 11:19:13 AM :LOG DATE  
API         .                                    42703300650000 :API NUMBER
UWI         .                                    42703300650000 :UNIQUE WELL ID
XCOORD      .                                  434889.841251994 :SURFACE X 
YCOORD      .                                  10179416.4588751 :SURFACE Y 
LAT         .                                        28.0002971 :LATITUDE  
LON         .                                       -96.7355909 :LONGITUDE 
ELEV        .FT                                              77 :ELEVATION VALUE
ELEV_TYPE   .                                                KB :ELEVATION REFERENCE TYPE
~Curve Information Section
#MNEM       .UNIT                                      API CODE :CURVE DESCRIPTION
#------------------------------------------------------------------------------
DEPT        .FT                                                 :DEPTH     
ASFL        .OHMM                                               :          
CILD        .MMHO                                               :          
ILD         .OHMM                                               :          
SFL         .OHMM                                               :          
SP          .MV                                                 :          
SP_NORM     .MV                                                 :SP Normalized
VSH_SP      .V/V                                                :Volume of Shale from SP
~A        DEPTH           ASFL           CILD            ILD            SFL             SP        SP_NORM         VSH_SP
      1295.0000         0.2366         0.5244         0.1935         1.8359       -76.0184      0.1321511              1
      1295.5000         0.2507         0.0264         0.2427         1.4648       -74.2224       1.796041              1
      1296.0000         0.2741         0.9751         0.2803         1.1311       -62.9949       1.313502              1
      1296.5000         0.3264         2.6362         0.3159         1.0621        -60.496      -1.156241      0.9957772
      1297.0000         0.3761         4.2974         0.3388         0.9646        -56.944      0.2549808              1
      1297.5000         0.4733        23.1914         0.3617         0.3921       -53.1738     -0.5889218              1
      1298.0000         0.7126        64.9653         0.3847         0.4214       -37.7346     -0.2590351              1
      1298.5000         0.7864         174.25         0.4076         0.4506       -35.5284      0.1204607              1
      1299.0000         0.8654       875.2969         0.4288         0.4799       -36.4752       3.247648              1
      1299.5000         0.8602       1620.988         0.4462         0.5091       -40.4651     -0.7607176              1
      1300.0000         0.8324       1778.135         0.4635         0.5558       -56.6504       2.089958              1
      1300.5000         0.8085       1853.947         0.4808         0.6036        -47.902       1.832911              1
      1301.0000         0.7962       1789.629         0.4981         0.6513       -37.9113      0.9413391              1
      1301.5000         0.7806       1726.313         0.5155         0.6843       -29.0901      -1.134629      0.9963614
      1302.0000         0.7541       1660.051         0.5332         0.7001        -20.037       2.423616              1
      1302.5000         0.7334       1615.951         0.5508          0.716       -10.9839       3.163818              1
      1303.0000         0.7207       1593.129         0.5685         0.7318        -1.9333      0.8513263              1
      1303.5000         0.7086       1571.104         0.5861         0.7477       -22.1961     0.08725502              1
      1304.0000         0.6995       1549.604         0.6038         0.7635       -31.0974    -0.02388733              1
      1304.5000         0.6943       1525.338         0.6107         0.7711       -33.6235       3.255594              1
      1305.0000         0.6898       1497.863         0.6124         0.7695       -38.8798     -0.3654823              1
      1305.5000         0.6909       1459.764         0.6141          0.768        -36.337     -0.8197168              1
      1306.0000          0.692       1423.527         0.6159         0.7665       -33.8283      -1.143954      0.9961094
      1306.5000         0.6932       1394.418         0.6176         0.7649       -32.2247       3.475552              1
      1307.0000         0.6945       1370.137         0.6194         0.7618       -31.2896       2.954888              1
      1307.5000         0.6961       1360.471         0.6211         0.7543        -32.085       1.075226              1
      1308.0000          0.697       1350.803         0.6192         0.7467       -35.2082       3.010498              1
      1308.5000         0.6911       1344.426          0.617         0.7392        -33.679       1.481603              1
      1309.0000         0.6853       1338.477         0.6148         0.7316       -32.5266       2.169942              1
      1309.5000         0.6767       1353.449         0.6126         0.7241       -31.6133      0.2634738              1
      1310.0000         0.6673       1377.682         0.6104         0.7163       -30.6922       2.925839              1
      1310.5000         0.6579       1402.561         0.6082         0.7082       -29.7652       3.244799              1
      1311.0000         0.6492       1425.662          0.606            0.7       -32.4958        2.97331              1
      1311.5000         0.6404       1444.982         0.6038         0.6919        -34.493     -0.4429954              1
      1312.0000         0.6319       1464.305         0.6016         0.6838       -35.8741    -0.06192422              1
      1312.5000         0.6246       1480.514         0.5995         0.6757       -37.0619       1.250737              1
      1313.0000         0.6173       1492.912         0.5974         0.6676       -37.1725      0.9377152              1
      1313.5000         0.6101       1505.313         0.5953         0.6598       -36.5061     -0.3123456              1
      1314.0000         0.6128       1510.174         0.5931         0.6546       -35.8998       -1.06455      0.9982554
      1314.5000         0.6165       1502.703          0.591         0.6493       -35.3225      -3.997196      0.9189947
      1315.0000         0.6204       1495.232         0.5889          0.644       -34.7958      -3.470497      0.9332298
      1315.5000         0.6247       1487.764         0.5868         0.6387       -34.1613      -2.835999      0.9503784
      1316.0000         0.6291       1480.293         0.5847         0.6334       -33.6804      -2.355099      0.9633757
      1316.5000         0.6306       1474.551         0.5826         0.6281       -33.2114      -1.886097      0.9760514
      1317.0000         0.6286       1468.926         0.5824         0.6239       -32.6801      -1.354797      0.9904109
      1317.5000         0.6242       1463.301         0.5853         0.6215       -32.0491     -0.7237968              1
      1318.0000         0.6199       1469.029         0.5882          0.619       -31.3383    -0.01299858              1
      1318.5000         0.6156       1476.805         0.5911         0.6166       -30.5677      0.7576027              1
      1319.0000         0.6123       1484.576          0.594         0.6142       -30.0491       1.276201              1
      1319.5000          0.612       1493.068          0.597         0.6117       -32.1267     -0.8013992              1
      1320.0000         0.6117       1502.078         0.5999         0.6093       -31.5495     -0.2241974              1
      1320.5000         0.6115        1511.09         0.6006         0.6088       -32.4471      -1.121799      0.9967081
      1321.0000         0.6114       1520.102         0.6001         0.6088       -30.9722      0.3531017              1
      1321.5000         0.6114       1527.504         0.5996         0.6088       -29.8801       1.445202              1
      1322.0000         0.6099       1531.979         0.5991         0.6088       -28.9796       2.345701              1
      1322.5000         0.6063       1536.455         0.5986         0.6088        -33.163      -1.837696      0.9773596
      1323.0000         0.6028        1540.93         0.5981         0.6087       -34.2869      -2.961597      0.9469839
      1323.5000         0.5989       1545.404         0.5976         0.6087       -35.3078      -3.982498      0.9193919
      1324.0000         0.5948       1551.799         0.5971         0.6087       -35.9788        -4.6535      0.9012567
      1324.5000         0.5907       1558.877         0.5953         0.6087       -35.8041      -4.478798      0.9059784
      1325.0000         0.5865       1566.145         0.5924         0.6097       -35.1382      -3.812897      0.9239758
      1325.5000         0.5829       1577.324         0.5896         0.6116       -35.1266      -3.801296      0.9242893
      1326.0000         0.5844       1588.504         0.5867         0.6135       -35.2483      -3.922997      0.9210001
      1326.5000         0.5871        1599.68         0.5838         0.6154       -35.2057      -3.880398      0.9221514
      1327.0000          0.591       1607.928         0.5809         0.6173       -34.9169      -3.591599      0.9299568
      1327.5000         0.5949       1615.359          0.578         0.6192       -34.6452      -3.319897      0.9373001
      1328.0000         0.5988       1622.791         0.5752         0.6211       -34.7476      -3.422298      0.9345325
