#------------------------------------------------------------------------------
# Created by    : vladimir.rabinovich
# Created on    : 09/19/2023 17:19:49
#------------------------------------------------------------------------------
~Version Information Section
VERS.           2.0     :   CWLS log ASCII Standard - VERSION 2.0
WRAP.           NO      :   One line per depth step
~Well Information Section
#MNEM       .UNIT                                         VALUE :DESCRIPTION
#------------------------------------------------------------------------------
STRT        .FT                                            1295 :START DEPTH
STOP        .FT                                            4592 :STOP DEPTH
STEP        .FT                                             0.5 :STEP      
NULL        .                                           -999.25 :NULL      
COMP        .                     FREEPORT-MCMORAN OIL & GAS CO :COMPANY   
WELL        .                                     ST TR 00662-L :WELL      
FLD         .                                         SIX-SIXTY :FIELD     
LOC         .                                                   :LOCATION  
CNTY        .                      MATAGORDA ISLAND LARGE BLOCK :LOCATION  
STAT        .                                             TEXAS :STATE     
CTRY        .                                     UNITED STATES :COUNTRY   
SRVC        .                                                   :SERVICE COMPANY
DATE        .                             9/13/2023 11:19:13 AM :LOG DATE  
API         .                                    42703300650000 :API NUMBER
UWI         .                                    42703300650000 :UNIQUE WELL ID
XCOORD      .                                  434889.841251994 :SURFACE X 
YCOORD      .                                  10179416.4588751 :SURFACE Y 
LAT         .                                        28.0002971 :LATITUDE  
LON         .                                       -96.7355909 :LONGITUDE 
ELEV        .FT                                              77 :ELEVATION VALUE
ELEV_TYPE   .                                                KB :ELEVATION REFERENCE TYPE
~Curve Information Section
#MNEM       .UNIT                                      API CODE :CURVE DESCRIPTION
#------------------------------------------------------------------------------
DEPT        .FT                                                 :DEPTH     
ASFL        .OHMM                                               :          
CILD        .MMHO                                               :          
ILD         .OHMM                                               :          
SFL         .OHMM                                               :          
SP          .MV                                                 :          
SP_NORM     .MV                                                 :SP Normalized
VSH_SP      .V/V                                                :Volume of Shale from SP
~A        DEPTH           ASFL           CILD            ILD            SFL             SP        SP_NORM         VSH_SP
# ...
      1496.0000         0.6375       1528.174         0.6306         0.6851       -28.8112      0.1044636              1
      1496.5000         0.6447       1522.184         0.6309         0.6862        -29.079     -0.1633377              1
      1497.0000         0.6508       1509.314         0.6313         0.6871       -29.1298      -0.214138              1
      1497.5000         0.6561       1496.443         0.6316          0.688       -29.1143      -0.198637              1
      1498.0000         0.6614       1483.574         0.6319         0.6888       -29.1069     -0.1912365              1
      1498.5000         0.6667       1472.951         0.6322         0.6897       -29.1976     -0.2819366              1
      1499.0000         0.6712       1463.238         0.6324         0.6906       -29.3292      -0.413538              1
      1499.5000         0.6753       1453.521         0.6327         0.6914       -29.5366     -0.6209373              1
      1500.0000         0.6771       1443.805         0.6329         0.6923        -29.744     -0.8283367              1
      1500.5000         0.6748       1435.256         0.6332         0.6942       -29.9515      -1.035837      0.9990314
      1501.0000         0.6714       1430.006         0.6337         0.6975       -30.1947      -1.279037      0.9924585
      1501.5000         0.6658       1426.547         0.6364         0.7007       -30.5031      -1.587437      0.9841233
      1502.0000         0.6601       1433.777         0.6391          0.704       -30.3569      -1.441236      0.9880747
      1502.5000         0.6545        1441.01         0.6418         0.7072       -29.6264     -0.7107372              1
      1503.0000         0.6493       1448.361         0.6446         0.7105       -28.8638     0.05186272              1
      1503.5000         0.6443       1456.996         0.6473         0.7137       -28.0143      0.9013634              1
      1504.0000         0.6393       1465.633           0.65         0.7168        -27.327       1.588663              1
      1504.5000         0.6343        1474.27         0.6527         0.7183       -27.7895       1.126163              1
      1505.0000         0.6293       1482.902         0.6532         0.7199        -28.252       0.663662              1
      1505.5000         0.6243       1489.463         0.6532         0.7215        -28.721      0.1946621              1
      1506.0000         0.6234        1495.09         0.6532         0.7231       -29.1924     -0.2767372              1
      1506.5000         0.6234       1500.719         0.6532         0.7238       -29.6513     -0.7356377              1
      1507.0000         0.6274       1506.346         0.6532          0.719       -30.1034      -1.187737       0.994926
      1507.5000         0.6332       1505.697         0.6532         0.7143       -30.4574      -1.541737      0.9853585
      1508.0000          0.639       1498.285         0.6525         0.7095       -30.7309      -1.815237      0.9779665
      1508.5000         0.6457       1482.654         0.6518         0.7048        -30.934      -2.018337      0.9724774
      1509.0000         0.6534       1460.408         0.6512          0.701       -31.1222      -2.206537      0.9673909
      1509.5000         0.6612        1439.84         0.6505         0.7031       -31.0812      -2.165537       0.968499
      1510.0000         0.6689         1421.6         0.6499         0.7051       -30.5617      -1.646038      0.9825395
      1510.5000         0.6743       1403.361         0.6495         0.7072       -30.0423      -1.126637      0.9965774
      1511.0000         0.6795       1392.623         0.6522         0.7119       -29.4569     -0.5412369              1
      1511.5000         0.6848       1382.758          0.655         0.7225       -28.8476     0.06806183              1
      1512.0000         0.6845       1372.912         0.6577         0.7331        -28.562      0.3536625              1
      1512.5000         0.6783       1381.188         0.6605         0.7437        -28.927    -0.01133728              1
      1513.0000         0.6724       1389.955         0.6632         0.7543       -29.2919     -0.3762379              1
      1513.5000         0.6666       1399.982         0.6667         0.7649       -29.9174      -1.001738       0.999953
      1514.0000         0.6608       1410.012         0.6719         0.7716        -30.588      -1.672337      0.9818287
      1514.5000         0.6565       1420.041          0.677         0.7705       -31.0501      -2.134438      0.9693395
      1515.0000         0.6611         1419.9         0.6822         0.7694       -31.4028      -2.487137      0.9598071
      1515.5000         0.6668         1414.4         0.6873         0.7684       -30.4524      -1.536737      0.9854936
      1516.0000          0.674       1405.988         0.6925         0.7673       -29.8441     -0.9284382              1
      1516.5000         0.6813       1397.328         0.6928         0.7662       -29.2357     -0.3200378              1
      1517.0000         0.6881       1388.666         0.6928         0.7651       -28.7129      0.2027626              1
      1517.5000         0.6922       1381.305         0.6928         0.7638       -28.2935      0.6221619              1
      1518.0000         0.6963       1377.686         0.6928         0.7581        -28.382      0.5336628              1
      1518.5000         0.6959       1374.068         0.6901         0.7524       -29.0427      -0.127037              1
      1519.0000         0.6929       1371.697         0.6872         0.7466       -29.7046     -0.7889366              1
      1519.5000         0.6889       1374.988         0.6842         0.7466       -30.4247      -1.509037      0.9862422
      1520.0000         0.6839       1377.949         0.6813         0.7506       -31.1449      -2.229237      0.9667774
      1520.5000          0.679       1379.998         0.6784         0.7546       -31.7432      -2.827538      0.9506071
      1521.0000         0.6741       1382.049         0.6793         0.7586       -32.0914      -3.175737      0.9411963
      1521.5000          0.672       1376.162         0.6837         0.7626       -31.4978      -2.582138      0.9572395
      1522.0000         0.6754       1369.979         0.6881         0.7666       -31.1001      -2.184437      0.9679882
      1522.5000         0.6799       1358.104         0.6925         0.7706       -31.2018      -2.286137      0.9652395
      1523.0000         0.6881       1343.209         0.6969         0.7745       -31.5112      -2.595537      0.9568774
      1523.5000         0.6963       1324.154         0.7014         0.7784       -31.7933      -2.877638       0.949253
      1524.0000         0.7043        1301.33         0.7062         0.7822       -31.6234      -2.707737       0.953845
      1524.5000          0.712       1282.246          0.711         0.7861       -31.3177      -2.402037      0.9621071
      1525.0000         0.7198       1265.873         0.7158           0.79       -30.9177      -2.002037      0.9729179
      1525.5000         0.7268       1250.482         0.7206         0.7938       -30.6385      -1.722837      0.9804639
      1526.0000         0.7187       1249.834         0.7254         0.7938       -30.7138      -1.798138      0.9784287
      1526.5000         0.7106       1249.184         0.7255         0.7899       -30.9928      -2.077137      0.9708882
      1527.0000         0.7025       1257.131         0.7175          0.786       -31.3567      -2.441038       0.961053
      1527.5000         0.6932        1271.67         0.7096         0.7822       -31.7206      -2.804937      0.9512179
      1528.0000         0.6837       1345.795         0.7017         0.7783       -32.0782      -3.162539       0.941553
      1528.5000         0.6742        1376.91         0.6937         0.7744       -32.4285      -3.512838      0.9320855
      1529.0000         0.6663       1408.023         0.6857         0.7641       -32.2924      -3.376738      0.9357638
