#------------------------------------------------------------------------------
# Created by    : vladimir.rabinovich
# Created on    : 09/19/2023 17:20:46
#------------------------------------------------------------------------------
~Version Information Section
VERS.           2.0     :   CWLS log ASCII Standard - VERSION 2.0
WRAP.           NO      :   One line per depth step
~Well Information Section
#MNEM       .UNIT                                         VALUE :DESCRIPTION
#------------------------------------------------------------------------------
STRT        .FT                                            1000 :START DEPTH
STOP        .FT                                            6719 :STOP DEPTH
STEP        .FT                                             0.5 :STEP      
NULL        .                                           -999.25 :NULL      
COMP        .                                 CALIFORNIA CO THE :COMPANY   
WELL        .                                     ST TR 00695-L :WELL      
FLD         .                                           WILDCAT :FIELD     
LOC         .                                                   :LOCATION  
CNTY        .                      MATAGORDA ISLAND LARGE BLOCK :LOCATION  
STAT        .                                             TEXAS :STATE     
CTRY        .                                     UNITED STATES :COUNTRY   
SRVC        .                                                   :SERVICE COMPANY
DATE        .                             9/13/2023 11:12:01 AM :LOG DATE  
API         .                                    42703000270000 :API NUMBER
UWI         .                                    42703000270000 :UNIQUE WELL ID
XCOORD      .                                   404842.11633791 :SURFACE X 
YCOORD      .                                  10151340.1845366 :SURFACE Y 
LAT         .                                        27.9206537 :LATITUDE  
LON         .                                       -96.8258101 :LONGITUDE 
ELEV        .FT                                              11 :ELEVATION VALUE
ELEV_TYPE   .                                                KB :ELEVATION REFERENCE TYPE
~Curve Information Section
#MNEM       .UNIT                                      API CODE :CURVE DESCRIPTION
#------------------------------------------------------------------------------
DEPT        .FT                                                 :DEPTH     
ASN         .OHMM                                               :          
CILD        .MMHO                                               :          
ILD         .OHMM                                               :          
SP          .MV                                                 :          
SP_NORM     .MV                                                 :SP Normalized
VSH_SP      .V/V                                                :Volume of Shale from SP
~A        DEPTH            ASN           CILD            ILD             SP        SP_NORM         VSH_SP
# ...
      4420.0000         0.8147       1588.607         0.6433       -64.3572       -21.4051      0.7377689
      4420.5000         0.7823       2044.676          0.589       -69.3184        -26.372      0.6706486
      4421.0000         0.7545       2039.461         0.5679        -74.567       -31.6264      0.5996432
      4421.5000         0.7241       2316.035         0.5542       -78.9482       -36.0134      0.5403594
      4422.0000         0.6998       2606.395         0.5405       -83.9733       -41.0442      0.4723757
      4422.5000         0.7024       2727.879         0.5268       -84.4431       -41.5198      0.4659487
      4423.0000         0.7049       3120.273         0.5131       -85.4641       -42.5466       0.452073
      4423.5000         0.7039       3198.359         0.5115       -86.4851       -43.5733      0.4381987
      4424.0000         0.6863       3274.852         0.5108        -87.506          -44.6      0.4243243
      4424.5000         0.6689       3614.652         0.5102       -89.0056       -46.1054      0.4039811
      4425.0000         0.6528       3814.625         0.5095       -90.5864       -47.6919      0.3825419
      4425.5000         0.6367       3869.266         0.5089       -91.7943       -48.9056      0.3661405
      4426.0000         0.6205       3922.109         0.5076       -92.7734       -49.8905      0.3528311
      4426.5000          0.605       3962.203          0.504       -93.7532        -50.876      0.3395135
      4427.0000         0.6146       3989.375         0.5003       -94.7167       -51.8453      0.3264149
      4427.5000         0.6259       3945.355         0.4967       -92.5084       -49.6428      0.3561784
      4428.0000         0.6383       3870.867          0.493       -90.1478       -47.2879      0.3880014
      4428.5000         0.6523       3796.426         0.4894       -85.2141         -42.36      0.4545946
      4429.0000         0.6526       3622.051         0.5013       -82.0074       -39.1591        0.49785
      4429.5000         0.6478       3303.098         0.5157       -80.1099       -37.2673      0.5234149
      4430.0000         0.6429       2972.941         0.5302       -78.9983       -36.1615      0.5383581
      4430.5000         0.6381           2569         0.5446       -77.4087       -34.5777      0.5597608
      4431.0000         0.6439       2371.328         0.5561       -74.0996       -31.2743      0.6044014
      4431.5000         0.6551       1995.268         0.5658        -66.754       -23.9345      0.7035878
      4432.0000         0.6751       1996.508         0.5756       -56.4868       -13.6731      0.8422554
      4432.5000         0.6953       1998.438         0.5853       -52.6194        -9.8114      0.8944405
      4433.0000         0.7154       1978.951         0.5955       -52.1995        -9.3973      0.9000365
      4433.5000         0.7356       1887.115         0.6176       -51.7793        -8.9829      0.9056365
      4434.0000         0.7557        1774.23         0.6397        -51.355        -8.5643      0.9112933
      4434.5000         0.7897       1662.996         0.6617       -50.9192        -8.1343      0.9171041
      4435.0000         0.8294       1582.408         0.6838       -50.5416        -7.7625      0.9221284
      4435.5000         0.8604        1496.17         0.7059       -50.2439        -7.4706       0.926073
      4436.0000         0.8677       1428.455         0.7132       -49.9462        -7.1786      0.9300189
      4436.5000          0.875       1436.428         0.7162       -49.6484        -6.8866      0.9339648
      4437.0000         0.8822       1444.402         0.7192       -49.3504        -6.5943      0.9379148
      4437.5000         0.8895       1452.369         0.7222       -49.1656        -6.4153      0.9403338
      4438.0000         0.8979       1460.514         0.7263       -49.1379        -6.3934      0.9406297
      4438.5000         0.9064       1468.693         0.7319        -49.117        -6.3783      0.9408338
      4439.0000         0.9149       1473.498         0.7376        -49.248         -6.515      0.9389865
      4439.5000         0.9269       1478.301         0.7432       -49.3792         -6.652      0.9371352
      4440.0000         0.9436       1474.436          0.746       -49.5103        -6.7889      0.9352852
      4440.5000         0.9602       1452.727         0.7469       -49.6414        -6.9257      0.9334365
      4441.0000         0.9765       1431.018         0.7478       -49.7725        -7.0626      0.9315865
      4441.5000         0.9913       1410.596         0.7487       -49.9036        -7.1995      0.9297365
      4442.0000         1.0032        1391.01         0.7495       -50.0347        -7.3363      0.9278879
      4442.5000         1.0074       1367.238         0.7497       -50.2241        -7.5315        0.92525
      4443.0000         1.0077       1342.041         0.7491       -50.5121        -7.8253      0.9212797
      4443.5000         1.0032       1338.674         0.7484       -50.8003        -8.1192      0.9173081
      4444.0000         0.9987       1339.105         0.7477       -51.0885        -8.4132      0.9133351
      4444.5000         0.9937       1339.537         0.7471       -51.3766        -8.7071      0.9093635
      4445.0000         0.9859       1339.969         0.7464       -51.6648         -9.001      0.9053919
      4445.5000         0.9781         1340.4          0.756       -51.9084        -9.2504      0.9020216
      4446.0000         0.9703       1337.512         0.7665       -52.1331        -9.4809      0.8989068
      4446.5000         0.9625       1333.355         0.7771       -52.3578        -9.7113      0.8957933
      4447.0000         0.9642       1329.197         0.7876       -52.5825        -9.9418      0.8926784
      4447.5000         0.9826       1325.041         0.7982       -52.8071       -10.1722      0.8895649
      4448.0000         1.0014       1320.883         0.8087       -51.5431        -8.9139      0.9065689
      4448.5000         1.0202       1316.727         0.8203       -50.3378        -7.7144      0.9227784
      4449.0000         1.0386       1301.473         0.8329       -49.4799        -6.8623      0.9342933
      4449.5000         1.0452       1282.287         0.8455       -48.6219          -6.01      0.9458108
      4450.0000         1.0473       1263.104         0.8501       -47.7778        -5.1717      0.9571392
      4450.5000         1.0465       1243.918         0.8467       -47.1699        -4.5696      0.9652756
      4451.0000         1.0457       1218.947         0.8433       -46.7091        -4.1145      0.9714257
      4451.5000         1.0449       1211.117         0.8398       -46.7463        -4.1575      0.9708446
      4452.0000         1.0441       1203.287         0.8364       -46.7834        -4.2004      0.9702649
      4452.5000         1.0288       1196.662         0.8329       -46.8206        -4.2433      0.9696851
      4453.0000         1.0112       1197.521         0.8326       -46.8577        -4.2862      0.9691054
      4453.5000          0.986       1198.379         0.8331       -46.9343        -4.3686      0.9679919
      4454.0000         0.9632       1220.059         0.8337       -47.3848        -4.8248       0.961827
      4454.5000         0.9737       1230.408         0.8342       -47.8353        -5.2811      0.9556608
      4455.0000         0.9843       1240.756         0.8348       -48.2861        -5.7377      0.9494905
      4455.5000         0.9963       1251.105         0.8354       -48.7366        -6.1939      0.9433257
      4456.0000         0.9928       1261.453         0.8345       -49.1628        -6.6259      0.9374878
      4456.5000         0.9885       1271.096         0.8288       -49.5108        -6.9797      0.9327068
      4457.0000         0.9846       1278.289         0.8231       -49.8585        -7.3331      0.9279311
      4457.5000         0.9819       1275.645         0.8173       -50.2065        -7.6869        0.92315
