#------------------------------------------------------------------------------
# Created by    : vladimir.rabinovich
# Created on    : 09/19/2023 17:22:56
#------------------------------------------------------------------------------
~Version Information Section
VERS.           2.0     :   CWLS log ASCII Standard - VERSION 2.0
WRAP.           NO      :   One line per depth step
~Well Information Section
#MNEM       .UNIT                                         VALUE :DESCRIPTION
#------------------------------------------------------------------------------
STRT        .FT                                             513 :START DEPTH
STOP        .FT                                           16000 :STOP DEPTH
STEP        .FT                                             0.5 :STEP      
NULL        .                                           -999.25 :NULL      
COMP        .              PENNZOIL EXPLORATION & PRODUCTION CO :COMPANY   
WELL        .                                ST TR 00486-L SE/4 :WELL      
FLD         .                                           WILDCAT :FIELD     
LOC         .                                                   :LOCATION  
CNTY        .                      MATAGORDA ISLAND LARGE BLOCK :LOCATION  
STAT        .                                             TEXAS :STATE     
CTRY        .                                     UNITED STATES :COUNTRY   
SRVC        .                                                   :SERVICE COMPANY
DATE        .                             9/13/2023 11:19:05 AM :LOG DATE  
API         .                                    42703302080000 :API NUMBER
UWI         .                                    42703302080000 :UNIQUE WELL ID
XCOORD      .                                  648049.134083277 :SURFACE X 
YCOORD      .                                  10318924.3450998 :SURFACE Y 
LAT         .                                        28.3999658 :LATITUDE  
LON         .                                       -96.0869402 :LONGITUDE 
ELEV        .FT                                              47 :ELEVATION VALUE
ELEV_TYPE   .                                                KB :ELEVATION REFERENCE TYPE
~Curve Information Section
#MNEM       .UNIT                                      API CODE :CURVE DESCRIPTION
#------------------------------------------------------------------------------
DEPT        .FT                                                 :DEPTH     
SFL         .OHMM                                               :          
SP          .MV                                                 :          
SP_NORM     .MV                                                 :SP Normalized
VSH_SP      .V/V                                                :Volume of Shale from SP
~A        DEPTH            SFL             SP        SP_NORM         VSH_SP
# ...
     15936.0000         0.6386       -36.8224      0.5969582              1
     15936.5000         0.6011       -37.2538      0.1655579              1
     15937.0000         0.5989       -37.3847     0.03465652              1
     15937.5000         0.6419       -37.2794      0.1399574              1
     15938.0000         0.6774        -37.351     0.06835556              1
     15938.5000         0.6937       -37.6827     -0.2633438              1
     15939.0000         0.7034       -37.8965     -0.4771423              1
     15939.5000         0.7029       -38.0296     -0.6102409              1
     15940.0000         0.6807       -37.9582     -0.5388412              1
     15940.5000         0.6427        -37.736     -0.3166428              1
     15941.0000         0.6241       -37.7512     -0.3318443              1
     15941.5000          0.637       -37.9271     -0.5077438              1
     15942.0000         0.6393       -38.2637     -0.8443413              1
     15942.5000         0.6389       -37.7749     -0.3555412              1
     15943.0000         0.6413       -37.9944     -0.5750427              1
     15943.5000         0.6319       -38.1967     -0.7773438              1
     15944.0000         0.6179       -38.2474     -0.8280411              1
     15944.5000         0.6179       -38.2778     -0.8584442              1
     15945.0000         0.6244       -38.3367     -0.9173431              1
     15945.5000         0.6365       -38.2878     -0.8684425              1
     15946.0000         0.6487       -38.2609     -0.8415413              1
     15946.5000         0.6485       -37.9731     -0.5537415              1
     15947.0000         0.6446       -37.5593     -0.1399422              1
     15947.5000         0.6447       -37.9071     -0.4877434              1
     15948.0000         0.6438       -38.2331     -0.8137436              1
     15948.5000         0.6419       -38.2344     -0.8150444              1
     15949.0000         0.6386       -37.7762      -0.356842              1
     15949.5000         0.6299       -37.2476      0.1717567              1
     15950.0000         0.6224       -36.8657      0.5536575              1
     15950.5000         0.6252         -36.79      0.6293564              1
     15951.0000         0.6323       -36.9091      0.5102577              1
     15951.5000         0.6274       -37.1989       0.220459              1
     15952.0000         0.6142       -37.6964     -0.2770424              1
     15952.5000         0.5958       -38.2674     -0.8480415              1
     15953.0000         0.5759        -38.978      -1.558643      0.9919037
     15953.5000         0.5903       -39.5428      -2.123444      0.9837182
     15954.0000         0.6218       -39.8408      -2.421444      0.9793994
     15954.5000         0.6501       -39.9804      -2.561043      0.9773762
     15955.0000         0.6578       -40.0214      -2.602043       0.976782
     15955.5000         0.6481        -39.939      -2.519642      0.9779762
     15956.0000         0.6294       -39.7953      -2.375942      0.9800588
     15956.5000         0.6053       -39.4406      -2.021244      0.9851993
     15957.0000         0.5806       -39.1596      -1.740242      0.9892719
     15957.5000         0.5674       -39.0554      -1.636044       0.990782
     15958.0000         0.5705       -38.7512      -1.331844      0.9951907
     15958.5000         0.5847       -38.2761     -0.8567429              1
     15959.0000         0.6037       -37.9618     -0.5424423              1
     15959.5000         0.5954       -37.9376     -0.5182419              1
     15960.0000         0.5778       -37.9389     -0.5195427              1
     15960.5000         0.5759       -37.9838     -0.5644417              1
     15961.0000         0.5855       -38.0589     -0.6395416              1
     15961.5000         0.5941         -38.22     -0.8006439              1
     15962.0000         0.6067       -38.4644      -1.045044      0.9993472
     15962.5000         0.6153       -38.5878      -1.168442      0.9975588
     15963.0000          0.616       -38.6386      -1.219242      0.9968226
     15963.5000         0.5989        -38.566      -1.146645      0.9978747
     15964.0000         0.5727       -38.2786     -0.8592415              1
     15964.5000         0.5486       -38.0274     -0.6080437              1
     15965.0000         0.5578       -37.7681     -0.3487434              1
     15965.5000         0.5913       -37.9295     -0.5101433              1
     15966.0000          0.616       -38.0607     -0.6413422              1
     15966.5000         0.6158       -38.1628     -0.7434425              1
     15967.0000         0.6129       -38.2105     -0.7911415              1
     15967.5000         0.6131       -38.2178     -0.7984428              1
     15968.0000         0.6129       -38.1078     -0.6884422              1
     15968.5000         0.6075       -37.8934      -0.474041              1
     15969.0000         0.6012       -38.0268     -0.6074409              1
     15969.5000         0.6005       -38.1929     -0.7735443              1
     15970.0000         0.6016       -38.1967     -0.7773438              1
     15970.5000         0.5982       -38.3859     -0.9665413              1
     15971.0000         0.5943       -38.4506      -1.031242      0.9995472
     15971.5000         0.5881       -38.4036     -0.9842415              1
     15972.0000         0.5796       -38.3964     -0.9770432              1
     15972.5000         0.5714       -38.3531     -0.9337425              1
     15973.0000         0.5667       -38.2322     -0.8128433              1
     15973.5000         0.5641       -38.1754     -0.7560425              1
     15974.0000         0.5639       -38.0523     -0.6329422              1
     15974.5000          0.566       -37.8418     -0.4224434              1
     15975.0000         0.5724       -37.7665     -0.3471413              1
     15975.5000         0.5908       -37.7275     -0.3081436              1
     15976.0000         0.6266       -37.8528     -0.4334412              1
     15976.5000         0.6386        -38.157     -0.7376442              1
     15977.0000         0.6379       -38.4469      -1.027542      0.9996008
     15977.5000         0.6307       -38.6614      -1.242043      0.9964921
     15978.0000         0.6119       -38.6304      -1.211044      0.9969414
     15978.5000         0.5822       -38.6138      -1.194443       0.997182
     15979.0000         0.5552       -38.5345      -1.115143      0.9983312
     15979.5000         0.5674       -38.4404      -1.021042      0.9996951
     15980.0000         0.5926       -38.2955     -0.8761444              1
     15980.5000         0.6156        -38.048      -0.628643              1
     15981.0000         0.6442        -37.674     -0.2546425              1
     15981.5000         0.6812       -37.3517     0.06765747              1
     15982.0000         0.7021       -37.0045       0.414856              1
     15982.5000         0.6848       -36.6429      0.7764587              1
     15983.0000         0.6549        -36.403       1.016357              1
     15983.5000         0.6292       -36.4637       0.955658              1
     15984.0000         0.6112        -36.486      0.9333572              1
     15984.5000          0.607        -36.626      0.7933578              1
     15985.0000         0.6217       -36.8561      0.5632591              1
     15985.5000         0.6604       -37.1322       0.287159              1
     15986.0000         0.6844       -37.2844      0.1349564              1
     15986.5000         0.6871       -37.5605     -0.1411438              1
     15987.0000         0.6706       -38.0367     -0.6173439              1
     15987.5000         0.6241       -38.3983     -0.9789429              1
     15988.0000         0.5966       -38.5656      -1.146244      0.9978805
     15988.5000         0.5835        -38.623      -1.203644      0.9970486
