#------------------------------------------------------------------------------
# Created by    : vladimir.rabinovich
# Created on    : 09/19/2023 17:20:09
#------------------------------------------------------------------------------
~Version Information Section
VERS.           2.0     :   CWLS log ASCII Standard - VERSION 2.0
WRAP.           NO      :   One line per depth step
~Well Information Section
#MNEM       .UNIT                                         VALUE :DESCRIPTION
#------------------------------------------------------------------------------
STRT        .FT                                            1853 :START DEPTH
STOP        .FT                                            6238 :STOP DEPTH
STEP        .FT                                             0.5 :STEP      
NULL        .                                           -999.25 :NULL      
COMP        .               LOUISIANA LAND & EXPLORATION CO THE :COMPANY   
WELL        .                                          SL 79258 :WELL      
FLD         .                                           WILDCAT :FIELD     
LOC         .                                                   :LOCATION  
CNTY        .                      MATAGORDA ISLAND LARGE BLOCK :LOCATION  
STAT        .                                             TEXAS :STATE     
CTRY        .                                     UNITED STATES :COUNTRY   
SRVC        .                                                   :SERVICE COMPANY
DATE        .                             9/13/2023 11:12:01 AM :LOG DATE  
API         .                                    42703301870000 :API NUMBER
UWI         .                                    42703301870000 :UNIQUE WELL ID
XCOORD      .                                  470651.272343367 :SURFACE X 
YCOORD      .                                  10209272.4173218 :SURFACE Y 
LAT         .                                        28.0852496 :LATITUDE  
LON         .                                       -96.6277134 :LONGITUDE 
ELEV        .FT                                              82 :ELEVATION VALUE
ELEV_TYPE   .                                                KB :ELEVATION REFERENCE TYPE
~Curve Information Section
#MNEM       .UNIT                                      API CODE :CURVE DESCRIPTION
#------------------------------------------------------------------------------
DEPT        .FT                                                 :DEPTH     
ASFL        .OHMM                                               :          
CILD        .MMHO                                               :          
ILD         .OHMM                                               :          
SP          .MV                                                 :          
SP_NORM     .MV                                                 :SP Normalized
VSH_SP      .V/V                                                :Volume of Shale from SP
~A        DEPTH           ASFL           CILD            ILD             SP        SP_NORM         VSH_SP
# ...
      5615.0000         0.7266       1963.758          0.482       -89.4301      -40.92398       0.260667
      5615.5000         0.7074       2044.439         0.4549       -91.5011      -42.99186      0.2223729
      5616.0000         0.6883        2185.18          0.418       -93.8397      -45.32734      0.1791233
      5616.5000         0.6692       2288.402         0.3811       -96.8125      -48.29702      0.1241293
      5617.0000         0.6556       2527.551         0.3443       -98.5118       -49.9932     0.09271847
      5617.5000         0.6425       2745.781         0.3117      -101.6011      -53.07937     0.03556718
      5618.0000         0.6315       2886.227         0.3025      -100.4219      -51.89705     0.05746198
      5618.5000         0.6298       3120.172         0.2932       -99.2427      -50.71473      0.0793568
      5619.0000         0.6219       3279.668          0.284       -97.2188      -48.68771      0.1168942
      5619.5000         0.6038       3413.633         0.2748       -95.0833      -46.54909      0.1564984
      5620.0000         0.5852       3405.039         0.2687       -94.6226      -46.08527      0.1650877
      5620.5000         0.5558       3363.691         0.2628       -99.2654      -50.72495     0.07916761
      5621.0000         0.5263       3319.051         0.2568       -99.4791      -50.93553       0.075268
      5621.5000         0.5139       3274.414         0.2509       -99.6929      -51.14621     0.07136656
      5622.0000         0.5441       3250.473          0.245      -100.1823      -51.63248     0.06236154
      5622.5000          0.564       3483.754         0.2391      -100.7074      -52.15446     0.05269524
      5623.0000         0.5826       3717.109         0.2332      -101.2592      -52.70314     0.04253444
      5623.5000         0.6013       3985.035         0.2272      -101.8636      -53.30442     0.03139969
      5624.0000         0.6192       3935.535         0.2213      -102.4688       -53.9065     0.02025004
      5624.5000          0.631       3884.465         0.2154      -102.7078      -54.14238     0.01588193
      5625.0000          0.603       3837.938         0.2204      -102.7042      -54.13565     0.01600647
      5625.5000         0.5794       3807.148          0.235      -102.7007      -54.12903      0.0161291
      5626.0000          0.556       3776.332         0.2497      -101.6729      -53.09811     0.03522025
      5626.5000         0.5365       3740.535         0.2644      -100.2856      -51.70768     0.06096882
      5627.0000         0.5277        3700.07          0.279       -97.9321      -49.35106        0.10461
      5627.5000         0.5188       3659.559         0.2937       -95.2269      -46.64274       0.154764
      5628.0000         0.5568       3637.164         0.3227       -91.4714      -42.88412      0.2243682
      5628.5000         0.6019       3614.945         0.3537       -86.4722       -37.8818      0.3170038
      5629.0000         0.6439       3578.336         0.3847       -85.9556      -37.36208      0.3266282
      5629.5000         0.7061       3536.055         0.4157        -85.412      -36.81536      0.3367527
      5630.0000         0.7469       3204.043         0.4584       -76.6373      -28.03753       0.499305
      5630.5000         0.7413       2599.051         0.5037       -63.5417      -14.93881      0.7418739
      5631.0000          0.719       1865.004         0.5491       -62.7323      -14.12629      0.7569206
      5631.5000         0.6967       1715.818          0.587       -57.5126      -8.903469      0.8536395
      5632.0000         0.7067         1623.4         0.6113       -54.2996      -5.687347      0.9131973
      5632.5000          0.718       1496.605         0.6356       -52.6733      -4.057926      0.9433717
      5633.0000         0.7292       1437.383         0.6599       -49.8925      -1.274006      0.9949258
      5633.5000         0.7605       1398.982         0.6842       -46.7277       1.893917              1
      5634.0000         0.8008       1373.791         0.7047       -45.6736       2.951141              1
      5634.5000         0.8558       1348.623         0.7213       -45.8161        2.81176              1
      5635.0000         0.9175       1324.635         0.7379       -48.9536     -0.3226204              1
      5635.5000         0.9485       1302.145         0.7545       -51.0692      -2.435093      0.9734242
      5636.0000         0.9794       1279.678         0.7584       -52.7463      -4.109074      0.9424245
      5636.5000         1.0159       1257.188          0.747       -54.9784      -6.338055      0.9011471
      5637.0000          1.008       1222.541         0.7355       -57.9387      -9.295231      0.8463846
      5637.5000          0.999       1288.689         0.7236         -64.35      -15.70341      0.7277147
      5638.0000         0.9901       1316.115         0.7023       -73.5209      -24.87119       0.557941
      5638.5000         0.9812       1343.541          0.681       -77.9528      -29.29996      0.4759266
      5639.0000         0.9737       1395.348         0.6598       -82.2261      -33.57014      0.3968492
      5639.5000         0.9415       1485.018         0.6385       -88.8306      -40.17152      0.2746015
      5640.0000         0.8992       1569.873         0.5885       -90.3331       -41.6709      0.2468352
      5640.5000         0.9026       1656.203         0.5058       -89.8191      -41.15378      0.2564115
      5641.0000         0.9017       1747.051         0.4718       -88.6782      -40.00976      0.2775971
      5641.5000         0.8697       1838.094         0.4428        -87.652      -38.98043      0.2966586
      5642.0000         0.8339       1930.414         0.4139       -87.1978      -38.52311      0.3051275
      5642.5000         0.7547       2030.689         0.3879        -89.689       -41.0112      0.2590519
      5643.0000         0.6993       2142.848         0.3828       -91.5197      -42.83877       0.225208
      5643.5000         0.6842       2362.063         0.3777       -92.8586      -44.17455      0.2004714
      5644.0000         0.6624       2436.996         0.3823       -65.9552      -17.26803      0.6987402
      5644.5000          0.694       2321.402         0.4584       -61.1592       -12.4689      0.7876129
      5645.0000         0.7355       2205.902         0.7696       -53.6852      -4.991783      0.9260781
      5645.5000         0.7796       1928.057         0.9092        -52.423      -3.726463      0.9495099
      5646.0000         0.8405       1546.203         0.9905       -51.1708      -2.471138      0.9727567
      5646.5000         0.9942       1248.863         1.0716       -50.3415      -1.638718      0.9881719
      5647.0000         1.0415        1179.23         1.1615       -51.2277      -2.521797      0.9718186
      5647.5000         1.0878       1109.596         1.2526       -52.1146      -3.405575      0.9554523
      5648.0000         1.1331       1028.129          1.312       -53.3235      -4.611355      0.9331231
      5648.5000         1.0812       842.9971         1.2015       -55.2806      -6.565334      0.8969383
      5649.0000         0.9977       793.3496         0.6586       -57.5449      -8.826508      0.8550647
      5649.5000         0.8223       1849.486         0.5165       -74.3384      -25.61689      0.5441317
      5650.0000         0.7619       3479.828         0.4295       -97.6597      -48.93507      0.1123136
      5650.5000         0.7171       3069.688         0.3587       -98.8463      -50.11854     0.09039737
      5651.0000         0.6889       3109.758         0.2879      -100.9075      -52.17662     0.05228474
      5651.5000         0.6561       3252.953         0.2616      -102.0754       -53.3414     0.03071474
      5652.0000         0.6176       3539.934         0.2406      -103.0747      -54.33758     0.01226708
      5652.5000         0.6121       4229.391         0.2272      -103.3306      -54.59035     0.00758602
