#------------------------------------------------------------------------------
# Created by    : vladimir.rabinovich
# Created on    : 09/19/2023 17:20:46
#------------------------------------------------------------------------------
~Version Information Section
VERS.           2.0     :   CWLS log ASCII Standard - VERSION 2.0
WRAP.           NO      :   One line per depth step
~Well Information Section
#MNEM       .UNIT                                         VALUE :DESCRIPTION
#------------------------------------------------------------------------------
STRT        .FT                                             695 :START DEPTH
STOP        .FT                                            9139 :STOP DEPTH
STEP        .FT                                             0.5 :STEP      
NULL        .                                           -999.25 :NULL      
COMP        .                   COASTAL STATES GAS TRANSMISSION :COMPANY   
WELL        .                                     ST TR 00592-L :WELL      
FLD         .                                           WILDCAT :FIELD     
LOC         .                                                   :LOCATION  
CNTY        .                      MATAGORDA ISLAND LARGE BLOCK :LOCATION  
STAT        .                                             TEXAS :STATE     
CTRY        .                                     UNITED STATES :COUNTRY   
SRVC        .                                                   :SERVICE COMPANY
DATE        .                             9/13/2023 11:12:01 AM :LOG DATE  
API         .                                    42703000420000 :API NUMBER
UWI         .                                    42703000420000 :UNIQUE WELL ID
XCOORD      .                                  562172.631053371 :SURFACE X 
YCOORD      .                                   10240692.584136 :SURFACE Y 
LAT         .                                        28.1787665 :LATITUDE  
LON         .                                       -96.3469802 :LONGITUDE 
ELEV        .FT                                              11 :ELEVATION VALUE
ELEV_TYPE   .                                                KB :ELEVATION REFERENCE TYPE
~Curve Information Section
#MNEM       .UNIT                                      API CODE :CURVE DESCRIPTION
#------------------------------------------------------------------------------
DEPT        .FT                                                 :DEPTH     
ASN         .OHMM                                               :          
CALI        .IN                                                 :          
CILD        .MMHO                                               :          
DT          .US/F                                               :          
ILD         .OHMM                                               :          
SP          .MV                                                 :          
SP_NORM     .MV                                                 :SP Normalized
VSH_SP      .V/V                                                :Volume of Shale from SP
~A        DEPTH            ASN           CALI           CILD             DT            ILD             SP        SP_NORM         VSH_SP
# ...
      3497.5000         1.4957        15.9635       517.3496        -999.25         2.0089       -54.9326       1.024502              1
      3498.0000         1.4749         15.956       568.2666        -999.25          1.896       -54.2286       1.731895              1
      3498.5000           1.45        15.9456        616.665        -999.25         1.7435       -55.7328      0.2310905              1
      3499.0000         1.4203        15.9352        705.832        -999.25          1.591       -58.0988      -2.131516      0.9609822
      3499.5000         1.3765        15.9248       849.7178        -999.25         1.4161       -61.1249      -5.154221       0.856751
      3500.0000         1.3073        15.8203       1007.252        -999.25         1.2516       -62.7204       -6.74633      0.8018507
      3500.5000          1.237        15.5978       1198.932       101.1764         1.1247       -64.0546      -8.077137      0.7559608
      3501.0000         1.1265        15.5899       1347.199       105.2993         1.0345       -65.3894      -9.408535      0.7100505
      3501.5000         1.0418        15.6595       1455.529       113.0449         0.9321       -66.9755      -10.99125      0.6554741
      3502.0000         0.9706        15.7216       1538.678       117.6012         0.8071       -68.5836      -12.59595      0.6001397
      3502.5000         0.9028        15.7142       1713.789       115.3365         0.7543       -70.0435      -14.05246      0.5499152
      3503.0000         0.8481        15.7143       2041.852       109.3455         0.7014       -71.2603      -15.26586      0.5080738
      3503.5000          0.789        15.7748       2102.438       109.9899         0.6589       -72.4779      -16.48006      0.4662048
      3504.0000         0.7716        15.8548       2127.059       113.7358         0.6469       -74.0765      -18.07527      0.4111976
      3504.5000         0.7762        15.9753       2117.613       116.5748         0.6526       -75.8687      -19.86407      0.3495148
      3505.0000         0.7809        15.9717       2122.809       117.2686         0.6598       -77.8738      -21.86578      0.2804903
      3505.5000         0.7854        15.9665       2128.004       116.0028         0.6472       -79.1237      -23.11229      0.2375073
      3506.0000         0.7878        15.9612       2133.199       111.3562         0.6361       -80.4065      -24.39169        0.19339
      3506.5000         0.7898        15.9558       2136.988       109.5144         0.6402       -81.7064      -25.68819      0.1486831
      3507.0000         0.7816        15.9497        2138.68       108.4207         0.6423       -82.2233       -26.2017      0.1309759
      3507.5000         0.7734        15.8823       2134.973       108.2516         0.6398        -81.623      -25.59801      0.1517928
      3508.0000         0.7634        15.7138       2123.465       109.5726         0.6373       -81.4557      -25.42732      0.1576786
      3508.5000         0.7488        15.3937       2106.316       112.6215         0.6348       -81.4036      -25.37182      0.1595924
      3509.0000         0.7362        15.2682       2121.598       110.9705         0.6271       -81.3514      -25.31623      0.1615093
      3509.5000         0.7258        15.3356       2185.434       109.9249         0.6146         -81.58      -25.54143      0.1537438
      3510.0000         0.7162        15.4031       2288.223       110.4932          0.599       -81.8091      -25.76713       0.145961
      3510.5000         0.7088         15.516       2378.172       111.6335         0.5807       -82.3022      -26.25684      0.1290745
      3511.0000         0.7009        15.4009       2458.703       113.5055         0.5568       -82.8558      -26.80704      0.1101021
      3511.5000         0.6905        15.2612       2535.504        118.864         0.5315       -83.4094      -27.35725      0.0911293
      3512.0000         0.6799        15.2378       2580.102       121.3712          0.508       -83.4355      -27.37996     0.09034624
      3512.5000         0.6651        15.2736        2614.02       119.9895          0.495       -83.3677      -27.30876     0.09280139
      3513.0000         0.6516        15.2924       2643.508       117.9702         0.4852       -82.5601      -26.49776      0.1207669
      3513.5000         0.6555        15.2991        2683.27       114.3771         0.4753        -81.364      -25.29827      0.1621286
      3514.0000         0.6594         15.301        2498.59       115.0186         0.4708       -80.2753      -24.20618      0.1997869
      3514.5000         0.6634        15.3142       2306.809       115.9878         0.4744       -79.5552      -23.48268      0.2247352
      3515.0000         0.6677         15.301       2216.055       116.4314         0.4781       -78.8354      -22.75949      0.2496728
      3515.5000         0.6713        15.2829       2145.473       115.9164         0.4817       -78.1154       -22.0361      0.2746172
      3516.0000         0.6662        15.1527       2108.793       114.5146         0.4852       -77.2783       -21.1956         0.3036
      3516.5000         0.6612        15.0473       2120.594       114.3292         0.4887       -75.9701      -19.88401      0.3488272
      3517.0000         0.6562        15.0842       2152.547       114.9736         0.4921       -74.6619      -18.57241      0.3940548
      3517.5000         0.6513        15.1178       2175.715       115.7787         0.4955       -73.3942      -17.30132      0.4378856
      3518.0000         0.6463        15.1228       2197.949       116.0131          0.498       -72.1982      -16.10192      0.4792442
      3518.5000         0.6414        15.0644       2220.184       115.8534         0.4976       -71.5248      -15.42513      0.5025817
      3519.0000         0.6347        14.9906       2242.434       116.1359         0.4972       -71.9033      -15.80023      0.4896472
      3519.5000         0.6265        15.0178       2297.391       116.4183         0.4946       -72.3333      -16.22684      0.4749366
      3520.0000         0.6185        15.1099       2354.023       116.6653         0.4909       -73.0448      -16.93494      0.4505193
      3520.5000         0.6118        15.2398       2398.141       116.8899         0.4856       -73.7562      -17.64295      0.4261052
      3521.0000         0.6051        15.4324       2458.801       117.0312         0.4759       -74.4678      -18.35115      0.4016845
      3521.5000         0.6026        15.5252       2536.359       116.8889         0.4661       -75.1796      -19.05956      0.3772565
      3522.0000         0.6004        15.4609       2591.156       116.2832         0.4573       -75.8911      -19.76766      0.3528393
      3522.5000         0.6083        15.3588        2585.25       116.7251         0.4488       -76.6777      -20.55087       0.325832
      3523.0000         0.6162        15.2539       2561.266       117.6669         0.4575       -77.5084      -21.37818      0.2973042
      3523.5000         0.6443        15.1231       2526.715       118.7216         0.4736       -78.3392      -22.20559      0.2687728
      3524.0000         0.6769        15.0041       2491.234       120.0947         0.4897       -79.1699      -23.03289      0.2402452
      3524.5000         0.7089         15.196       2459.078       118.9954         0.5056       -79.7743      -23.63389       0.219521
      3525.0000         0.7362        15.2953       2423.473       117.2112         0.5213       -80.1489       -24.0051      0.2067207
      3525.5000         0.7378        15.2979       2519.941       116.3043         0.5372       -80.5237       -24.3765      0.1939138
      3526.0000         0.7133        15.3476       2781.879       115.3488          0.554       -80.8984      -24.74781        0.18111
      3526.5000         0.6903        15.4341       2904.613        115.989         0.5553       -80.5441      -24.39011      0.1934445
