#------------------------------------------------------------------------------
# Created by    : vladimir.rabinovich
# Created on    : 09/19/2023 17:19:56
#------------------------------------------------------------------------------
~Version Information Section
VERS.           2.0     :   CWLS log ASCII Standard - VERSION 2.0
WRAP.           NO      :   One line per depth step
~Well Information Section
#MNEM       .UNIT                                         VALUE :DESCRIPTION
#------------------------------------------------------------------------------
STRT        .FT                                             748 :START DEPTH
STOP        .FT                                            7997 :STOP DEPTH
STEP        .FT                                             0.5 :STEP      
NULL        .                                           -999.25 :NULL      
COMP        .                                        EXXON CORP :COMPANY   
WELL        .                                     ST TR 00560-L :WELL      
FLD         .                                           WILDCAT :FIELD     
LOC         .                                                   :LOCATION  
CNTY        .                      MATAGORDA ISLAND LARGE BLOCK :LOCATION  
STAT        .                                             TEXAS :STATE     
CTRY        .                                     UNITED STATES :COUNTRY   
SRVC        .                                                   :SERVICE COMPANY
DATE        .                             9/13/2023 11:19:05 AM :LOG DATE  
API         .                                    42703302000000 :API NUMBER
UWI         .                                    42703302000000 :UNIQUE WELL ID
XCOORD      .                                  556028.985600478 :SURFACE X 
YCOORD      .                                   10283706.324983 :SURFACE Y 
LAT         .                                        28.2964478 :LATITUDE  
LON         .                                       -96.3697382 :LONGITUDE 
ELEV        .FT                                              92 :ELEVATION VALUE
ELEV_TYPE   .                                                KB :ELEVATION REFERENCE TYPE
~Curve Information Section
#MNEM       .UNIT                                      API CODE :CURVE DESCRIPTION
#------------------------------------------------------------------------------
DEPT        .FT                                                 :DEPTH     
ASFL        .OHMM                                               :          
CILD        .MMHO                                               :          
DT          .US/F                                               :          
GR          .GAPI                                               :          
GR_NORM     .GAPI                                               :GammaRay Normalized
ILD         .OHMM                                               :          
SP          .MV                                                 :          
SP_NORM     .MV                                                 :SP Normalized
VSH_GR      .V/V                                                :Volume of Shale from GR
VSH_SP      .V/V                                                :Volume of Shale from SP
~A        DEPTH           ASFL           CILD             DT             GR        GR_NORM            ILD             SP        SP_NORM         VSH_GR         VSH_SP
# ...
      6064.5000         0.7025       3938.277       105.4161        -999.25        -999.25         0.4936         -89.74      -37.21015        -999.25              0
      6065.0000         0.7105       4027.805       105.5027        -999.25        -999.25         0.4258       -89.7439      -37.21817        -999.25              0
      6065.5000         0.7186       4142.281       105.5892        -999.25        -999.25         0.3805       -89.7478       -37.2262        -999.25              0
      6066.0000         0.7266       4287.195       105.6758        -999.25        -999.25         0.3618       -89.7516      -37.23412        -999.25              0
      6066.5000         0.7347       4305.102       105.7623        -999.25        -999.25         0.3431       -89.7555      -37.24215        -999.25              0
      6067.0000         0.7463       4204.023       105.9216        -999.25        -999.25         0.3244       -89.7593      -37.25007        -999.25              0
      6067.5000          0.758       4101.094       106.5247        -999.25        -999.25         0.3057       -89.6373      -37.13219        -999.25              0
      6068.0000         0.7696       3999.234       107.1283        -999.25        -999.25         0.2869        -89.476      -36.97501        -999.25    0.000694063
      6068.5000         0.7813        3887.59       107.3955        -999.25        -999.25         0.2682       -89.3143      -36.81744        -999.25     0.00507111
      6069.0000         0.7929        3754.91       107.0922        -999.25        -999.25         0.2725        -89.153      -36.66026        -999.25    0.009437137
      6069.5000          0.801       3619.395       106.7888        -999.25        -999.25         0.2894       -88.7041      -36.21549        -999.25     0.02179199
      6070.0000         0.8057       3469.297       105.1597        -999.25        -999.25         0.3063       -87.8279      -35.34341        -999.25     0.04601627
      6070.5000         0.8076       2919.789       103.0927        -999.25        -999.25         0.3233       -86.8665      -34.38614        -999.25     0.07260736
      6071.0000         0.8017       2599.121       101.4269        -999.25        -999.25         0.3402       -85.5583      -33.08205        -999.25      0.1088318
      6071.5000         0.7957       2580.504        99.9163        -999.25        -999.25         0.3635       -83.9775      -31.50538        -999.25      0.1526283
      6072.0000         0.7931       2568.434        98.4766        -999.25        -999.25         0.3985       -81.9904      -29.52241        -999.25      0.2077108
      6072.5000         0.7981       2557.828        97.2192        -999.25        -999.25         0.4179       -80.6055      -28.14163        -999.25      0.2460658
      6073.0000          0.803       2604.035        95.9619        -999.25        -999.25         0.4012       -86.9565      -34.49675        -999.25     0.06953462
      6073.5000         0.7999       2755.016        94.6655        -999.25        -999.25         0.3845       -88.4412      -35.98558        -999.25     0.02817832
      6074.0000         0.7794       3426.832        93.3496        -999.25        -999.25         0.3678       -89.6581       -37.2066        -999.25              0
      6074.5000         0.7428        3581.43       108.0315        -999.25        -999.25         0.3511       -90.4868      -38.03943        -999.25              0
      6075.0000         0.7073       3720.957       111.4292        -999.25        -999.25         0.3307       -91.3156      -38.87235        -999.25              0
      6075.5000          0.673       3888.766       114.3353        -999.25        -999.25         0.3096       -91.8358      -39.39668        -999.25              0
      6076.0000         0.6519       3991.895       114.8135        -999.25        -999.25         0.2884       -91.7488       -39.3138        -999.25              0
      6076.5000         0.6323        4071.25       115.2911        -999.25        -999.25         0.2673       -90.4978      -38.06693        -999.25              0
      6077.0000         0.6127        4140.82       113.7703        -999.25        -999.25          0.263       -89.1239      -36.69715        -999.25    0.008412573
      6077.5000          0.605       4191.992       112.0065        -999.25        -999.25         0.2648       -87.7341      -35.31147        -999.25     0.04690361
      6078.0000         0.5976       4232.305       110.2404        -999.25        -999.25         0.2667       -86.6536       -34.2351        -999.25     0.07680289
      6078.5000         0.5946       4155.398       108.4767        -999.25        -999.25         0.2685       -85.7104      -33.29602        -999.25      0.1028883
      6079.0000         0.5983       4082.406       107.0457        -999.25        -999.25         0.2704       -85.2675      -32.85724        -999.25      0.1150766
      6079.5000         0.6019       4035.438        107.694        -999.25        -999.25         0.2722       -84.8245      -32.41837        -999.25      0.1272676
      6080.0000         0.6935       3988.473       109.2008        -999.25        -999.25          0.274       -84.9552      -32.55319        -999.25      0.1235225
      6080.5000         0.7326        3949.48       116.2922        -999.25        -999.25         0.2795       -85.1042      -32.70631        -999.25      0.1192691
      6081.0000         0.7175       3930.422        115.726        -999.25        -999.25         0.2869       -85.3198      -32.92604        -999.25      0.1131656
      6081.5000         0.7024       3911.344       114.5983        -999.25        -999.25         0.2944       -85.7098      -33.32016        -999.25      0.1022178
      6082.0000         0.6895       3893.109       113.4694        -999.25        -999.25         0.3018       -86.1001      -33.71458        -999.25     0.09126166
      6082.5000         0.6786       3880.082       112.2316        -999.25        -999.25         0.3092       -86.5818      -34.20041        -999.25     0.07776642
      6083.0000         0.6677       3867.055       110.9608        -999.25        -999.25         0.3167       -87.5443      -35.16703        -999.25     0.05091593
      6083.5000         0.6666       3819.293       109.6899        -999.25        -999.25         0.3241       -88.5057      -36.13255        -999.25     0.02409575
      6084.0000         0.6692       3668.512       108.8247        -999.25        -999.25         0.3315         -88.92      -36.55098        -999.25     0.01247289
      6084.5000         0.6916       3426.734       108.2345        -999.25        -999.25          0.339       -87.6794       -35.3145        -999.25     0.04681947
      6085.0000         0.7372       3312.055        107.645        -999.25        -999.25         0.3464        -85.248      -32.88723        -999.25      0.1142437
      6085.5000         0.7518       3210.492       107.2001        -999.25        -999.25         0.3575       -82.8157      -30.45905        -999.25      0.1816932
      6086.0000         0.7664           3092       106.8317        -999.25        -999.25         0.3699       -82.4169      -30.06437        -999.25      0.1926563
      6086.5000         0.7809       2944.641       106.4635        -999.25        -999.25         0.3823       -82.0179      -29.66949        -999.25      0.2036251
      6087.0000         0.7863       2807.461        106.639        -999.25        -999.25         0.3947       -81.6191      -29.27482        -999.25      0.2145883
      6087.5000         0.7773        2711.18       107.6743        -999.25        -999.25         0.4071       -81.2203      -28.88014        -999.25      0.2255516
      6088.0000         0.7684       2635.934       108.9207        -999.25        -999.25         0.4195       -79.9666      -27.63057        -999.25      0.2602621
      6088.5000         0.7594       2516.266        110.167        -999.25        -999.25         0.4319       -71.9227      -19.59079        -999.25      0.4835892
