#------------------------------------------------------------------------------
# Created by    : vladimir.rabinovich
# Created on    : 09/19/2023 17:19:49
#------------------------------------------------------------------------------
~Version Information Section
VERS.           2.0     :   CWLS log ASCII Standard - VERSION 2.0
WRAP.           NO      :   One line per depth step
~Well Information Section
#MNEM       .UNIT                                         VALUE :DESCRIPTION
#------------------------------------------------------------------------------
STRT        .FT                                            1295 :START DEPTH
STOP        .FT                                            4592 :STOP DEPTH
STEP        .FT                                             0.5 :STEP      
NULL        .                                           -999.25 :NULL      
COMP        .                     FREEPORT-MCMORAN OIL & GAS CO :COMPANY   
WELL        .                                     ST TR 00662-L :WELL      
FLD         .                                         SIX-SIXTY :FIELD     
LOC         .                                                   :LOCATION  
CNTY        .                      MATAGORDA ISLAND LARGE BLOCK :LOCATION  
STAT        .                                             TEXAS :STATE     
CTRY        .                                     UNITED STATES :COUNTRY   
SRVC        .                                                   :SERVICE COMPANY
DATE        .                             9/13/2023 11:19:13 AM :LOG DATE  
API         .                                    42703300650000 :API NUMBER
UWI         .                                    42703300650000 :UNIQUE WELL ID
XCOORD      .                                  434889.841251994 :SURFACE X 
YCOORD      .                                  10179416.4588751 :SURFACE Y 
LAT         .                                        28.0002971 :LATITUDE  
LON         .                                       -96.7355909 :LONGITUDE 
ELEV        .FT                                              77 :ELEVATION VALUE
ELEV_TYPE   .                                                KB :ELEVATION REFERENCE TYPE
~Curve Information Section
#MNEM       .UNIT                                      API CODE :CURVE DESCRIPTION
#------------------------------------------------------------------------------
DEPT        .FT                                                 :DEPTH     
ASFL        .OHMM                                               :          
CILD        .MMHO                                               :          
ILD         .OHMM                                               :          
SFL         .OHMM                                               :          
SP          .MV                                                 :          
SP_NORM     .MV                                                 :SP Normalized
VSH_SP      .V/V                                                :Volume of Shale from SP
~A        DEPTH           ASFL           CILD            ILD            SFL             SP        SP_NORM         VSH_SP
# ...
      1931.5000         0.8904        1068.74         0.8788         0.9546       -28.8533      -4.274408      0.9115025
      1932.0000         0.8732       1087.289         0.8829         0.9418       -27.9607      -3.364859      0.9360849
      1932.5000         0.8592       1102.559          0.888         0.9319       -27.1301      -2.517311      0.9589916
      1933.0000         0.8475       1113.559         0.8932          0.922       -26.2992      -1.669462      0.9819064
      1933.5000         0.8951       1113.133         0.8983         0.9121       -25.4766     -0.8299122              1
      1934.0000         0.9366       1084.586          0.909         0.9022       -25.1447     -0.4810619              1
      1934.5000         0.9737       1049.828         0.9267         0.8952       -26.6024      -1.921814      0.9750861
      1935.0000         1.0047       1009.094         0.9443         0.9226       -27.9906      -3.293066      0.9380252
      1935.5000         1.0313       971.3418         0.9619         0.9499       -29.1241      -4.409616      0.9078482
      1936.0000         1.0485       936.3115         0.9796         0.9815       -31.3158      -6.584368      0.8490711
      1936.5000         1.0524       912.9746          0.994         1.0134       -33.2379      -8.489517      0.7975806
      1937.0000         1.0336       890.4238         1.0058         1.0453       -34.1194      -9.354069      0.7742144
      1937.5000         0.9934         868.25         1.0175         1.0689       -32.6741      -7.891819      0.8137347
      1938.0000         0.9406       860.6211         1.0215         1.0866       -31.4796      -6.680372      0.8464764
      1938.5000         0.9063       876.2373          0.998         1.1043       -30.5672      -5.751022       0.871594
      1939.0000         0.8895       891.8594         0.9744         1.1123       -29.6546      -4.821472       0.896717
      1939.5000         0.8748       926.4375         0.9544         1.0919       -28.9865      -4.136423      0.9152318
      1940.0000         0.8613       970.7598          0.936         1.0714       -28.4457      -3.578674      0.9303061
      1940.5000         0.8483       1008.747         0.9176         1.0457       -27.9048      -3.020826      0.9453831
      1941.0000         0.8395       1044.445         0.8992         1.0179       -27.4476      -2.546677       0.958198
      1941.5000         0.8307       1078.301         0.8863           0.99       -27.0016      -2.083729        0.97071
      1942.0000         0.8225       1110.979         0.8748         0.9622       -26.8443      -1.909477      0.9754195
      1942.5000         0.8145       1143.658         0.8634          0.936       -28.0489       -3.09713      0.9433208
      1943.0000         0.8061       1169.123          0.852         0.9121       -29.4001      -4.431381      0.9072599
      1943.5000          0.797       1191.643         0.8406         0.8881        -30.611      -5.625332      0.8749911
      1944.0000         0.7843       1213.088         0.8291         0.8642       -30.8778      -5.875183      0.8682383
      1944.5000         0.7712       1229.797         0.8175         0.8402       -29.6586      -4.639034      0.9016477
      1945.0000         0.7577       1246.508         0.8059         0.8163       -28.5222      -3.485683      0.9328194
      1945.5000         0.7453       1263.355         0.7943         0.8039       -27.8427      -2.789234      0.9516423
      1946.0000         0.7332       1281.896         0.7828         0.7948       -27.1629      -2.092487      0.9704733
      1946.5000         0.7219       1300.439         0.7729         0.7858       -26.9561      -1.868738      0.9765206
      1947.0000         0.7117       1318.734         0.7631         0.7767        -28.448      -3.343689      0.9366571
      1947.5000         0.7014       1336.576         0.7533         0.7677       -29.3094      -4.188141       0.913834
      1948.0000         0.6942       1355.979         0.7434         0.7571       -30.0469      -4.908689      0.8943598
      1948.5000         0.6873       1377.652         0.7319         0.7464       -30.4453       -5.29014      0.8840503
      1949.0000         0.6803       1399.156          0.719         0.7357       -30.8966      -5.724493       0.872311
      1949.5000         0.6744       1420.582          0.706          0.725       -31.8929      -6.703844      0.8458421
      1950.0000         0.6685         1437.6          0.693         0.7141       -32.9989      -7.792896      0.8164082
      1950.5000         0.6626       1450.619           0.68          0.703       -33.9131      -8.690147      0.7921582
      1951.0000         0.6558       1463.643          0.667         0.6919       -34.8264      -9.586496      0.7679325
      1951.5000         0.6485       1476.555         0.6685         0.6807       -33.9961      -8.739248      0.7908311
      1952.0000         0.6424        1483.34          0.677         0.6696       -33.1066        -7.8328      0.8153297
      1952.5000         0.6376       1490.125         0.6856         0.6736       -32.4197       -7.12895      0.8343527
      1953.0000         0.6386       1488.688         0.6941         0.6836       -31.7325      -6.424801      0.8533838
      1953.5000         0.6562        1478.35         0.7026         0.6936       -31.1792      -5.854549       0.868796
      1954.0000         0.6781         1463.6         0.7126         0.7035       -30.9108      -5.569202      0.8765081
      1954.5000         0.7027       1439.459         0.7283         0.7136       -30.6423      -5.283752      0.8842229
      1955.0000         0.7221       1415.311         0.7441         0.7279       -30.2614      -4.885904      0.8949755
      1955.5000         0.7367       1392.346         0.7599         0.7422        -29.876      -4.483555      0.9058499
      1956.0000         0.7481       1371.482         0.7757         0.7565       -29.4063      -3.996906      0.9190025
      1956.5000         0.7582       1350.621         0.7915         0.7708       -28.8098      -3.383455      0.9355823
      1957.0000         0.7683       1329.803         0.8073         0.7792       -28.2492      -2.805908      0.9511917
      1957.5000         0.7746       1318.529         0.8105          0.787       -27.7395      -2.279259      0.9654254
      1958.0000         0.7731       1307.258         0.8091         0.7948       -28.0569       -2.57971      0.9573051
      1958.5000         0.7691       1295.984         0.8077         0.8026       -29.1703      -3.676161      0.9276713
      1959.0000         0.7654        1285.42         0.8059         0.8104       -30.9864      -5.475313      0.8790456
      1959.5000         0.7617       1275.668         0.8037          0.817       -32.7068      -7.178761      0.8330065
      1960.0000         0.7644       1262.688         0.8015         0.8219       -34.2971      -8.752113      0.7904834
      1960.5000         0.7767       1246.516         0.7994         0.8269       -32.6133      -7.051365      0.8364496
      1961.0000          0.795       1221.613          0.812         0.8318       -31.2803      -5.701416      0.8729347
      1961.5000         0.8172       1192.572         0.8313         0.8367       -29.7558      -4.159967      0.9145955
      1962.0000         0.8474       1158.246         0.8505         0.8472       -28.4149      -2.802118      0.9512941
      1962.5000         0.8732        1131.68         0.8698         0.8598       -27.8833      -2.253569      0.9661198
      1963.0000         0.8938       1107.533         0.8891         0.8724       -27.3518       -1.70512      0.9809427
      1963.5000         0.9305       1077.162         0.9075          0.885       -26.8684      -1.204771      0.9944656
      1964.0000         0.9735       1042.465         0.9258         0.8976       -26.3891     -0.7085209              1
      1964.5000         0.9893       1007.053         0.9441         0.9162       -25.7153    -0.01777267              1
