#------------------------------------------------------------------------------
# Created by    : vladimir.rabinovich
# Created on    : 09/19/2023 17:20:46
#------------------------------------------------------------------------------
~Version Information Section
VERS.           2.0     :   CWLS log ASCII Standard - VERSION 2.0
WRAP.           NO      :   One line per depth step
~Well Information Section
#MNEM       .UNIT                                         VALUE :DESCRIPTION
#------------------------------------------------------------------------------
STRT        .FT                                            1957 :START DEPTH
STOP        .FT                                            6608 :STOP DEPTH
STEP        .FT                                             0.5 :STEP      
NULL        .                                           -999.25 :NULL      
COMP        .                            HIGHLAND RESOURCES INC :COMPANY   
WELL        .                                     ST TR 00691-L :WELL      
FLD         .                                           WILDCAT :FIELD     
LOC         .                                                   :LOCATION  
CNTY        .                      MATAGORDA ISLAND LARGE BLOCK :LOCATION  
STAT        .                                             TEXAS :STATE     
CTRY        .                                     UNITED STATES :COUNTRY   
SRVC        .                                                   :SERVICE COMPANY
DATE        .                             9/13/2023 11:12:01 AM :LOG DATE  
API         .                                    42703000470000 :API NUMBER
UWI         .                                    42703000470000 :UNIQUE WELL ID
XCOORD      .                                  404407.912506245 :SURFACE X 
YCOORD      .                                  10154689.9311845 :SURFACE Y 
LAT         .                                        27.9298131 :LATITUDE  
LON         .                                       -96.8274765 :LONGITUDE 
ELEV        .FT                                              63 :ELEVATION VALUE
ELEV_TYPE   .                                                KB :ELEVATION REFERENCE TYPE
~Curve Information Section
#MNEM       .UNIT                                      API CODE :CURVE DESCRIPTION
#------------------------------------------------------------------------------
DEPT        .FT                                                 :DEPTH     
ASN         .OHMM                                               :          
CILD        .MMHO                                               :          
ILD         .OHMM                                               :          
SP          .MV                                                 :          
SP_NORM     .MV                                                 :SP Normalized
VSH_SP      .V/V                                                :Volume of Shale from SP
~A        DEPTH            ASN           CILD            ILD             SP        SP_NORM         VSH_SP
# ...
      2261.0000         0.7985       2384.598          0.422      -102.3605       -47.7623       0.104754
      2261.5000         0.8044       2318.715         0.4521      -100.7634       -46.2394       0.135212
      2262.0000         0.8104       2249.246         0.4822       -99.1669       -44.7171       0.165658
      2262.5000          0.819        2145.02         0.5124       -97.6318       -43.2563       0.194874
      2263.0000         0.8386       2058.281         0.5348       -97.8302       -43.5289       0.189422
      2263.5000         0.8668       1987.051         0.5195        -98.969       -44.7419       0.165162
      2264.0000         0.8893       1926.121         0.5041      -100.2924       -46.1396       0.137208
      2264.5000         0.9075       1923.533         0.4888      -101.6152       -47.5366       0.109268
      2265.0000          0.925        1939.52         0.4735      -102.7755       -48.7711     0.08457801
      2265.5000         0.9797       1965.365         0.4582      -103.7186       -49.7885     0.06422997
      2266.0000         1.0549        1988.92         0.4461      -104.6086       -50.7527     0.04494599
      2266.5000         0.9127       2088.688         0.4352      -104.8317         -51.05     0.03900002
      2267.0000         0.8614       2205.313         0.4242      -103.4004       -49.6929     0.06614197
      2267.5000         0.7915       2321.875         0.4132      -100.3262        -46.693        0.12614
      2268.0000         0.7644         2438.5         0.4023       -92.0703       -38.5113       0.289774
      2268.5000         0.7446       2555.063         0.4194       -86.6843       -33.1995        0.39601
      2269.0000         0.7351         2606.5         0.4905       -81.7059       -28.2954       0.494092
      2269.5000         0.7303       2437.832         0.5616       -76.7257       -23.3894       0.592212
      2270.0000         0.7391       2253.082         0.6328       -71.7455       -18.4834       0.690332
      2270.5000          0.766       2037.156         0.6864       -65.9167       -12.7289       0.805422
      2271.0000         0.7907       2016.516         0.7339       -62.4363        -9.3227       0.873546
      2271.5000          0.815       1995.875         0.7814       -60.1435        -7.1041       0.917918
      2272.0000         0.8409        1455.01          0.829       -58.0453        -5.0802       0.958396
      2272.5000         0.8871       1064.779         0.8765       -56.5397        -3.6488       0.987024
      2273.0000         0.9186       1039.232         0.8809       -56.2003         -3.368        0.99264
      2273.5000         0.9408       1019.134         0.8828        -55.861         -3.017        0.99966
      2274.0000         0.9559       1000.453         0.8846       -55.6798        -2.8241              1
      2274.5000         0.9692       981.7656         0.8865       -55.7311        -2.8638              1
      2275.0000         0.9827       986.1357         0.8883       -55.7825        -2.9035              1
      2275.5000         0.9869       1005.975         0.8902       -55.8339        -2.9432              1
      2276.0000         0.9895       1025.807         0.9081       -55.8852        -2.9828              1
      2276.5000         0.9904       1040.688          0.932       -55.9366        -3.0225        0.99955
      2277.0000         0.9915       1044.131         0.9558       -55.9879        -3.0622       0.998756
      2277.5000         0.9927       1017.434         0.9797       -56.2073        -3.2699       0.994602
      2278.0000         0.9955        976.251         1.0035       -56.6615        -3.7124       0.985752
      2278.5000         0.9989       935.0801         1.0287       -57.1157        -4.1549       0.976902
      2279.0000         1.0081       893.9102         1.0635       -57.5698        -4.5974       0.968052
      2279.5000         1.0377       833.1562         1.0983        -58.024        -5.0399       0.959202
      2280.0000         1.0933       759.0322         1.1331       -58.4781        -5.4823       0.950354
      2280.5000         1.1431       719.5566         1.1678       -58.9323        -5.9248       0.941504
      2281.0000         1.1827       717.9971         1.2026       -59.7989        -6.7798       0.924404
      2281.5000         1.2123       723.0273         1.1958       -60.9161        -7.8853       0.902294
      2282.0000         1.2471       736.9336         1.1855       -62.0333        -8.9908       0.880184
      2282.5000         1.2736       750.8398         1.1752        -63.151       -10.0968       0.858064
      2283.0000         1.2916        764.752          1.165       -64.2029       -11.1371       0.837258
      2283.5000          1.302       778.6582         1.1547        -63.774       -10.6965        0.84607
      2284.0000         1.3046       792.5645         1.1386       -61.6141        -8.5249       0.889502
      2284.5000         1.2997       806.4766         1.1219       -60.0662        -6.9653       0.920694
      2285.0000         1.2869       834.9863         1.1052       -58.5187        -5.4061       0.951878
      2285.5000         1.2742       871.0527         1.0885       -56.9711        -3.8469       0.983062
      2286.0000         1.2615       907.1309         1.0718       -56.5268        -3.3909       0.992182
      2286.5000         1.2454       943.1973         1.0551       -57.1443        -3.9967       0.980066
      2287.0000         1.2226       971.0283         1.0384       -58.2241        -5.0648       0.958704
      2287.5000         1.2027       990.0078         1.0217       -59.3038        -6.1329       0.937342
      2288.0000         1.1844       993.4561          1.005       -60.3835        -7.2009       0.915982
      2288.5000         1.1621       975.8525         0.9974       -61.4631        -8.2688       0.894624
      2289.0000         1.1256       958.2432         0.9941       -62.5428        -9.3368       0.873264
      2289.5000         1.0974       940.6387         0.9908        -63.368       -10.1503       0.856994
      2290.0000         1.0876       919.9414         0.9875       -63.8745       -10.6452       0.847096
      2290.5000         1.0862       897.4082         0.9841       -64.3807       -11.1397       0.837206
      2291.0000         1.0935       892.5098         0.9808       -64.8414       -11.5887       0.828226
      2291.5000         1.1008       910.4678         0.9747       -64.3495       -11.0851       0.838298
      2292.0000          1.108       928.4258         0.9672       -63.8574       -10.5814       0.848372
      2292.5000         1.1153       946.3848         0.9596       -63.3655       -10.0778       0.858444
      2293.0000         1.1185       964.3428         0.9521       -62.8736        -9.5742       0.868516
      2293.5000         1.1201       982.3018         0.9446       -62.3817        -9.0706       0.878588
      2294.0000           1.12       1002.333         0.9371       -61.9665        -8.6438       0.887124
      2294.5000         1.1196       1028.115         0.9296       -61.7626        -8.4282       0.891436
      2295.0000         1.1097       1053.885         0.9221       -61.5587        -8.2126       0.895748
      2295.5000         1.0914       1079.668         0.9145       -61.3548         -7.997        0.90006
      2296.0000         1.0661       1105.451          0.907       -61.1509        -7.7815        0.90437
      2296.5000         0.9552       1132.965         0.8889       -60.9471         -7.566        0.90868
      2297.0000          0.922       1162.197         0.8651       -60.7432        -7.3504       0.912992
      2297.5000         0.9046       1191.439         0.8413       -60.7751        -7.3706       0.912588
      2298.0000         0.8916       1209.137         0.8175       -60.8386        -7.4224       0.911552
      2298.5000         0.8835       1224.014         0.7937        -60.902        -7.4742       0.910516
