#------------------------------------------------------------------------------
# Created by    : vladimir.rabinovich
# Created on    : 09/19/2023 17:20:46
#------------------------------------------------------------------------------
~Version Information Section
VERS.           2.0     :   CWLS log ASCII Standard - VERSION 2.0
WRAP.           NO      :   One line per depth step
~Well Information Section
#MNEM       .UNIT                                         VALUE :DESCRIPTION
#------------------------------------------------------------------------------
STRT        .FT                                            1957 :START DEPTH
STOP        .FT                                            6608 :STOP DEPTH
STEP        .FT                                             0.5 :STEP      
NULL        .                                           -999.25 :NULL      
COMP        .                            HIGHLAND RESOURCES INC :COMPANY   
WELL        .                                     ST TR 00691-L :WELL      
FLD         .                                           WILDCAT :FIELD     
LOC         .                                                   :LOCATION  
CNTY        .                      MATAGORDA ISLAND LARGE BLOCK :LOCATION  
STAT        .                                             TEXAS :STATE     
CTRY        .                                     UNITED STATES :COUNTRY   
SRVC        .                                                   :SERVICE COMPANY
DATE        .                             9/13/2023 11:12:01 AM :LOG DATE  
API         .                                    42703000470000 :API NUMBER
UWI         .                                    42703000470000 :UNIQUE WELL ID
XCOORD      .                                  404407.912506245 :SURFACE X 
YCOORD      .                                  10154689.9311845 :SURFACE Y 
LAT         .                                        27.9298131 :LATITUDE  
LON         .                                       -96.8274765 :LONGITUDE 
ELEV        .FT                                              63 :ELEVATION VALUE
ELEV_TYPE   .                                                KB :ELEVATION REFERENCE TYPE
~Curve Information Section
#MNEM       .UNIT                                      API CODE :CURVE DESCRIPTION
#------------------------------------------------------------------------------
DEPT        .FT                                                 :DEPTH     
ASN         .OHMM                                               :          
CILD        .MMHO                                               :          
ILD         .OHMM                                               :          
SP          .MV                                                 :          
SP_NORM     .MV                                                 :SP Normalized
VSH_SP      .V/V                                                :Volume of Shale from SP
~A        DEPTH            ASN           CILD            ILD             SP        SP_NORM         VSH_SP
# ...
      5339.0000         1.1174       960.3574         0.5324       -60.5905        -5.8191       0.961904
      5339.5000         1.1216       957.3262         0.3421       -60.1727        -5.3399      0.9683797
      5340.0000         1.1258       954.2959         0.3023       -59.7549        -4.8608      0.9748541
      5340.5000         1.1299       951.2646          0.402       -59.3371        -4.3816      0.9813297
      5341.0000         1.1341       948.2344         0.5389       -59.1042        -4.0873      0.9853067
      5341.5000          1.142       945.2002         0.6757        -59.079        -4.0008      0.9864756
      5342.0000         1.1527       941.2012         0.8124       -59.0538        -3.9142      0.9876459
      5342.5000         1.1634       935.7275          0.905       -59.0286        -3.8276      0.9888162
      5343.0000         1.1741       930.2588         0.9346       -59.0148        -3.7525      0.9898311
      5343.5000         1.1848       925.3359         0.9643       -59.0266        -3.7029      0.9905013
      5344.0000         1.1955       920.8604         0.9939       -59.0384        -3.6533      0.9911716
      5344.5000         1.2062       915.6055         1.0235       -59.0502        -3.6038      0.9918405
      5345.0000         1.2182       904.6455         1.0384        -59.062        -3.5542      0.9925108
      5345.5000         1.2303       893.6846          1.031       -59.0739        -3.5047      0.9931797
      5346.0000         1.2424       884.0537         1.0236       -59.0856        -3.4551        0.99385
      5346.5000         1.2546       874.7012         1.0163       -59.0235        -3.3316      0.9955189
      5347.0000         1.2602       865.3555         1.0089       -58.8383         -3.085      0.9988514
      5347.5000         1.2456       851.2031         1.0015        -58.653        -2.8384              1
      5348.0000          1.231       865.0459         0.9942       -58.4677        -2.5917              1
      5348.5000         1.2086       878.8887         0.9868       -58.2824         -2.345              1
      5349.0000         1.1856       897.0869          0.974       -58.0972        -2.0984              1
      5349.5000         1.1624       959.8564         0.9585       -58.0981         -2.038              1
      5350.0000         1.1393       1072.432         1.0421        -58.379        -2.2575              1
      5350.5000         1.1162       1098.781         1.0356       -58.6597        -2.4768              1
      5351.0000          1.095       1108.826         1.0276       -58.9404        -2.6962              1
      5351.5000         1.0744       1115.965         1.0152       -59.2213        -2.9157              1
      5352.0000         1.0539        1121.68         1.0028       -59.4883        -3.1213      0.9983608
      5352.5000         1.0345       1126.047          0.985       -59.7412        -3.3129      0.9957716
      5353.0000         1.0176        1129.33         0.9649       -59.9939        -3.5042      0.9931865
      5353.5000         1.0008       1132.619         0.9531       -60.2468        -3.6957      0.9905987
      5354.0000          0.984       1135.902         0.9434       -60.4997        -3.8978      0.9878676
      5354.5000         0.9777       1134.592         0.9418       -60.7524        -4.1641      0.9842689
      5355.0000         0.9737       1132.379         0.9403       -60.4247        -3.8499      0.9885148
      5355.5000         0.9846       1126.775         0.9413       -59.9365        -3.3753      0.9949284
      5356.0000          0.998       1116.693         0.9468       -59.4482        -2.9005              1
      5356.5000         1.0114       1105.213         0.9523       -58.9596        -2.4255              1
      5357.0000         1.0248       1092.621         0.9598       -58.4714        -1.9508              1
      5357.5000         1.0382       1075.746         0.9687       -57.9832        -1.4761              1
      5358.0000         1.0516       1046.279         0.9777       -57.5435          -1.05              1
      5358.5000         1.0642       1020.943         0.9821         -57.38           -0.9              1
      5359.0000         1.0766       966.0918         0.9861       -57.2165        -0.7501              1
      5359.5000          1.089       949.6748         0.9884        -57.053        -0.6001              1
      5360.0000         1.1014        937.082         0.9908       -56.8895        -0.4502              1
      5360.5000         1.1137       912.2285         0.9931       -56.8023        -0.3765              1
      5361.0000         1.1145       914.9072          0.985       -57.0828        -0.6706              1
      5361.5000           1.11         949.96         0.9765       -57.3632        -0.9645              1
      5362.0000          1.091        987.542          0.968       -57.6437        -1.2585              1
      5362.5000         1.0663       1048.357          0.961       -57.9241        -1.5525              1
      5363.0000         1.0416       1076.414         0.9595       -58.2046        -1.8465              1
      5363.5000         1.0169       1103.383         0.9581       -58.4853        -2.1408              1
      5364.0000         0.9922         1130.5         0.9572       -58.7657        -2.4347              1
      5364.5000         0.9727        1158.16         0.9583       -58.4767        -2.1593              1
      5365.0000         0.9571       1182.457         0.9595       -58.1245        -1.8206              1
      5365.5000         0.9547       1191.785         0.9606       -57.7722        -1.4818              1
      5366.0000         0.9686       1181.889         0.9626         -57.42        -1.1432              1
      5366.5000         0.9824       1172.004         0.9645        -56.602        -0.3387              1
      5367.0000         0.9962       1159.064         0.9665       -55.7302         0.5195              1
      5367.5000         1.0242       1140.805         0.9703       -54.8734         1.3628              1
      5368.0000         1.0622       1116.373           0.98        -54.815         1.4076              1
      5368.5000         1.1001       1087.646         0.9897       -56.3843        -0.1752              1
      5369.0000         1.1226       1063.549         0.9996       -62.2631        -6.0675      0.9585473
      5369.5000         1.1542        1040.49         1.0153       -63.7013        -7.5193      0.9389284
      5370.0000         1.1858        996.252         1.0311       -63.1672        -6.9987      0.9459635
      5370.5000         1.2174       967.9961         1.0468       -62.6332        -6.4783       0.952996
      5371.0000         1.2489       949.9346         1.0694       -61.7388        -5.5974         0.9649
      5371.5000         1.2805       941.2998         1.0935       -60.1268         -3.999         0.9865
      5372.0000         1.3115       931.2793         1.1177        -58.515        -2.4007              1
      5372.5000         1.3425       914.8516         1.1511       -57.0707          -0.97              1
      5373.0000         1.3842       889.1943         1.1918       -56.2397        -0.1525              1
      5373.5000         1.4382       849.8301         1.2812        -56.322        -0.2483              1
      5374.0000          1.506       817.0723         1.3747       -56.6458        -0.5857              1
      5374.5000         1.6762       785.0811         1.4767       -56.9693        -0.9227              1
      5375.0000         1.7232       749.5273         1.6292        -57.293          -1.26              1
      5375.5000         1.7541       710.6572          1.726       -57.6166        -1.5971              1
      5376.0000         1.7766       681.6357          1.759       -57.9404        -1.9345              1
      5376.5000         1.7946       655.2607         1.7898       -58.2447        -2.2523              1
