#------------------------------------------------------------------------------
# Created by    : vladimir.rabinovich
# Created on    : 09/19/2023 17:22:56
#------------------------------------------------------------------------------
~Version Information Section
VERS.           2.0     :   CWLS log ASCII Standard - VERSION 2.0
WRAP.           NO      :   One line per depth step
~Well Information Section
#MNEM       .UNIT                                         VALUE :DESCRIPTION
#------------------------------------------------------------------------------
STRT        .FT                                             513 :START DEPTH
STOP        .FT                                           16000 :STOP DEPTH
STEP        .FT                                             0.5 :STEP      
NULL        .                                           -999.25 :NULL      
COMP        .              PENNZOIL EXPLORATION & PRODUCTION CO :COMPANY   
WELL        .                                ST TR 00486-L SE/4 :WELL      
FLD         .                                           WILDCAT :FIELD     
LOC         .                                                   :LOCATION  
CNTY        .                      MATAGORDA ISLAND LARGE BLOCK :LOCATION  
STAT        .                                             TEXAS :STATE     
CTRY        .                                     UNITED STATES :COUNTRY   
SRVC        .                                                   :SERVICE COMPANY
DATE        .                             9/13/2023 11:19:05 AM :LOG DATE  
API         .                                    42703302080000 :API NUMBER
UWI         .                                    42703302080000 :UNIQUE WELL ID
XCOORD      .                                  648049.134083277 :SURFACE X 
YCOORD      .                                  10318924.3450998 :SURFACE Y 
LAT         .                                        28.3999658 :LATITUDE  
LON         .                                       -96.0869402 :LONGITUDE 
ELEV        .FT                                              47 :ELEVATION VALUE
ELEV_TYPE   .                                                KB :ELEVATION REFERENCE TYPE
~Curve Information Section
#MNEM       .UNIT                                      API CODE :CURVE DESCRIPTION
#------------------------------------------------------------------------------
DEPT        .FT                                                 :DEPTH     
SFL         .OHMM                                               :          
SP          .MV                                                 :          
SP_NORM     .MV                                                 :SP Normalized
VSH_SP      .V/V                                                :Volume of Shale from SP
~A        DEPTH            SFL             SP        SP_NORM         VSH_SP
# ...
      1520.0000         0.7459       -89.7837      -0.751442              1
      1520.5000         0.7084       -89.4631     -0.4308395              1
      1521.0000         0.6827       -89.2971     -0.2648392              1
      1521.5000         0.6665       -89.1312    -0.09894562              1
      1522.0000         0.6749        -89.056    -0.02374268              1
      1522.5000         0.6831       -89.0645    -0.03224182              1
      1523.0000         0.6908       -89.0729    -0.04064178              1
      1523.5000         0.6958       -89.1235    -0.09123993              1
      1524.0000         0.6772       -89.1752     -0.1429443              1
      1524.5000         0.6649       -89.2351     -0.2028427              1
      1525.0000         0.6583       -89.3275     -0.2952423              1
      1525.5000          0.658       -89.4199     -0.3876419              1
      1526.0000         0.6525       -89.5321     -0.4998398              1
      1526.5000         0.6417       -89.6486     -0.6163406              1
      1527.0000         0.6194       -89.7477     -0.7154465              1
      1527.5000         0.5987       -89.8351     -0.8028412              1
      1528.0000         0.5812       -89.5787     -0.5464401              1
      1528.5000         0.5702       -89.0332  -0.0009460449              1
      1529.0000         0.5719       -88.1465      0.8857574              1
      1529.5000          0.581       -87.7104       1.321854              1
      1530.0000         0.5937       -87.3873       1.644958              1
      1530.5000         0.5877       -87.2548       1.777458              1
      1531.0000         0.5782       -87.0959       1.936356              1
      1531.5000         0.5624        -86.881        2.15126              1
      1532.0000         0.5511        -86.677       2.355255              1
      1532.5000         0.5453       -86.9437       2.088554              1
      1533.0000         0.5409       -87.5681       1.464157              1
      1533.5000         0.5483       -88.2802      0.7520599              1
      1534.0000         0.5558       -89.0216     0.01065826              1
      1534.5000         0.5763       -89.8616     -0.8293457              1
      1535.0000         0.5976       -90.2493      -1.217041              1
      1535.5000         0.6101       -90.4611      -1.428841              1
      1536.0000         0.6209       -90.6973      -1.665047              1
      1536.5000         0.6194        -90.975      -1.942741              1
      1537.0000         0.6222        -91.287      -2.254745      0.9818039
      1537.5000         0.6351       -91.6255      -2.593246      0.9576253
      1538.0000          0.651       -92.0132      -2.980942      0.9299327
      1538.5000         0.6726       -92.2975      -3.265244      0.9096255
      1539.0000         0.7005       -92.4878      -3.455544      0.8960326
      1539.5000         0.7273       -92.2524      -3.220146      0.9128467
      1540.0000         0.7444       -91.9608      -2.928543      0.9336755
      1540.5000         0.7421       -91.6497      -2.617439      0.9558972
      1541.0000         0.7069       -91.5746      -2.542343      0.9612612
      1541.5000         0.6748       -91.5018      -2.469543      0.9664612
      1542.0000         0.6528       -91.5696      -2.537346      0.9616181
      1542.5000         0.6349       -91.7633      -2.731041      0.9477828
      1543.0000         0.6221       -92.0079      -2.975639      0.9303115
      1543.5000          0.613       -92.2883      -3.256042      0.9102827
      1544.0000         0.6081       -92.5341      -3.501846      0.8927253
      1544.5000         0.6028       -92.7484      -3.716141      0.8774185
      1545.0000         0.5971       -92.9604      -3.928146      0.8622752
      1545.5000         0.5918       -93.1708      -4.138542       0.847247
      1546.0000         0.5873       -93.4298      -4.397545      0.8287468
      1546.5000         0.5837       -93.7009       -4.66864      0.8093829
      1547.0000         0.5824       -93.8054       -4.77314      0.8019186
      1547.5000         0.5818       -93.8744       -4.84214        0.79699
      1548.0000         0.5853       -93.8234      -4.791145      0.8006325
      1548.5000          0.588       -93.7496      -4.717346      0.8059039
      1549.0000         0.5836       -93.3193      -4.287041      0.8366399
      1549.5000         0.5784       -92.8463      -3.814041      0.8704256
      1550.0000         0.5711       -91.6382      -2.605942      0.9567184
      1550.5000         0.5674       -90.5237       -1.49144              1
      1551.0000         0.5656       -89.7607     -0.7284393              1
      1551.5000         0.5639       -89.4874     -0.4551392              1
      1552.0000         0.5621       -90.3837       -1.35144              1
      1552.5000         0.5537       -91.9337      -2.901443      0.9356112
      1553.0000         0.5434       -92.8339      -3.801643      0.8713112
      1553.5000         0.5475       -93.2471      -4.214844      0.8417969
      1554.0000         0.5967        -93.561       -4.52874      0.8193757
      1554.5000         0.6554        -93.849      -4.816742      0.7988042
      1555.0000         0.6897       -94.1484      -5.116142      0.7774184
      1555.5000         0.6906       -94.4878      -5.455544      0.7531754
      1556.0000         0.6723       -94.6863      -5.654045      0.7389968
      1556.5000         0.6553       -94.7089      -5.676643      0.7373826
      1557.0000         0.6492       -94.6685      -5.636246      0.7402682
      1557.5000         0.6571       -94.5546      -5.522346      0.7484038
      1558.0000         0.6423       -94.3671      -5.334846      0.7617967
      1558.5000         0.6164       -94.0676      -5.035339      0.7831901
      1559.0000         0.5966       -93.7662       -4.73394      0.8047186
      1559.5000          0.587       -93.3047      -4.272446      0.8376824
      1560.0000         0.6008       -92.8434      -3.811142      0.8706327
      1560.5000         0.6034       -92.4639      -3.431641      0.8977399
      1561.0000         0.5923       -92.0984      -3.066139      0.9238472
      1561.5000         0.5821       -92.0033      -2.971046      0.9306396
      1562.0000         0.5949       -91.9082      -2.875946      0.9374324
      1562.5000         0.6364       -91.8688       -2.83654      0.9402471
      1563.0000         0.6732       -91.8712      -2.838943      0.9400755
      1563.5000          0.698       -91.9075      -2.875244      0.9374825
      1564.0000         0.7172       -92.1323      -3.100044      0.9214254
      1564.5000         0.7294       -92.3573      -3.325043      0.9053541
      1565.0000         0.7347       -92.6527      -3.620445      0.8842539
      1565.5000         0.7345       -92.8887      -3.856445      0.8673968
      1566.0000         0.7248       -92.9335      -3.901245      0.8641968
      1566.5000          0.714       -92.8586       -3.82634      0.8695472
      1567.0000         0.6978       -93.8064      -4.774139      0.8018472
      1567.5000          0.699       -94.5525      -5.520241      0.7485542
      1568.0000         0.7074       -94.5968      -5.564545      0.7453896
      1568.5000         0.7158       -94.4771      -5.444839        0.75394
      1569.0000         0.7137       -94.2271      -5.194839      0.7717972
      1569.5000         0.6945       -93.3978       -4.36554      0.8310329
      1570.0000          0.691       -92.5702      -3.537941      0.8901471
      1570.5000         0.7166       -91.7665      -2.734245      0.9475539
      1571.0000         0.7272       -91.0308      -1.998543              1
      1571.5000         0.7246       -90.5204      -1.488144              1
      1572.0000         0.6904       -89.8578     -0.8255463              1
      1572.5000         0.6659       -89.7776     -0.7453461              1
