#------------------------------------------------------------------------------
# Created by    : vladimir.rabinovich
# Created on    : 09/19/2023 17:22:51
#------------------------------------------------------------------------------
~Version Information Section
VERS.           2.0     :   CWLS log ASCII Standard - VERSION 2.0
WRAP.           NO      :   One line per depth step
~Well Information Section
#MNEM       .UNIT                                         VALUE :DESCRIPTION
#------------------------------------------------------------------------------
STRT        .FT                                             970 :START DEPTH
STOP        .FT                                           10993 :STOP DEPTH
STEP        .FT                                             0.5 :STEP      
NULL        .                                           -999.25 :NULL      
COMP        .                               AMOCO PRODUCTION CO :COMPANY   
WELL        .                                     ST TR 00558-L :WELL      
FLD         .                                           WILDCAT :FIELD     
LOC         .                                                   :LOCATION  
CNTY        .                      MATAGORDA ISLAND LARGE BLOCK :LOCATION  
STAT        .                                             TEXAS :STATE     
CTRY        .                                     UNITED STATES :COUNTRY   
SRVC        .                                                   :SERVICE COMPANY
DATE        .                             9/13/2023 11:19:13 AM :LOG DATE  
API         .                                    42703301770000 :API NUMBER
UWI         .                                    42703301770000 :UNIQUE WELL ID
XCOORD      .                                   593347.98828382 :SURFACE X 
YCOORD      .                                   10274817.073936 :SURFACE Y 
LAT         .                                        28.2748406 :LATITUDE  
LON         .                                       -96.2531821 :LONGITUDE 
ELEV        .FT                                              93 :ELEVATION VALUE
ELEV_TYPE   .                                                KB :ELEVATION REFERENCE TYPE
~Curve Information Section
#MNEM       .UNIT                                      API CODE :CURVE DESCRIPTION
#------------------------------------------------------------------------------
DEPT        .FT                                                 :DEPTH     
GR          .GAPI                                               :          
GR_NORM     .GAPI                                               :GammaRay Normalized
ILD         .OHMM                                               :          
SP          .MV                                                 :          
SP_NORM     .MV                                                 :SP Normalized
VSH_GR      .V/V                                                :Volume of Shale from GR
VSH_SP      .V/V                                                :Volume of Shale from SP
~A        DEPTH             GR        GR_NORM            ILD             SP        SP_NORM         VSH_GR         VSH_SP
       970.0000        22.6451       73.24399        -999.25        -999.25        -999.25      0.8562551        -999.25
       970.5000        22.7258       73.46066        -999.25        -999.25        -999.25      0.8608652        -999.25
       971.0000        22.8065       73.67735        -999.25        -999.25        -999.25      0.8654756        -999.25
       971.5000        22.9338       74.01913        -999.25        -999.25        -999.25      0.8727474        -999.25
       972.0000        23.0873       74.43127        -999.25        -999.25        -999.25      0.8815165        -999.25
       972.5000        23.0623       74.36417        -999.25        -999.25        -999.25      0.8800886        -999.25
       973.0000        22.3865       72.54963        -999.25        -999.25        -999.25      0.8414814        -999.25
       973.5000        21.9483       71.37304        -999.25        -999.25        -999.25      0.8164476        -999.25
       974.0000        21.5964       70.42817        -999.25        -999.25        -999.25       0.796344        -999.25
       974.5000        20.7433        68.1376        -999.25        -999.25        -999.25      0.7476086        -999.25
       975.0000        22.3937       72.56896        -999.25        -999.25        -999.25      0.8418928        -999.25
       975.5000        23.4712       75.33259        -999.25        -999.25        -999.25      0.9006934        -999.25
       976.0000        24.2086       77.05429        -999.25        -999.25        -999.25      0.9373254        -999.25
       976.5000        24.6805       78.06308        -999.25        -999.25        -999.25      0.9587889        -999.25
       977.0000        24.7882       78.09399        -999.25        -999.25        -999.25      0.9594465        -999.25
       977.5000        24.5957       77.31888        -999.25        -999.25        -999.25      0.9429548        -999.25
       978.0000        24.2325       76.08542        -999.25        -999.25        -999.25       0.916711        -999.25
       978.5000        23.6103       74.15652        -999.25        -999.25        -999.25      0.8756706        -999.25
       979.0000         22.945       72.11192        -999.25        -999.25        -999.25      0.8321686        -999.25
       979.5000        23.6826       73.83415        -999.25        -999.25        -999.25      0.8688117        -999.25
       980.0000        24.3952       75.48923        -999.25        -999.25        -999.25      0.9040263        -999.25
       980.5000        24.9564       76.73779        -999.25        -999.25        -999.25      0.9305913        -999.25
       981.0000        24.3005       74.71846        -999.25        -999.25        -999.25      0.8876268        -999.25
       981.5000        23.6991       72.84544        -999.25        -999.25        -999.25      0.8477752        -999.25
       982.0000        23.2155       71.28867        -999.25        -999.25        -999.25      0.8146524        -999.25
       982.5000        22.9709       70.37365        -999.25        -999.25        -999.25       0.795184        -999.25
       983.0000        22.7004       69.38908        -999.25        -999.25        -999.25      0.7742358        -999.25
       983.5000        22.3465       68.18063        -999.25        -999.25        -999.25      0.7485241        -999.25
       984.0000        21.9189       66.77422        -999.25        -999.25        -999.25      0.7186005        -999.25
       984.5000         22.132       67.08818        -999.25        -999.25        -999.25      0.7252805        -999.25
       985.0000        22.6702       68.27498        -999.25        -999.25        -999.25      0.7505314        -999.25
       985.5000        23.2852       69.66798        -999.25        -999.25        -999.25      0.7801697        -999.25
       986.0000        23.6564       70.40644        -999.25        -999.25        -999.25      0.7958817        -999.25
       986.5000        23.9846        71.0294        -999.25        -999.25        -999.25      0.8091361        -999.25
       987.0000        24.3308       71.70067        -999.25        -999.25        -999.25      0.8234185        -999.25
       987.5000        23.5978       69.47431        -999.25        -999.25        -999.25      0.7760492        -999.25
       988.0000          21.76       64.28152        -999.25        -999.25        -999.25      0.6655642        -999.25
       988.5000        20.0729       59.49336        -999.25        -999.25        -999.25      0.5636885        -999.25
       989.0000        19.4301        57.5092        -999.25        -999.25        -999.25      0.5214723        -999.25
       989.5000        19.1486       56.49509        -999.25        -999.25        -999.25      0.4998956        -999.25
       990.0000        18.9916       55.81528        -999.25        -999.25        -999.25      0.4854316        -999.25
       990.5000        20.9316       60.76593        -999.25        -999.25        -999.25      0.5907646        -999.25
       991.0000        22.4135        64.4866        -999.25        -999.25        -999.25      0.6699277        -999.25
       991.5000        23.4253       66.94505        -999.25        -999.25        -999.25      0.7222351        -999.25
       992.0000        24.3586       69.19273        -999.25        -999.25        -999.25      0.7700582        -999.25
       992.5000        25.2711       71.38457        -999.25        -999.25        -999.25      0.8166931        -999.25
       993.0000        24.7218       69.65142          0.978      -154.2893       9.566116      0.7798175              1
       993.5000         23.392       65.82262         1.0085       -156.157       7.698425      0.6983537              1
       994.0000        22.3391       62.73731         1.0586      -157.8923        5.96312      0.6327087              1
       994.5000        21.8098       61.05786         1.0934      -159.6714       4.184021      0.5969757              1
       995.0000        21.8829        60.9959         1.1134      -160.9778       2.877625      0.5956573              1
       995.5000        22.6084       62.68562         1.1252      -162.0212       1.834229      0.6316088              1
       996.0000        23.3982       64.54798         1.1233      -162.9333      0.9221191      0.6712337              1
       996.5000        24.0522       66.04574         1.1188      -163.5439      0.3115234      0.7031008              1
       997.0000        23.8826       65.33207         1.1144      -164.0901     -0.2346802      0.6879164              1
       997.5000         23.701       64.58623         1.1091      -164.7646     -0.9091797      0.6720474              1
       998.0000        23.4842       63.74585         1.1042      -165.7349      -1.879471      0.6541669              1
       998.5000        23.3153       63.03408         1.0993       -166.052      -2.196579       0.639023      0.9848785
       999.0000        23.1817       62.41713          1.094      -165.8525       -1.99707      0.6258963              1
       999.5000        23.0199       61.72441         1.0887      -165.9089      -2.053482      0.6111576       0.995886
      1000.0000        22.7156       60.64912         1.0865      -165.9988      -2.143372      0.5882792      0.9889714
      1000.5000        21.7065       57.68139         1.0918      -166.0979      -2.242477      0.5251359      0.9813479
      1001.0000        21.4286       56.67698         1.0918      -166.2876      -2.432175      0.5037656      0.9667558
      1001.5000        21.6425       56.99305         1.0883      -166.4731      -2.617676      0.5104905      0.9524865
      1002.0000        23.1497       60.78164         1.0822      -166.6467      -2.791275      0.5910986      0.9391327
      1002.5000        24.5513       64.28671         1.0825      -166.6392      -2.783783      0.6656747       0.939709
      1003.0000        25.4685       66.49117         1.0842      -166.6316      -2.776184      0.7125781      0.9402936
