#------------------------------------------------------------------------------
# Created by    : vladimir.rabinovich
# Created on    : 09/19/2023 17:20:49
#------------------------------------------------------------------------------
~Version Information Section
VERS.           2.0     :   CWLS log ASCII Standard - VERSION 2.0
WRAP.           NO      :   One line per depth step
~Well Information Section
#MNEM       .UNIT                                         VALUE :DESCRIPTION
#------------------------------------------------------------------------------
STRT        .FT                                            2010 :START DEPTH
STOP        .FT                                            6610 :STOP DEPTH
STEP        .FT                                             0.5 :STEP      
NULL        .                                           -999.25 :NULL      
COMP        .                                      SHELL OIL CO :COMPANY   
WELL        .                                ST TR 00691-L SE/4 :WELL      
FLD         .                                           WILDCAT :FIELD     
LOC         .                                                   :LOCATION  
CNTY        .                      MATAGORDA ISLAND LARGE BLOCK :LOCATION  
STAT        .                                             TEXAS :STATE     
CTRY        .                                     UNITED STATES :COUNTRY   
SRVC        .                                                   :SERVICE COMPANY
DATE        .                             9/13/2023 11:12:05 AM :LOG DATE  
API         .                                    42703000190000 :API NUMBER
UWI         .                                    42703000190000 :UNIQUE WELL ID
XCOORD      .                                  412077.623085271 :SURFACE X 
YCOORD      .                                  10154908.2726125 :SURFACE Y 
LAT         .                                        27.9310704 :LATITUDE  
LON         .                                         -96.80379 :LONGITUDE 
ELEV        .FT                                              82 :ELEVATION VALUE
ELEV_TYPE   .                                                DF :ELEVATION REFERENCE TYPE
~Curve Information Section
#MNEM       .UNIT                                      API CODE :CURVE DESCRIPTION
#------------------------------------------------------------------------------
DEPT        .FT                                                 :DEPTH     
ASN         .OHMM                                               :          
CILD        .MMHO                                               :          
ILD         .OHMM                                               :          
SP          .MV                                                 :          
SP_NORM     .MV                                                 :SP Normalized
VSH_SP      .V/V                                                :Volume of Shale from SP
~A        DEPTH            ASN           CILD            ILD             SP        SP_NORM         VSH_SP
# ...
      2922.0000         0.6977       1021.553         1.0059        -72.145        -0.4469              1
      2922.5000         0.7053       1027.861         1.0044       -72.2471         -0.549              1
      2923.0000         0.7122       1034.168         1.0067       -72.3491         -0.651              1
      2923.5000         0.7141       1040.477          1.009       -72.3618        -0.6637              1
      2924.0000          0.716       1043.756         1.0113       -72.3579        -0.6598              1
      2924.5000         0.7179       1044.357         1.0136       -72.3541         -0.656              1
      2925.0000         0.7146       1044.961         1.0157       -72.3503        -0.6522              1
      2925.5000         0.7111       1042.531         1.0178       -72.3464        -0.6483              1
      2926.0000         0.7075       1039.113         1.0198       -72.3427        -0.6446              1
      2926.5000          0.704       1035.695         1.0218       -72.1802        -0.4821              1
      2927.0000         0.7004       1034.578         0.9942       -71.9437        -0.2456              1
      2927.5000         0.6943        1048.83         0.9582       -71.7072        -0.0091              1
      2928.0000         0.6877       1086.271         0.9221        -71.511         0.1871              1
      2928.5000         0.6812        1129.26         0.8861       -71.9291         -0.231              1
      2929.0000         0.6746       1172.225           0.85       -72.3474        -0.6493              1
      2929.5000         0.6681       1253.945         0.8139       -72.7656        -1.0675              1
      2930.0000         0.6615       1319.492         0.7823       -73.5262        -1.8281              1
      2930.5000         0.6601       1372.855         0.7539       -74.5552        -2.8571      0.9740273
      2931.0000         0.6618       1443.223         0.7255       -75.7764        -4.0783      0.9370212
      2931.5000         0.6539       1642.338         0.6971       -78.5975        -6.8994      0.8515334
      2932.0000         0.6441        1758.41         0.6688       -81.0414        -9.3433      0.7774758
      2932.5000         0.6343       1820.043         0.6531       -85.7765       -14.0784      0.6339879
      2933.0000         0.6245       1868.219         0.6666       -85.7427       -14.0446      0.6350121
      2933.5000         0.6147       1926.572         0.6668       -84.6971        -12.999       0.666697
      2934.0000         0.5977       1961.469         0.6428       -83.6523       -11.9542      0.6983576
      2934.5000         0.5765       1990.625         0.6243       -82.6074       -10.9093      0.7300212
      2935.0000         0.5553       2020.846         0.6059       -81.5625        -9.8644      0.7616848
      2935.5000         0.5341       2072.473         0.5875       -80.5171         -8.819      0.7933636
      2936.0000         0.5221       2224.559          0.569        -79.825        -8.1269      0.8143364
      2936.5000         0.5111       2402.289         0.5558       -83.1729       -11.4748      0.7128848
      2937.0000            0.5        2580.02         0.5437        -91.527       -19.8289      0.4597303
      2937.5000          0.489        2757.75         0.5316      -100.0409       -28.3428      0.2017333
      2938.0000          0.478       2945.754         0.5195      -103.6906       -31.9925     0.09113635
      2938.5000          0.467       2997.109         0.5074      -103.3051        -31.607      0.1028182
      2939.0000         0.4612       3008.672         0.4954      -102.9196       -31.2215         0.1145
      2939.5000         0.4594       3026.336         0.4722      -103.3688       -31.6707      0.1008879
      2940.0000         0.4457       3309.434         0.4479      -103.9841        -32.286     0.08224244
      2940.5000         0.4289       3457.805         0.4236      -104.5646       -32.8665     0.06465149
      2941.0000          0.412       3508.598         0.3993      -105.1135       -33.4154     0.04801814
      2941.5000         0.3958        3561.52          0.375      -105.6626       -33.9645     0.03137878
      2942.0000         0.3817       3718.375         0.3511      -106.2115       -34.5134     0.01474542
      2942.5000         0.3676           3842         0.3283       -106.575       -34.8769    0.003730312
      2943.0000         0.3536       3965.625         0.3055       -106.906       -35.2079              0
      2943.5000         0.3395       4165.148         0.2883      -107.2371        -35.539              0
      2944.0000         0.3294       4463.648         0.2842      -107.4865       -35.7884              0
      2944.5000         0.3216       4762.148           0.28      -107.2286       -35.5305              0
      2945.0000         0.3137       4665.313         0.2819      -106.8394       -35.1413              0
      2945.5000          0.308       4556.477         0.2957      -106.1783       -34.4802     0.01575146
      2946.0000         0.3138       4447.602         0.3094      -105.5176       -33.8195     0.03577273
      2946.5000         0.3195       4338.719         0.3232      -104.8566       -33.1585     0.05580301
      2947.0000         0.3253       3844.582          0.337      -103.4392       -31.7411     0.09875453
      2947.5000          0.341       3547.258         0.3507      -101.8651        -30.167      0.1464546
      2948.0000         0.3574        3249.93         0.3755      -100.2592       -28.5611      0.1951182
      2948.5000         0.3739       2952.605         0.4043       -98.6482       -26.9501      0.2439364
      2949.0000         0.3903       2655.281         0.4332       -97.7704       -26.0723      0.2705364
      2949.5000         0.4135       2357.953          0.462       -96.9471        -25.249      0.2954848
      2950.0000         0.4504       2060.824         0.4909       -96.0802       -24.3821      0.3217546
      2950.5000         0.4873       1743.191         0.5197       -93.5085       -21.8104      0.3996848
      2951.0000         0.5224       1704.387         0.5611       -89.8085       -18.1104      0.5118061
      2951.5000         0.5564       1673.912         0.6087       -83.2257       -11.5276      0.7112848
      2952.0000         0.5905       1653.213         0.6464       -81.6388        -9.9407      0.7593727
      2952.5000         0.6051       1633.059         0.6483       -81.2638        -9.5657      0.7707364
      2953.0000         0.6195       1621.473         0.6502       -82.3358       -10.6377      0.7382515
      2953.5000         0.6338       1609.887         0.6521       -83.4071        -11.709      0.7057879
      2954.0000         0.6294       1620.574         0.6434       -84.4636       -12.7655      0.6737728
      2954.5000         0.6155       1655.795         0.6212       -85.4729       -13.7748      0.6431879
      2955.0000         0.6016        1971.25         0.5991       -86.4814       -14.7833      0.6126273
      2955.5000         0.5877        2063.27          0.577       -87.4907       -15.7926      0.5820425
      2956.0000         0.5738       2308.383         0.5606       -88.4999       -16.8018      0.5514606
      2956.5000         0.5599       2342.184         0.5494       -89.5073       -17.8092      0.5209333
      2957.0000         0.5482       2370.859         0.5382       -90.5146       -18.8165      0.4904091
      2957.5000          0.538       2397.406         0.5271       -91.5215       -19.8234       0.459897
      2958.0000         0.5278       2339.262           0.54        -91.189       -19.4909      0.4699727
      2958.5000         0.5176       2300.176         0.5534       -89.6357       -17.9376      0.5170425
      2959.0000         0.5074       2263.953         0.5668        -88.082       -16.3839      0.5641242
      2959.5000         0.5007       2087.625         0.5802       -86.3494       -14.6513      0.6166273
