#------------------------------------------------------------------------------
# Created by    : vladimir.rabinovich
# Created on    : 09/19/2023 17:20:46
#------------------------------------------------------------------------------
~Version Information Section
VERS.           2.0     :   CWLS log ASCII Standard - VERSION 2.0
WRAP.           NO      :   One line per depth step
~Well Information Section
#MNEM       .UNIT                                         VALUE :DESCRIPTION
#------------------------------------------------------------------------------
STRT        .FT                                             695 :START DEPTH
STOP        .FT                                            9139 :STOP DEPTH
STEP        .FT                                             0.5 :STEP      
NULL        .                                           -999.25 :NULL      
COMP        .                   COASTAL STATES GAS TRANSMISSION :COMPANY   
WELL        .                                     ST TR 00592-L :WELL      
FLD         .                                           WILDCAT :FIELD     
LOC         .                                                   :LOCATION  
CNTY        .                      MATAGORDA ISLAND LARGE BLOCK :LOCATION  
STAT        .                                             TEXAS :STATE     
CTRY        .                                     UNITED STATES :COUNTRY   
SRVC        .                                                   :SERVICE COMPANY
DATE        .                             9/13/2023 11:12:01 AM :LOG DATE  
API         .                                    42703000420000 :API NUMBER
UWI         .                                    42703000420000 :UNIQUE WELL ID
XCOORD      .                                  562172.631053371 :SURFACE X 
YCOORD      .                                   10240692.584136 :SURFACE Y 
LAT         .                                        28.1787665 :LATITUDE  
LON         .                                       -96.3469802 :LONGITUDE 
ELEV        .FT                                              11 :ELEVATION VALUE
ELEV_TYPE   .                                                KB :ELEVATION REFERENCE TYPE
~Curve Information Section
#MNEM       .UNIT                                      API CODE :CURVE DESCRIPTION
#------------------------------------------------------------------------------
DEPT        .FT                                                 :DEPTH     
ASN         .OHMM                                               :          
CALI        .IN                                                 :          
CILD        .MMHO                                               :          
DT          .US/F                                               :          
ILD         .OHMM                                               :          
SP          .MV                                                 :          
SP_NORM     .MV                                                 :SP Normalized
VSH_SP      .V/V                                                :Volume of Shale from SP
~A        DEPTH            ASN           CALI           CILD             DT            ILD             SP        SP_NORM         VSH_SP
# ...
      5179.0000         1.4458        15.6299       667.1807        102.158         1.2496       -49.2053       -3.40184      0.9454127
      5179.5000         1.5044        15.5434        645.333       100.1737         1.3074        -48.355       -2.54705      0.9648398
      5180.0000         1.5426        15.4397         632.21       102.8304           1.36       -47.7954       -1.98296        0.97766
      5180.5000         1.5732         15.369       617.5771        98.7355         1.4081       -47.3411      -1.524166      0.9880871
      5181.0000         1.5793        15.4973       609.0107        90.8929         1.4448       -46.8868      -1.065376      0.9985142
      5181.5000         1.6067        15.6157        609.457        88.0587           1.46        -46.658     -0.8320847              1
      5182.0000         1.6322        15.6059       615.4404       106.7629         1.4753       -46.4453     -0.6148949              1
      5182.5000          1.649        15.5145        621.418        95.5687          1.485       -45.9916     -0.1567001              1
      5183.0000         1.6283        15.3742        621.543        92.4578         1.4674       -46.3376     -0.4982109              1
      5183.5000         1.6026        15.4152       616.4395        91.9775         1.4636        -46.684     -0.8401146              1
      5184.0000         1.6082        15.5813       609.5322        92.8945         1.4635         -47.03      -1.181625      0.9958721
      5184.5000          1.625        15.5845       599.1738        91.9377         1.4642        -47.376      -1.523132      0.9881106
      5185.0000         1.6412        15.5116       623.8379        95.1493         1.4675       -47.5442      -1.686844      0.9843899
      5185.5000         1.6529        15.4769       650.3115         98.537         1.4709       -47.6996      -1.837749      0.9809602
      5186.0000         1.6464        15.5437         673.29       101.6615         1.4631       -47.8552      -1.988861      0.9775259
      5186.5000         1.6014         15.613       695.1387       100.3884         1.4462       -48.0107      -2.139866       0.974094
      5187.0000         1.5404        15.5486       714.9746        91.9526         1.4082       -48.0417      -2.166374      0.9734915
      5187.5000         1.4496        15.4956       733.1523        88.1735         1.3703       -47.9646      -2.084782      0.9753458
      5188.0000         1.4046        15.4425        746.251        91.7244         1.3353       -47.8873      -2.002991      0.9772047
      5188.5000         1.3611        15.4042       759.3623        93.1042         1.3019       -47.8102      -1.921398      0.9790592
      5189.0000         1.3446        15.4557       772.6992        95.4222         1.2685       -47.6392      -1.745907      0.9830475
      5189.5000         1.3281         15.563        776.207       103.1556         1.2401       -47.4342      -1.536415      0.9878088
      5190.0000         1.3183        15.6374       764.1133       105.7206         1.2166       -47.2292      -1.326923      0.9925699
      5190.5000          1.321        15.6514       752.0078       107.2928         1.1931       -47.0242      -1.117432      0.9973311
      5191.0000         1.3237        15.6771       740.5811       110.7623         1.1924       -46.7226     -0.8113403              1
      5191.5000         1.3279        15.7033       731.6309       115.3984            1.2       -46.4139     -0.4981461              1
      5192.0000         1.3381        15.6872       722.6748       119.9376         1.2076       -46.1053     -0.1850586              1
      5192.5000         1.3483        15.6711       713.7236       118.1781         1.2304       -45.7966      0.1281357              1
      5193.0000         1.3595         15.729       706.0752       106.5569         1.2653       -45.4988      0.4304276              1
      5193.5000          1.371        15.7999       699.1797       106.9292         1.3003       -45.2236      0.7101212              1
      5194.0000         1.3825        15.8523        692.291       106.4949          1.324       -44.9482      0.9900093              1
      5194.5000         1.3953        15.8775       682.4297       104.8668         1.3444       -44.6729       1.269802              1
      5195.0000         1.4099        15.8436       681.7002        101.324         1.3648       -44.4177       1.529491              1
      5195.5000         1.4257        15.7878       692.0332       101.7583         1.3731       -44.2051       1.746586              1
      5196.0000         1.4432         15.732       702.3789       103.4956         1.3813       -44.0749       1.881275              1
      5196.5000         1.4445        15.6772       712.7119       104.6974         1.3608       -44.5396        1.42107              1
      5197.0000          1.384        15.6267       723.8242       103.4757         1.3223        -45.004      0.9611588              1
      5197.5000          1.318        15.5762       742.7188        97.9165         1.2586       -45.4687      0.5009537              1
      5198.0000         1.2617        15.5257       761.6123         94.623          1.195       -46.3107     -0.3365555              1
      5198.5000          1.207        15.4775       780.5059        89.3989         1.1313       -47.1819      -1.203266      0.9953803
      5199.0000         1.1813        15.4463       799.6631         87.787         1.0699       -48.0531      -2.069973      0.9756824
      5199.5000         1.1835        15.4212       806.4199        87.9011         1.0375       -49.0287      -3.041084      0.9536117
      5200.0000         1.1926        15.4513       800.8135        91.4042          1.005       -50.0436      -4.051487       0.930648
      5200.5000         1.2016        15.4844        795.207       100.4728         0.9799       -51.0635      -5.066898      0.9075705
      5201.0000         1.2221        15.4574       789.4502       108.6901         0.9604       -52.1082      -6.107105      0.8839294
      5201.5000          1.251        15.5318       782.1211       111.0273         0.9409       -53.1528      -7.147217      0.8602905
      5202.0000         1.2717        15.5423        774.792       111.4424         0.9259       -54.1924      -8.182323      0.8367653
      5202.5000         1.2608         15.427         827.96       112.1273         0.9138       -55.2073       -9.19273      0.8138016
      5203.0000         1.2299        15.3279        904.541       112.8868         0.9017       -56.2228      -10.20374      0.7908241
      5203.5000         1.1924        15.2668       975.4395       111.6931         0.8737       -57.5847      -11.56115      0.7599739
      5204.0000         1.1546        15.2764       1052.674       106.3993         0.8424       -59.1637      -13.13565      0.7241897
      5204.5000         1.1137        15.3854       1160.076        97.5442         0.8087       -60.5762      -14.54366      0.6921895
      5205.0000         1.0767        15.4742       1300.467        90.6323         0.7723       -61.4702      -15.43317      0.6719734
      5205.5000         1.0454        15.5511       1402.893        90.9203         0.7358       -62.3641      -16.32258      0.6517595
      5206.0000          1.026        15.5286       1436.883        93.7098         0.6977       -63.5031      -17.45709      0.6259753
      5206.5000         1.0302        15.5211       1450.283         97.425          0.656       -64.6807       -18.6302      0.5993137
      5207.0000          1.051        15.5442       1427.078        105.079         0.6303       -65.7798       -19.7248      0.5744362
      5207.5000         1.0713        15.5377       1403.848       109.8143         0.6874       -66.1277      -20.06821      0.5666315
      5208.0000         1.1032        15.5079       1357.186       114.5447         0.7444       -66.4758      -20.41182      0.5588223
