#------------------------------------------------------------------------------
# Created by    : vladimir.rabinovich
# Created on    : 09/19/2023 17:19:56
#------------------------------------------------------------------------------
~Version Information Section
VERS.           2.0     :   CWLS log ASCII Standard - VERSION 2.0
WRAP.           NO      :   One line per depth step
~Well Information Section
#MNEM       .UNIT                                         VALUE :DESCRIPTION
#------------------------------------------------------------------------------
STRT        .FT                                             748 :START DEPTH
STOP        .FT                                            7997 :STOP DEPTH
STEP        .FT                                             0.5 :STEP      
NULL        .                                           -999.25 :NULL      
COMP        .                                        EXXON CORP :COMPANY   
WELL        .                                     ST TR 00560-L :WELL      
FLD         .                                           WILDCAT :FIELD     
LOC         .                                                   :LOCATION  
CNTY        .                      MATAGORDA ISLAND LARGE BLOCK :LOCATION  
STAT        .                                             TEXAS :STATE     
CTRY        .                                     UNITED STATES :COUNTRY   
SRVC        .                                                   :SERVICE COMPANY
DATE        .                             9/13/2023 11:19:05 AM :LOG DATE  
API         .                                    42703302000000 :API NUMBER
UWI         .                                    42703302000000 :UNIQUE WELL ID
XCOORD      .                                  556028.985600478 :SURFACE X 
YCOORD      .                                   10283706.324983 :SURFACE Y 
LAT         .                                        28.2964478 :LATITUDE  
LON         .                                       -96.3697382 :LONGITUDE 
ELEV        .FT                                              92 :ELEVATION VALUE
ELEV_TYPE   .                                                KB :ELEVATION REFERENCE TYPE
~Curve Information Section
#MNEM       .UNIT                                      API CODE :CURVE DESCRIPTION
#------------------------------------------------------------------------------
DEPT        .FT                                                 :DEPTH     
ASFL        .OHMM                                               :          
CILD        .MMHO                                               :          
DT          .US/F                                               :          
GR          .GAPI                                               :          
GR_NORM     .GAPI                                               :GammaRay Normalized
ILD         .OHMM                                               :          
SP          .MV                                                 :          
SP_NORM     .MV                                                 :SP Normalized
VSH_GR      .V/V                                                :Volume of Shale from GR
VSH_SP      .V/V                                                :Volume of Shale from SP
~A        DEPTH           ASFL           CILD             DT             GR        GR_NORM            ILD             SP        SP_NORM         VSH_GR         VSH_SP
# ...
      2683.5000         0.9422       1555.359        -999.25        30.3565       55.17714         0.7643        -89.176      -5.494301       0.471854      0.8978568
      2684.0000         0.9857       1638.977        -999.25        28.8883       52.41446         0.7399       -91.8572      -8.182976      0.4130736      0.8367506
      2684.5000         1.0279       1728.713        -999.25        26.8697        48.6161         0.7115      -101.4261      -17.75935      0.3322575      0.6191056
      2685.0000         1.0672       1787.355        -999.25        24.4991        44.1554          0.683      -104.3132      -20.65393      0.2373489      0.5533198
      2685.5000         1.1036       1832.629        -999.25        22.6219       40.62312         0.6546      -107.3575       -23.7057       0.162194      0.4839613
      2686.0000         1.1258       1876.604        -999.25        21.2916       38.11992         0.6262      -112.1171      -28.47279      0.1089344      0.3756185
      2686.5000         1.1132       1900.035        -999.25        21.5435       38.59391         0.6003      -117.4941      -33.85726      0.1190194       0.253244
      2687.0000         1.0942       1923.455        -999.25         21.883       39.23275         0.5745      -118.9785      -35.34914      0.1326117      0.2193378
      2687.5000          1.083       1981.963        -999.25        22.2228       39.87214         0.5486      -119.9957      -36.37381      0.1462156      0.1960498
      2688.0000         1.0719       2070.012        -999.25        22.4286       40.25939         0.5227         -120.6      -36.98559      0.1544551      0.1821457
      2688.5000         1.0701       2187.637        -999.25         22.442        40.2846         0.4968      -121.1926      -37.58566      0.1549916      0.1685077
      2689.0000          1.077       2414.441        -999.25        22.4554       40.30982         0.4709      -122.1355      -38.53604      0.1555281      0.1469081
      2689.5000         1.0838        2466.18        -999.25        21.6543       38.80241         0.4545       -126.083      -42.49102      0.1234555     0.05702227
      2690.0000         1.0935       2505.574        -999.25        20.7321       37.06712         0.4444      -127.6527       -44.0682     0.08653446     0.02117729
      2690.5000         1.1015       2544.336        -999.25         18.441       32.75601         0.4343       -130.427      -46.84998              0              0
      2691.0000          1.081       2578.602        -999.25        17.9955       31.91773         0.4243      -131.0598      -47.49026              0              0
      2691.5000          1.052       2613.063        -999.25        18.4045       32.68734         0.4142      -131.0435      -47.48144              0              0
      2692.0000         1.0146       2655.961        -999.25        18.8135       33.45693         0.4041      -127.7051      -44.15051    0.009721959     0.01930653
      2692.5000         0.9772       2691.734        -999.25        19.2225       34.22655          0.394      -125.1139      -41.56679     0.02609675     0.07802755
      2693.0000         0.9425       2720.039        -999.25        19.6317       34.99653         0.3891      -123.5156      -39.97597     0.04247933      0.1141826
      2693.5000          0.908        2699.25        -999.25        20.3359       36.32161         0.3918      -122.2865      -38.75434     0.07067246      0.1419468
      2694.0000         0.8746       2663.773        -999.25        21.3148       38.16358         0.3945      -121.6816      -38.15692      0.1098634      0.1555245
      2694.5000         0.8744        2559.32        -999.25        22.2936       40.00535         0.3972      -121.3435      -37.82629        0.14905      0.1630388
      2695.0000         0.8758       2387.238        -999.25        23.3035       41.90567         0.3999      -121.0052      -37.49548      0.1894823      0.1705574
      2695.5000         0.8765       2125.543        -999.25        24.5016       44.16011         0.4026      -120.6672      -37.16495      0.2374491      0.1780694
      2696.0000         0.8752       1999.715        -999.25        25.7003       46.41567         0.4053      -120.1534      -36.65862      0.2854398      0.1895768
      2696.5000         0.8739       1923.125        -999.25         26.838       48.55646         0.4279        -119.51      -36.02271      0.3309885      0.2040294
      2697.0000         0.8725       1878.635        -999.25        27.8613       50.48198         0.4552      -117.1798      -33.69998      0.3719569      0.2568186
      2697.5000         0.8649        1838.75        -999.25        28.8852       52.40862         0.4825      -113.9821      -30.50976      0.4129493      0.3293237
      2698.0000         0.8518       1798.863        -999.25        32.5818       59.36443         0.5099      -111.0779      -27.61304      0.5609452      0.3951583
      2698.5000         0.8388       1789.648        -999.25        33.7799       61.61885         0.5302      -107.6414      -24.18401      0.6089116      0.4730906
      2699.0000           0.83       1784.203        -999.25        34.9433         63.808         0.5447       -91.0508      -7.600883      0.6554893      0.8499799
      2699.5000         0.8796       1778.758        -999.25        36.0933       65.97192         0.5592       -88.1405      -4.698067      0.7015303       0.915953
      2700.0000         1.0042       1773.313        -999.25        35.1693       64.23327         0.5737      -107.9775      -24.54254      0.6645376      0.4649422
      2700.5000         1.1517       1767.869        -999.25        26.7223       48.33875         0.5882      -111.4069      -27.97942      0.3263564      0.3868315
      2701.0000         1.1875       1762.424        -999.25        19.3681       34.50051         0.5957      -113.0673      -29.64729     0.03192577      0.3489251
      2701.5000         1.1985       1747.029        -999.25        19.8736       35.45171         0.5948      -109.7598      -26.34727     0.05216404      0.4239256
      2702.0000         1.2034       1707.877        -999.25        20.3792       36.40308         0.5939      -106.8118      -23.40675     0.07240604      0.4907558
      2702.5000         1.2078       1421.354        -999.25        21.0693       37.70163         0.5931       -98.2223      -14.82472      0.1000348      0.6858017
      2703.0000         1.2121       1359.332        -999.25        21.9263       39.31422         0.6605       -94.0012       -10.6111      0.1343452      0.7815659
      2703.5000         1.2325       1310.141        -999.25        22.7833       40.92682         0.7486        -89.807      -6.424377      0.1686557      0.8767187
      2704.0000          1.263       1263.768        -999.25        23.6284       42.51702         0.8794       -85.2223      -1.847153      0.2024898      0.9807465
      2704.5000         1.2931       1197.805        -999.25        24.4598       44.08146          0.965       -83.4127    -0.04502869      0.2357756              1
      2705.0000         1.3139       1001.483        -999.25        25.2913       45.64607         1.0312       -82.0946       1.265594      0.2690653              1
      2705.5000          1.341       869.8145        -999.25         26.472       47.86776         1.0937       -80.9982       2.354507      0.3163353              1
      2706.0000         1.3869       838.4619        -999.25        28.1025       50.93583         1.1503       -79.9012       3.444031      0.3816134              1
      2706.5000         1.3826       817.3437        -999.25        29.3622       53.30619         1.2037       -78.8638       4.473953      0.4320466              1
      2707.0000         1.3161       799.5361        -999.25        30.4739       55.39803         1.2555       -78.6589       4.671379      0.4765539              1
      2707.5000         1.2792       790.1768        -999.25        30.8633       56.13076          1.303       -79.3359         3.9869      0.4921439              1
