#------------------------------------------------------------------------------
# Created by    : vladimir.rabinovich
# Created on    : 09/19/2023 17:19:49
#------------------------------------------------------------------------------
~Version Information Section
VERS.           2.0     :   CWLS log ASCII Standard - VERSION 2.0
WRAP.           NO      :   One line per depth step
~Well Information Section
#MNEM       .UNIT                                         VALUE :DESCRIPTION
#------------------------------------------------------------------------------
STRT        .FT                                            1295 :START DEPTH
STOP        .FT                                            4592 :STOP DEPTH
STEP        .FT                                             0.5 :STEP      
NULL        .                                           -999.25 :NULL      
COMP        .                     FREEPORT-MCMORAN OIL & GAS CO :COMPANY   
WELL        .                                     ST TR 00662-L :WELL      
FLD         .                                         SIX-SIXTY :FIELD     
LOC         .                                                   :LOCATION  
CNTY        .                      MATAGORDA ISLAND LARGE BLOCK :LOCATION  
STAT        .                                             TEXAS :STATE     
CTRY        .                                     UNITED STATES :COUNTRY   
SRVC        .                                                   :SERVICE COMPANY
DATE        .                             9/13/2023 11:19:13 AM :LOG DATE  
API         .                                    42703300650000 :API NUMBER
UWI         .                                    42703300650000 :UNIQUE WELL ID
XCOORD      .                                  434889.841251994 :SURFACE X 
YCOORD      .                                  10179416.4588751 :SURFACE Y 
LAT         .                                        28.0002971 :LATITUDE  
LON         .                                       -96.7355909 :LONGITUDE 
ELEV        .FT                                              77 :ELEVATION VALUE
ELEV_TYPE   .                                                KB :ELEVATION REFERENCE TYPE
~Curve Information Section
#MNEM       .UNIT                                      API CODE :CURVE DESCRIPTION
#------------------------------------------------------------------------------
DEPT        .FT                                                 :DEPTH     
ASFL        .OHMM                                               :          
CILD        .MMHO                                               :          
ILD         .OHMM                                               :          
SFL         .OHMM                                               :          
SP          .MV                                                 :          
SP_NORM     .MV                                                 :SP Normalized
VSH_SP      .V/V                                                :Volume of Shale from SP
~A        DEPTH           ASFL           CILD            ILD            SFL             SP        SP_NORM         VSH_SP
# ...
      3472.5000         0.9083       1254.068         0.9249         0.8571       -34.5998     0.04796982              1
      3473.0000         0.9196       1224.111         0.9299         0.8458       -35.3748     -0.7057076              1
      3473.5000         0.9307        1191.73         0.9349         0.8346       -36.2408      -1.550381      0.9887677
      3474.0000         0.9415       1186.521         0.9245         0.8233       -37.2704      -2.558662      0.9681906
      3474.5000         0.9518       1352.824         0.9068         0.8182       -38.1963      -3.463238      0.9497299
      3475.0000           0.95       1429.441         0.8891         0.8184       -39.1253      -4.370914      0.9312058
      3475.5000         0.9145       1491.805         0.8575         0.8187       -41.1461      -6.370388      0.8904002
      3476.0000         0.8646       1619.701         0.8229          0.818       -45.1212      -10.32417      0.8097109
      3476.5000          0.832        1709.93         0.7882         0.8089       -47.6621      -12.84375      0.7582909
      3477.0000         0.8005       1794.418         0.7499         0.7997       -48.7546      -13.91492      0.7364302
      3477.5000         0.7702       1899.051         0.6955         0.7734       -46.9521       -12.0911      0.7736511
      3478.0000         0.7429        1984.43         0.6421         0.7433       -44.4698      -9.587475      0.8247454
      3478.5000         0.7082       2033.479         0.5989         0.7113       -42.7784      -7.874752       0.859699
      3479.0000         0.6718       2085.969         0.5575         0.6591       -41.2813      -6.356331      0.8906871
      3479.5000         0.6441       2124.797         0.5256         0.6068       -39.8865      -4.940208      0.9195876
      3480.0000         0.6171       2157.043         0.4936         0.5682       -39.3868      -4.419182      0.9302208
      3480.5000         0.5978       2187.656         0.4616         0.5445       -46.1847      -11.19576      0.7919232
      3481.0000         0.5752       2213.254         0.4891         0.5227       -45.3791      -10.36884      0.8087992
      3481.5000         0.5689       2052.285          0.538         0.5009       -46.0292      -10.99762       0.795967
      3482.0000         0.6106       1915.285          0.599         0.8629       -58.0137      -22.96079      0.5518206
      3482.5000         0.6893       1735.717         0.6599         1.2616       -65.4703      -30.39607      0.4000802
      3483.0000         2.0389       1568.473         0.7259         1.5897       -69.2369      -34.14135       0.323646
      3483.5000         2.0389       1482.848          0.796         2.2318       -66.0922      -30.97532      0.3882587
      3484.0000         2.1314       1316.297         0.8508         2.2727       -61.6113       -26.4731      0.4801408
      3484.5000         2.2351       1219.088         0.8866         2.0872       -58.4695      -23.30998      0.5446943
      3485.0000         2.1982       1150.291         0.9225         1.9323       -57.3037      -22.12285      0.5689214
      3485.5000         2.0538       1070.258         0.9376         1.7284       -55.2094      -20.00723      0.6120973
      3486.0000         1.8657       1079.883         0.9206         1.5072       -47.9761      -12.75261      0.7601508
      3486.5000         1.5038       1099.162         0.8701         1.3046       -39.2733      -4.028484      0.9381942
      3487.0000         1.0196       1206.121         0.8194         1.1177       -35.9349     -0.6687622              1
      3487.5000         0.8835       1282.789         0.7684         0.9877       -33.5859       1.701561              1
      3488.0000          0.747       1379.057         0.7175         0.8943       -32.3028       3.005985              1
      3488.5000         0.7562       1492.795         0.6717         0.8255        -31.797       3.533104              1
      3489.0000         0.7703       1589.855         0.6316         0.7955       -36.4172      -1.065769      0.9986578
      3489.5000         0.7921        1686.42         0.5915         0.7812       -37.9804      -2.607647      0.9671909
      3490.0000         0.8092       1797.586         0.5514         0.7709       -41.2695      -5.875423      0.9005015
      3490.5000         0.7933       1914.098         0.5186         0.7615       -63.4001       -27.9847      0.4492918
      3491.0000         0.7645       2017.344         0.4873          0.752       -65.2322      -29.79548      0.4123372
      3491.5000         0.7369       2325.102         0.4559         0.7359       -68.2733      -32.81525      0.3507091
      3492.0000         0.7123       2814.012         0.4277         0.7193       -71.2813      -35.80194      0.2897564
      3492.5000         0.6877       2916.566          0.411         0.7027       -76.1261      -40.62541      0.1913182
      3493.0000         0.6622       2975.613         0.3943         0.6909       -76.8811      -41.35909      0.1763451
      3493.5000         0.6384       3018.367         0.3775         0.6798       -76.0767      -40.53336      0.1931967
      3494.0000         0.6284       3044.785         0.3609         0.6686       -75.2908      -39.72614      0.2096706
      3494.5000         0.6183       3071.215         0.3484         0.6582       -75.5806      -39.99461      0.2041916
      3495.0000         0.6206       3108.211         0.3359         0.6585       -75.9027       -40.2954      0.1980531
      3495.5000         0.6252       3092.719         0.3234         0.6588       -76.4825      -40.85387      0.1866557
      3496.0000         0.6298       2974.625         0.3109          0.659       -76.9268      -41.27685      0.1780234
      3496.5000         0.6314       2909.094         0.2993         0.6593       -76.6263      -40.95502      0.1845914
      3497.0000         0.6274       2847.422         0.3035         0.6544       -74.9219       -39.2293      0.2198102
      3497.5000         0.6219       2789.363         0.3077         0.6487       -71.9191      -36.20518       0.281527
      3498.0000         0.6163       2733.512          0.312         0.6431       -67.6886      -31.95335      0.3682989
      3498.5000         0.6107       2677.656         0.3162         0.6374       -62.4329      -26.67633      0.4759932
      3499.0000         0.6074       2614.203         0.3225         0.6417       -60.7871      -25.00921      0.5100161
      3499.5000         0.6042       2550.059         0.3487         0.6476       -64.0688      -28.26959      0.4434778
      3500.0000         0.6096       2484.527          0.375         0.6685       -67.9254      -32.10487      0.3652068
      3500.5000         0.6449       2418.992         0.4013         0.6942       -69.0018      -33.15994      0.3436746
      3501.0000         0.7462       2337.973         0.4276         0.7199       -69.7778      -33.91462      0.3282731
      3501.5000          0.813       2222.352         0.4769         0.7457       -68.5442      -32.65969      0.3538838
      3502.0000         0.8476       2099.703         0.5303         0.7728       -66.6411      -30.73527      0.3931577
      3502.5000         0.8802       1928.154         0.5912         0.8037       -63.8616      -27.93445      0.4503174
      3503.0000          0.912        1763.83         0.6528         0.8346       -54.7616      -18.81313      0.6364667
      3503.5000         0.9357       1586.342         0.7144         0.8655       -49.3455      -13.37571      0.7474346
      3504.0000         0.9555       1423.602          0.776         0.8963       -45.0114      -9.020279      0.8363208
      3504.5000         0.9733       1332.234         0.8355         0.9275       -42.3404      -6.327957      0.8912662
      3505.0000         0.9902       1155.586         0.8766         0.9588       -40.3356      -4.301838      0.9326156
      3505.5000         1.0068       1072.904         0.9177         0.9901       -39.3474      -3.292313      0.9532181
