#------------------------------------------------------------------------------
# Created by    : vladimir.rabinovich
# Created on    : 09/19/2023 17:20:49
#------------------------------------------------------------------------------
~Version Information Section
VERS.           2.0     :   CWLS log ASCII Standard - VERSION 2.0
WRAP.           NO      :   One line per depth step
~Well Information Section
#MNEM       .UNIT                                         VALUE :DESCRIPTION
#------------------------------------------------------------------------------
STRT        .FT                                            2010 :START DEPTH
STOP        .FT                                            6610 :STOP DEPTH
STEP        .FT                                             0.5 :STEP      
NULL        .                                           -999.25 :NULL      
COMP        .                                      SHELL OIL CO :COMPANY   
WELL        .                                ST TR 00691-L SE/4 :WELL      
FLD         .                                           WILDCAT :FIELD     
LOC         .                                                   :LOCATION  
CNTY        .                      MATAGORDA ISLAND LARGE BLOCK :LOCATION  
STAT        .                                             TEXAS :STATE     
CTRY        .                                     UNITED STATES :COUNTRY   
SRVC        .                                                   :SERVICE COMPANY
DATE        .                             9/13/2023 11:12:05 AM :LOG DATE  
API         .                                    42703000190000 :API NUMBER
UWI         .                                    42703000190000 :UNIQUE WELL ID
XCOORD      .                                  412077.623085271 :SURFACE X 
YCOORD      .                                  10154908.2726125 :SURFACE Y 
LAT         .                                        27.9310704 :LATITUDE  
LON         .                                         -96.80379 :LONGITUDE 
ELEV        .FT                                              82 :ELEVATION VALUE
ELEV_TYPE   .                                                DF :ELEVATION REFERENCE TYPE
~Curve Information Section
#MNEM       .UNIT                                      API CODE :CURVE DESCRIPTION
#------------------------------------------------------------------------------
DEPT        .FT                                                 :DEPTH     
ASN         .OHMM                                               :          
CILD        .MMHO                                               :          
ILD         .OHMM                                               :          
SP          .MV                                                 :          
SP_NORM     .MV                                                 :SP Normalized
VSH_SP      .V/V                                                :Volume of Shale from SP
~A        DEPTH            ASN           CILD            ILD             SP        SP_NORM         VSH_SP
# ...
      3530.0000         0.7682        1341.17         0.7159       -74.4967        -7.4122       0.864695
      3530.5000         0.7352        1397.91         0.7195       -74.2467        -7.1688        0.87078
      3531.0000         0.7504       1374.543         0.7311       -74.1698        -7.0985      0.8725375
      3531.5000         0.7783       1342.369         0.7445        -74.093        -7.0283      0.8742925
      3532.0000         0.8061        1310.17         0.7586       -74.1544        -7.0963      0.8725925
      3532.5000         0.8556       1277.971         0.7727       -74.2562        -7.2047      0.8698825
      3533.0000         0.9142       1245.773         0.7868        -74.358         -7.313       0.867175
      3533.5000          0.935       1213.598         0.8009       -74.6953        -7.6569      0.8585775
      3534.0000         0.9539         1181.4         0.8151       -75.1796        -8.1478       0.846305
      3534.5000          0.961       1232.902         0.8226       -75.6636        -8.6384        0.83404
      3535.0000         0.9469       1260.588         0.8275        -75.988        -8.9694       0.825765
      3535.5000         0.9327       1270.225         0.8325       -76.0352        -9.0232        0.82442
      3536.0000         0.9193       1264.209         0.8375       -75.2889        -8.2834       0.842915
      3536.5000         0.9059       1257.723         0.8689       -74.5435        -7.5446       0.861385
      3537.0000         0.8925       1264.912         0.9018       -76.0173         -9.025       0.824375
      3537.5000         0.9258        1273.75         0.9348       -77.8612       -10.8755      0.7781125
      3538.0000         0.9603       1262.471         0.9677       -80.7745       -13.7954       0.705115
      3538.5000         1.0419       1225.563         1.0007       -83.8514       -16.8789      0.6280275
      3539.0000          1.142       1189.131         1.0584       -90.3838       -23.4179      0.4645525
      3539.5000         1.2421       1162.793         1.0965        -93.109       -26.1496        0.39626
      3540.0000         1.3423       1142.594         1.0536       -93.9893       -27.0365      0.3740875
      3540.5000         1.2714       1174.156         1.0136       -89.8429       -22.8967      0.4775825
      3541.0000         1.1753       1217.732         0.9767       -84.4956        -17.556         0.6111
      3541.5000         1.0793       1270.068         0.9398       -80.7119       -13.7789      0.7055275
      3542.0000         0.9832       1309.143         0.9029       -78.5767       -11.6503      0.7587425
      3542.5000         0.8979        1348.73         0.8701       -79.3031       -12.3833      0.7404175
      3543.0000          0.842        1421.35         0.8514       -80.6498       -13.7365      0.7065875
      3543.5000         0.8339       1467.422         0.8327        -81.833       -14.9263      0.6768425
      3544.0000         0.8258        1505.75          0.814       -81.3671        -14.467       0.688325
      3544.5000         0.8176       1480.498         0.7953       -80.3892       -13.4957      0.7126075
      3545.0000         0.8096       1455.262         0.7765       -79.4108       -12.5239      0.7369025
      3545.5000          0.802       1467.605         0.7508       -78.4316       -11.5513      0.7612175
      3546.0000         0.7944       1486.873         0.7227       -77.4525       -10.5788        0.78553
      3546.5000         0.7855       1527.781         0.6945       -76.4728        -9.6056        0.80986
      3547.0000         0.7726        1596.73         0.6663        -75.131        -8.2704        0.84324
      3547.5000         0.7598        1721.27         0.6381       -75.4888        -8.6348        0.83413
      3548.0000         0.7469       1834.625           0.61       -81.3978       -14.5504        0.68624
      3548.5000          0.734       1860.781         0.5831       -87.2615       -20.4207      0.5394825
      3549.0000         0.7336       1882.313         0.5591       -92.1318       -25.2976        0.41756
      3549.5000         0.7536       1927.355         0.5351       -96.7305       -29.9028        0.30243
      3550.0000         0.7897        2113.16          0.511         -99.65       -32.8289      0.2292775
      3550.5000         0.8259        2159.82         0.4952      -103.4386       -36.6241      0.1343975
      3551.0000         0.9129       2203.395         0.5092       -104.645       -37.8371      0.1040725
      3551.5000          0.962       2232.586         0.5231      -104.9583        -38.157     0.09607496
      3552.0000         0.9478       2245.711         0.5272      -105.0378       -38.2431     0.09392252
      3552.5000         0.9467       2225.891         0.5312       -104.964       -38.1759     0.09560251
      3553.0000         0.9455       2186.832         0.5353      -104.8842       -38.1026       0.097435
      3553.5000         0.9768       2111.348         0.5394      -104.4435       -37.6685      0.1082875
      3554.0000         1.0137       2085.715         0.5435      -104.0032       -37.2348        0.11913
      3554.5000         1.0366       2072.152         0.5475      -103.5625       -36.8007      0.1299825
      3555.0000         1.0212       2058.043         0.5516      -103.1217       -36.3665      0.1408375
      3555.5000         1.0007       2043.938         0.5557      -102.6814       -35.9328        0.15168
      3556.0000         0.9668       2029.238         0.5598      -101.6808       -34.9388        0.17653
      3556.5000         0.9328       1956.949         0.5524      -100.6519       -33.9164        0.20209
      3557.0000         0.8989       1966.295         0.5431       -99.6229        -32.894        0.22765
      3557.5000         0.8561       1998.844         0.5151       -97.3131       -30.5908        0.28523
      3558.0000          0.812       2024.922          0.479       -94.7084       -27.9927      0.3501825
      3558.5000         0.7862       2050.984         0.4429       -91.2246       -24.5155      0.4371125
      3559.0000         0.7648       2294.145         0.4067       -93.7323       -27.0298       0.374255
      3559.5000         0.7447       2542.926         0.3735       -96.4022       -29.7063      0.3073425
      3560.0000         0.7294       2791.906         0.3497       -99.1128       -32.4234       0.239415
      3560.5000         0.7141       3040.688         0.3292      -101.8025       -35.1197      0.1720075
      3561.0000         0.6988       3289.668          0.341      -104.4122        -37.736         0.1066
      3561.5000         0.6581        3339.48         0.3528      -106.4404       -39.7708     0.05572996
      3562.0000         0.5941       3202.855         0.3647      -108.4675       -41.8045    0.004887485
      3562.5000         0.6377       3066.133         0.3765      -108.1399       -41.4835     0.01291246
      3563.0000         0.6843       2929.508         0.3884      -107.0901       -40.4403      0.0389925
      3563.5000          0.731       2792.785         0.4176      -106.0078       -39.3645     0.06588755
      3564.0000         0.8356       2656.063         0.4489      -104.8333       -38.1966     0.09508495
      3564.5000         0.9473       2519.438         0.4802      -103.9475       -37.3174       0.117065
      3565.0000         0.9209       2382.715         0.5117      -103.6193       -36.9958       0.125105
      3565.5000         0.8946        2246.09         0.5461      -103.3087       -36.6918       0.132705
      3566.0000         0.8761       2121.551         0.5806       -101.795       -35.1847      0.1703825
      3566.5000          0.859        2002.25          0.615        -95.645       -29.0412        0.32397
      3567.0000         0.8419        1875.51         0.6495       -88.6702        -22.073       0.498175
      3567.5000         0.8249       1756.109          0.673       -85.7888       -19.1982       0.570045
