#------------------------------------------------------------------------------
# Created by    : vladimir.rabinovich
# Created on    : 09/19/2023 17:20:49
#------------------------------------------------------------------------------
~Version Information Section
VERS.           2.0     :   CWLS log ASCII Standard - VERSION 2.0
WRAP.           NO      :   One line per depth step
~Well Information Section
#MNEM       .UNIT                                         VALUE :DESCRIPTION
#------------------------------------------------------------------------------
STRT        .FT                                            2010 :START DEPTH
STOP        .FT                                            6610 :STOP DEPTH
STEP        .FT                                             0.5 :STEP      
NULL        .                                           -999.25 :NULL      
COMP        .                                      SHELL OIL CO :COMPANY   
WELL        .                                ST TR 00691-L SE/4 :WELL      
FLD         .                                           WILDCAT :FIELD     
LOC         .                                                   :LOCATION  
CNTY        .                      MATAGORDA ISLAND LARGE BLOCK :LOCATION  
STAT        .                                             TEXAS :STATE     
CTRY        .                                     UNITED STATES :COUNTRY   
SRVC        .                                                   :SERVICE COMPANY
DATE        .                             9/13/2023 11:12:05 AM :LOG DATE  
API         .                                    42703000190000 :API NUMBER
UWI         .                                    42703000190000 :UNIQUE WELL ID
XCOORD      .                                  412077.623085271 :SURFACE X 
YCOORD      .                                  10154908.2726125 :SURFACE Y 
LAT         .                                        27.9310704 :LATITUDE  
LON         .                                         -96.80379 :LONGITUDE 
ELEV        .FT                                              82 :ELEVATION VALUE
ELEV_TYPE   .                                                DF :ELEVATION REFERENCE TYPE
~Curve Information Section
#MNEM       .UNIT                                      API CODE :CURVE DESCRIPTION
#------------------------------------------------------------------------------
DEPT        .FT                                                 :DEPTH     
ASN         .OHMM                                               :          
CILD        .MMHO                                               :          
ILD         .OHMM                                               :          
SP          .MV                                                 :          
SP_NORM     .MV                                                 :SP Normalized
VSH_SP      .V/V                                                :Volume of Shale from SP
~A        DEPTH            ASN           CILD            ILD             SP        SP_NORM         VSH_SP
# ...
      6570.0000         0.8032       1362.502         0.7681       -38.0995        -0.3636              1
      6570.5000         0.8026       1364.996          0.772       -38.0813        -0.3454              1
      6571.0000         0.8082       1367.068           0.78        -38.063        -0.3271              1
      6571.5000         0.8139       1357.895         0.7914       -38.0449         -0.309              1
      6572.0000         0.8239       1348.707         0.8084       -38.0267        -0.2908              1
      6572.5000         0.8351        1339.52         0.8254       -38.0085        -0.2726              1
      6573.0000         0.8463       1305.668         0.8424       -37.9903        -0.2544              1
      6573.5000         0.8743        1257.42         0.8749       -37.9721        -0.2362              1
      6574.0000         0.9196        1209.17         0.9078       -37.9847        -0.2488              1
      6574.5000         0.9738        1160.92         0.9408       -38.0063        -0.2705              1
      6575.0000         1.0127       1112.623         0.9737       -38.0278         -0.292              1
      6575.5000         1.0468       1064.373         1.0066       -38.0494        -0.3135              1
      6576.0000         1.0791       1016.124         1.0408       -38.0709         -0.335              1
      6576.5000         1.1186        967.874         1.0779       -38.0925        -0.3566              1
      6577.0000         1.1548        921.583          1.115        -38.114        -0.3781              1
      6577.5000         1.1867       886.5459         1.1521       -38.1355        -0.3997              1
      6578.0000          1.258       855.2031         1.1892       -38.1571        -0.4212              1
      6578.5000         1.3093       829.6104         1.2262       -38.1786        -0.4427              1
      6579.0000         1.3295       811.4434         1.2626       -38.1957        -0.4599              1
      6579.5000         1.3387       797.3018          1.269       -38.2065        -0.4706              1
      6580.0000         1.3476       791.0254         1.2706       -38.2172        -0.4813              1
      6580.5000         1.3529       810.9658         1.2566        -38.228        -0.4921              1
      6581.0000         1.3485        827.751         1.2425       -38.2388        -0.5029              1
      6581.5000         1.3324       843.9971         1.2284       -38.2496        -0.5137              1
      6582.0000         1.3162       860.2432         1.2119       -38.2604        -0.5245              1
      6582.5000         1.2883       873.1865         1.1893       -38.2711        -0.5352              1
      6583.0000         1.2374       884.2334         1.1666       -38.2819         -0.546              1
      6583.5000         1.2283       893.6533          1.144       -38.2927        -0.5569              1
      6584.0000         1.2201       903.5381         1.1213       -38.2752        -0.5393              1
      6584.5000         1.2124       914.9521         1.0987       -38.2526        -0.5168              1
      6585.0000         1.2034       926.3662          1.076         -38.23        -0.4941              1
      6585.5000         1.1915       940.6055         1.0534       -38.2074        -0.4715              1
      6586.0000         1.1792       955.7881         1.0333       -38.1848        -0.4489              1
      6586.5000         1.1648       972.2295         1.0146       -38.1622        -0.4263              1
      6587.0000         1.1464       998.6543          0.996       -38.1396        -0.4037              1
      6587.5000         1.1259       1028.211         0.9774        -38.117        -0.3811              1
      6588.0000         1.1054       1061.289         0.9587       -38.0944        -0.3585              1
      6588.5000         1.0755       1094.369         0.9401       -38.0961        -0.3602              1
      6589.0000         1.0407       1127.449         0.9214       -38.1258        -0.3899              1
      6589.5000         1.0165       1160.529         0.9028       -38.1555        -0.4196              1
      6590.0000         0.9924       1195.223         0.8921       -38.1851        -0.4492              1
      6590.5000         0.9713       1222.504         0.8952       -38.2148         -0.479              1
      6591.0000         0.9599       1233.479         0.8982       -38.2444        -0.5085              1
      6591.5000         0.9497       1220.693         0.9163       -38.2741        -0.5382              1
      6592.0000         0.9445       1206.025         0.9346       -38.3038        -0.5679              1
      6592.5000         0.9441       1190.207          0.953       -38.3335        -0.5976              1
      6593.0000         0.9453       1146.094         0.9714       -38.3632        -0.6273              1
      6593.5000          0.957       1095.445         0.9897       -38.4125        -0.6766              1
      6594.0000         0.9688       1044.799         1.0081       -38.5054        -0.7696              1
      6594.5000         0.9969       994.1523         1.0265       -38.5984        -0.8625              1
      6595.0000         1.0675       943.5049         1.0448       -38.6913        -0.9554              1
      6595.5000         1.1548       892.8584         1.0749       -38.7843        -1.0485              1
      6596.0000         1.2027       842.2109          1.127       -38.8774        -1.1415              1
      6596.5000         1.2384       811.9697         1.1791       -38.9703        -1.2344              1
      6597.0000         1.2682       822.9434         1.2312       -39.0633        -1.3274              1
      6597.5000         1.3034       833.9902         1.2322       -39.1563        -1.4204              1
      6598.0000         1.3313        861.418         1.1736       -39.2281        -1.4922              1
      6598.5000         1.3424       888.1113         1.1149       -39.1993        -1.4634              1
      6599.0000         1.3023       941.4502         1.0579       -39.1705        -1.4347              1
      6599.5000         1.2529       1024.051         1.0083       -39.1418        -1.4059              1
      6600.0000         1.1521        1106.75         0.9587        -39.113        -1.3771              1
      6600.5000         1.0758       1189.352          0.909       -39.0841        -1.3482              1
      6601.0000         0.9795       1271.953         0.8595       -39.0554        -1.3195              1
      6601.5000         0.8654       1354.652         0.8201       -39.0266        -1.2907              1
      6602.0000         0.8173       1433.387         0.7938       -38.9999         -1.264              1
      6602.5000         0.7824       1486.629         0.7675       -38.9786        -1.2427              1
      6603.0000         0.7543       1532.994         0.7411       -38.9573        -1.2214              1
      6603.5000          0.736       1557.926         0.7148        -38.936        -1.2001              1
      6604.0000         0.7233       1610.188         0.6885       -38.9147        -1.1788              1
      6604.5000         0.7164        1655.99         0.6621       -38.8935        -1.1576              1
      6605.0000         0.7104       1689.607         0.6358       -38.8722        -1.1363              1
      6605.5000         0.7014       1718.527         0.6222       -38.8509         -1.115              1
      6606.0000         0.6924        1734.09         0.6089       -38.8296        -1.0938              1
      6606.5000         0.6795       1743.986         0.5957       -38.8083        -1.0724              1
      6607.0000         0.6634       1747.268         0.5825       -38.7909         -1.055              1
      6607.5000         0.6456       1745.234         0.5693       -38.8195        -1.0836              1
