#------------------------------------------------------------------------------
# Created by    : vladimir.rabinovich
# Created on    : 09/19/2023 17:20:09
#------------------------------------------------------------------------------
~Version Information Section
VERS.           2.0     :   CWLS log ASCII Standard - VERSION 2.0
WRAP.           NO      :   One line per depth step
~Well Information Section
#MNEM       .UNIT                                         VALUE :DESCRIPTION
#------------------------------------------------------------------------------
STRT        .FT                                            1853 :START DEPTH
STOP        .FT                                            6238 :STOP DEPTH
STEP        .FT                                             0.5 :STEP      
NULL        .                                           -999.25 :NULL      
COMP        .               LOUISIANA LAND & EXPLORATION CO THE :COMPANY   
WELL        .                                          SL 79258 :WELL      
FLD         .                                           WILDCAT :FIELD     
LOC         .                                                   :LOCATION  
CNTY        .                      MATAGORDA ISLAND LARGE BLOCK :LOCATION  
STAT        .                                             TEXAS :STATE     
CTRY        .                                     UNITED STATES :COUNTRY   
SRVC        .                                                   :SERVICE COMPANY
DATE        .                             9/13/2023 11:12:01 AM :LOG DATE  
API         .                                    42703301870000 :API NUMBER
UWI         .                                    42703301870000 :UNIQUE WELL ID
XCOORD      .                                  470651.272343367 :SURFACE X 
YCOORD      .                                  10209272.4173218 :SURFACE Y 
LAT         .                                        28.0852496 :LATITUDE  
LON         .                                       -96.6277134 :LONGITUDE 
ELEV        .FT                                              82 :ELEVATION VALUE
ELEV_TYPE   .                                                KB :ELEVATION REFERENCE TYPE
~Curve Information Section
#MNEM       .UNIT                                      API CODE :CURVE DESCRIPTION
#------------------------------------------------------------------------------
DEPT        .FT                                                 :DEPTH     
ASFL        .OHMM                                               :          
CILD        .MMHO                                               :          
ILD         .OHMM                                               :          
SP          .MV                                                 :          
SP_NORM     .MV                                                 :SP Normalized
VSH_SP      .V/V                                                :Volume of Shale from SP
~A        DEPTH           ASFL           CILD            ILD             SP        SP_NORM         VSH_SP
# ...
      5045.0000         0.5203       4024.293         0.2663       -104.783      -58.59293     0.04011784
      5045.5000         0.5256       4030.379         0.2653      -104.6077      -58.43401     0.04276657
      5046.0000         0.5309       4044.141         0.2643      -104.5018      -58.34449     0.04425856
      5046.5000         0.5363       4057.898         0.2642      -104.4242      -58.28326     0.04527893
      5047.0000         0.5416        4019.68         0.2648      -104.3464      -58.22184     0.04630273
      5047.5000         0.5469       3966.309         0.2653      -104.2687      -58.16051     0.04732475
      5048.0000         0.5448       3918.297         0.2658      -104.1001      -58.00829     0.04986191
      5048.5000         0.5348       3921.813         0.2684      -103.9131      -57.83767     0.05270557
      5049.0000          0.526       3925.332         0.2789      -103.7262      -57.66714     0.05554771
      5049.5000         0.5528       3928.848         0.2894      -103.5393      -57.49662     0.05838973
      5050.0000         0.5797       3821.828            0.3      -103.2322      -57.20589     0.06323509
      5050.5000         0.6533       3657.098         0.3146      -102.6194      -56.60947      0.0731755
      5051.0000         0.8015       3522.742         0.3294      -102.0061      -56.01255     0.08312416
      5051.5000         0.8517       3238.594         0.3555      -101.3934      -55.41622     0.09306297
      5052.0000          0.775       2765.836         0.3995      -100.7794       -54.8186      0.1030233
      5052.5000         0.7298       2446.105         0.4088      -102.5627      -56.61827     0.07302882
      5053.0000         0.6996       2386.914         0.4029      -105.3347      -59.40665     0.02655583
      5053.5000         0.6803       2422.348         0.3841      -105.5389      -59.62723     0.02287954
      5054.0000         0.6628       2494.758         0.3533      -105.7429       -59.8476     0.01920668
      5054.5000         0.6545       2778.219         0.3226      -105.9471      -60.06818      0.0155304
      5055.0000         0.6462       3010.961         0.3015       -106.158      -60.29545     0.01174253
      5055.5000         0.6378       3294.027         0.2811      -106.4175      -60.57133    0.007144483
      5056.0000         0.6292       3786.246         0.2607      -106.6766       -60.8468    0.002553304
      5056.5000         0.6206       3947.832         0.2556      -106.9296      -61.11618              0
      5057.0000          0.606       4047.594         0.2545      -107.1544      -61.35736              0
      5057.5000         0.6001       4126.711         0.2534      -107.6199      -61.83924              0
      5058.0000         0.5942       4174.477         0.2523      -107.9027      -62.13841              0
      5058.5000         0.5883       4188.359         0.2511      -107.7462      -61.99828              0
      5059.0000         0.5794       4198.258         0.2526      -107.3236      -61.59206              0
      5059.5000         0.5704       4200.633         0.2559      -106.9011      -61.18594              0
      5060.0000         0.5614       4188.844         0.2592      -106.1416      -60.44281    0.009286435
      5060.5000         0.5498       4177.047         0.2625      -104.5205      -58.83809     0.03603185
      5061.0000         0.5372        4165.25         0.2658      -103.5212      -57.85517     0.05241388
      5061.5000         0.5243       4143.641         0.2691      -102.7297      -57.08004     0.06533273
      5062.0000         0.5112       4104.133         0.2713      -101.9376      -56.30431     0.07826144
      5062.5000          0.497       4064.594         0.2679      -101.3809      -55.76399     0.08726685
      5063.0000          0.496       3951.418         0.2645      -101.2085      -55.60797     0.08986714
      5063.5000         0.5104       3890.039         0.2611       -101.036      -55.45185     0.09246922
      5064.0000         0.5248       3857.309         0.2577      -100.8344      -55.26662     0.09555639
      5064.5000         0.5341       3824.359         0.2543      -100.6195      -55.06809     0.09886513
      5065.0000         0.5405       3785.758         0.2513      -100.4048      -54.86977      0.1021705
      5065.5000         0.5441       3747.129         0.2484      -100.1902      -54.67155      0.1054742
      5066.0000         0.5427       3702.656         0.2455       -99.9087      -54.40642       0.109893
      5066.5000         0.5413       3756.367         0.2426       -99.5701       -54.0842      0.1152634
      5067.0000         0.5399        3862.52         0.2397       -99.2341      -53.76458      0.1205904
      5067.5000         0.5384       4007.883         0.2368      -100.2006      -54.74745      0.1042091
      5068.0000          0.536       4091.035         0.2302      -101.1665      -55.72972     0.08783798
      5068.5000         0.5336       4151.328         0.2226      -101.8042       -56.3838     0.07693665
      5069.0000         0.5312       4211.578         0.2151      -102.2767      -56.87268     0.06878866
      5069.5000         0.5352       4260.477         0.2075      -102.7491      -57.36145     0.06064243
      5070.0000         0.5555       4306.477         0.2055      -103.2316      -57.86033     0.05232786
      5070.5000         0.6161       4347.539         0.2111      -103.9182       -58.5633     0.04061158
      5071.0000         0.6575        4383.68         0.2168      -104.6042      -59.26569     0.02890523
      5071.5000         0.6665       4427.023         0.2213      -105.1584      -59.83626      0.0193957
      5072.0000         0.6539       4385.258         0.2257      -105.5468      -60.24103     0.01264947
      5072.5000         0.6412       4319.797           0.23      -105.9352      -60.64581    0.005903117
      5073.0000         0.6269       4243.922         0.2344      -106.3035      -61.03048              0
      5073.5000         0.6108       4173.789         0.2387      -106.6382      -61.38156              0
      5074.0000         0.5946       4133.742          0.243      -106.4114      -61.17114              0
      5074.5000         0.5794       4093.664         0.2468      -106.0565      -60.83261    0.002789752
      5075.0000         0.5689       4118.797         0.2506      -105.7227      -60.51519    0.008080165
      5075.5000         0.5585       4185.539         0.2544      -105.7004      -60.50927    0.008178902
      5076.0000         0.5481       4247.016         0.2581      -105.6782      -60.50344    0.008275986
      5076.5000         0.5411       4239.398         0.2619      -105.6624      -60.50402    0.008266386
      5077.0000         0.5353       4226.742         0.2657      -105.9231       -60.7811    0.003648377
      5077.5000         0.5328       4122.188         0.2703      -106.1838      -61.05817              0
      5078.0000         0.5351        3997.27         0.2767      -105.3311      -60.22184     0.01296927
      5078.5000         0.5375       3907.141         0.2831      -103.0262      -57.93332     0.05111135
      5079.0000         0.5406       3723.539         0.2894      -101.5549       -56.4784     0.07536004
      5079.5000         0.5475       3501.313         0.2958      -100.8621      -55.80197     0.08663381
      5080.0000         0.5543       3337.078         0.3024      -101.6892      -56.64545     0.07257582
      5080.5000         0.5612       3251.715         0.3118      -102.5165      -57.48913     0.05851453
      5081.0000         0.5704       3194.461         0.3211      -103.7462       -58.7352     0.03774668
      5081.5000         0.5881       3224.145         0.3281      -102.8821      -57.88748     0.05187537
      5082.0000         0.6059       3267.637         0.3285       -99.7322      -54.75395      0.1041008
      5082.5000         0.6302       3339.781         0.3289       -97.8138      -52.85192      0.1358013
