#------------------------------------------------------------------------------
# Created by    : vladimir.rabinovich
# Created on    : 09/19/2023 17:22:30
#------------------------------------------------------------------------------
~Version Information Section
VERS.           2.0     :   CWLS log ASCII Standard - VERSION 2.0
WRAP.           NO      :   One line per depth step
~Well Information Section
#MNEM       .UNIT                                         VALUE :DESCRIPTION
#------------------------------------------------------------------------------
STRT        .FT                                             328 :START DEPTH
STOP        .FT                                            8026 :STOP DEPTH
STEP        .FT                                             0.5 :STEP      
NULL        .                                           -999.25 :NULL      
COMP        .                                 MESA PETROLEUM CO :COMPANY   
WELL        .                                ST TR 00565-L NW/4 :WELL      
FLD         .                                           WILDCAT :FIELD     
LOC         .                                                   :LOCATION  
CNTY        .                      MATAGORDA ISLAND LARGE BLOCK :LOCATION  
STAT        .                                             TEXAS :STATE     
CTRY        .                                     UNITED STATES :COUNTRY   
SRVC        .                                                   :SERVICE COMPANY
DATE        .                             9/13/2023 11:12:01 AM :LOG DATE  
API         .                                    42703301780000 :API NUMBER
UWI         .                                    42703301780000 :UNIQUE WELL ID
XCOORD      .                                  585273.186473096 :SURFACE X 
YCOORD      .                                  10269188.7462706 :SURFACE Y 
LAT         .                                          28.25878 :LATITUDE  
LON         .                                       -96.2777629 :LONGITUDE 
ELEV        .FT                                              82 :ELEVATION VALUE
ELEV_TYPE   .                                                KB :ELEVATION REFERENCE TYPE
~Curve Information Section
#MNEM       .UNIT                                      API CODE :CURVE DESCRIPTION
#------------------------------------------------------------------------------
DEPT        .FT                                                 :DEPTH     
CILD        .MMHO                                               :          
DT          .US/F                                               :          
ILD         .OHMM                                               :          
SFL         .OHMM                                               :          
SP          .MV                                                 :          
SP_NORM     .MV                                                 :SP Normalized
VSH_SP      .V/V                                                :Volume of Shale from SP
~A        DEPTH           CILD             DT            ILD            SFL             SP        SP_NORM         VSH_SP
# ...
      4917.5000       1920.686          172.7         0.5458         1.1414       -62.1369      -28.23857      0.4659104
      4918.0000       1892.924       173.2461         0.5384         0.9987       -58.4236      -24.53383      0.5385523
      4918.5000       1862.141       171.5215         0.5514         0.8071       -46.6215      -12.74029      0.7697982
      4919.0000       1820.008       168.7534         0.5649         0.7452       -39.7405      -5.867859      0.9045518
      4919.5000       1791.215       169.4973         0.5787         0.9192       -39.8668      -6.002716      0.9019075
      4920.0000       1775.893       170.8962         0.5847         1.1965        -45.038      -11.18248      0.8003435
      4920.5000       1772.064       166.9211         0.5847         1.4518       -53.3168      -19.46984      0.6378462
      4921.0000        1791.35       162.9619          0.579         1.3342       -60.3288      -26.49041      0.5001881
      4921.5000        1819.32       161.6448         0.5674         1.1478       -65.3046      -31.47477      0.4024555
      4922.0000       1854.354        167.332         0.5552         0.9916       -63.1445      -29.32323      0.4446425
      4922.5000       1890.664       174.9583         0.5431          0.876       -57.5082      -23.69549      0.5549904
      4923.0000       1927.172       170.5608         0.5327         0.8557       -48.4128      -14.60865      0.7331637
      4923.5000       1961.813       165.8662         0.5358         0.8673       -44.7213      -10.92571      0.8053782
      4924.0000       1978.367       167.1489         0.5436         0.8518       -40.9926      -7.205578       0.878322
      4924.5000       1946.139       168.5217         0.5582         0.8217       -38.0296      -4.251137      0.9362522
      4925.0000       1888.307        169.782         0.5773         0.7982       -36.8791      -3.109203      0.9586431
      4925.5000       1831.752       171.4224         0.5982         0.8508       -38.9785      -5.217163      0.9173105
      4926.0000       1746.551       174.0618           0.61         0.9645       -43.2911      -9.538326      0.8325818
      4926.5000       1695.314       170.2439         0.6176         1.0963       -48.7296      -14.98539      0.7257767
      4927.0000       1698.691       170.2947         0.6168         1.2227        -53.683      -19.94735      0.6284834
      4927.5000       1727.338       177.8501          0.606         1.2595       -59.3936      -25.66651      0.5163429
      4928.0000       1790.525       186.1597         0.5852         1.2481       -63.4365      -29.71798      0.4369024
      4928.5000       1882.557       189.1826         0.5604         1.2087       -66.8459      -33.13594      0.3698836
      4929.0000        1957.98       175.9883         0.5349         1.1389       -71.0472       -37.3458      0.2873372
      4929.5000       1994.824       168.0327         0.5258         1.0066       -77.8762      -44.18336      0.1532675
      4930.0000       1976.602       170.5752         0.5225         0.8805       -80.8824      -47.19812     0.09415443
      4930.5000       1920.146       172.6284         0.5319         0.8747       -76.1294      -42.45369      0.1871826
      4931.0000       1851.307       173.9114         0.5557         1.0755       -66.7025      -33.03535      0.3718559
      4931.5000       1759.129       170.8333         0.5864          1.292       -58.1762      -24.51761      0.5388704
      4932.0000       1643.857       164.2297         0.6273         1.3503       -51.7209      -18.07087       0.665277
      4932.5000       1499.498       162.9802         0.6754         1.3169       -48.5909      -14.94943      0.7264817
      4933.0000       1369.387       169.3516         0.7321         1.2959       -43.4247      -9.791798      0.8276118
      4933.5000       1290.082       172.1394         0.7872         1.2705       -35.7397      -2.115356      0.9781303
      4934.0000       1242.863       171.6443         0.8359         1.2039       -29.2374        4.37838              1
      4934.5000       1212.633       175.1892         0.8775         1.1225       -24.9297       8.677519              1
      4935.0000       1195.902         173.72         0.8996         1.1007       -23.0993       10.49936              1
      4935.5000       1185.109       169.2576         0.9093         1.0929       -22.6642        10.9259              1
      4936.0000       1174.559       166.9658         0.9106          1.076       -22.5117       11.06983              1
      4936.5000        1173.43       170.6775           0.91         1.0418       -23.1556       10.41737              1
      4937.0000       1172.604       173.6533         0.9081         1.0475       -24.8183       8.746107              1
      4937.5000       1176.586       173.6409         0.9032         1.1177       -25.0357       8.520147              1
      4938.0000        1183.76       171.2876         0.8983         1.2094       -25.2281       8.319183              1
      4938.5000       1190.281       166.8301          0.891         1.2156       -25.5334       8.005323              1
      4939.0000       1194.781       168.7588         0.8837         1.1419       -26.7087       6.821459              1
      4939.5000       1199.277       170.5627         0.8803         1.1474       -28.1511       5.370499              1
      4940.0000         1196.5       169.1138         0.8797         1.1899       -29.6642       3.848835              1
      4940.5000       1192.748       170.7493           0.88         1.2543       -33.4362     0.06827545              1
      4941.0000       1179.467       173.4878         0.8829         1.3192       -35.3834      -1.887489      0.9825982
      4941.5000       1161.371       173.7102         0.8911         1.3693        -37.103       -3.61565      0.9487128
      4942.0000       1134.889       171.0801         0.9063         1.3335       -38.1094      -4.630615      0.9288115
      4942.5000       1128.564       163.7903         0.9154          1.329       -37.9158      -4.445572      0.9324397
      4943.0000       1136.361       168.0129         0.9155         1.3633       -36.9335      -3.471836      0.9515326
      4943.5000       1162.527        169.092         0.9071         1.3903       -35.3203      -1.867199      0.9829961
      4944.0000       1202.916        168.218         0.8928         1.2831       -33.3409      0.1036377              1
      4944.5000       1228.773       168.2698         0.8754         1.1526       -31.8517       1.584278              1
      4945.0000       1249.227       165.1904         0.8564         1.0034        -31.866       1.561415              1
      4945.5000       1269.666       168.8379         0.8315         0.8847        -32.169       1.249855              1
      4946.0000       1290.119       167.7427         0.8051         0.7972       -32.9704       0.439888              1
      4946.5000        1316.91       166.0608         0.7776         0.8399       -34.0164     -0.6146698              1
      4947.0000         1344.4       165.5293         0.7506         0.9722       -35.5071      -2.113934      0.9781582
      4947.5000       1377.396       165.6833         0.7259         1.1451        -39.075      -5.690395      0.9080315
      4948.0000       1410.709        165.563         0.7045         1.4375        -44.553      -11.17696      0.8004518
      4948.5000       1457.045       164.6069         0.6868         1.6009       -46.8231      -13.45562      0.7557722
      4949.0000       1504.559       167.1611         0.6787         1.3471       -49.0734      -15.71448      0.7114807
      4949.5000       1554.086       169.8899         0.6725         1.2518       -52.3147      -18.96434      0.6477579
      4950.0000       1587.842       171.4346         0.6709         1.1473       -45.3052      -11.96341      0.7850313
      4950.5000        1604.99       169.8936         0.6709         0.9319       -37.1599      -3.826668      0.9445751
