#------------------------------------------------------------------------------
# Created by    : vladimir.rabinovich
# Created on    : 09/19/2023 17:19:56
#------------------------------------------------------------------------------
~Version Information Section
VERS.           2.0     :   CWLS log ASCII Standard - VERSION 2.0
WRAP.           NO      :   One line per depth step
~Well Information Section
#MNEM       .UNIT                                         VALUE :DESCRIPTION
#------------------------------------------------------------------------------
STRT        .FT                                             748 :START DEPTH
STOP        .FT                                            7997 :STOP DEPTH
STEP        .FT                                             0.5 :STEP      
NULL        .                                           -999.25 :NULL      
COMP        .                                        EXXON CORP :COMPANY   
WELL        .                                     ST TR 00560-L :WELL      
FLD         .                                           WILDCAT :FIELD     
LOC         .                                                   :LOCATION  
CNTY        .                      MATAGORDA ISLAND LARGE BLOCK :LOCATION  
STAT        .                                             TEXAS :STATE     
CTRY        .                                     UNITED STATES :COUNTRY   
SRVC        .                                                   :SERVICE COMPANY
DATE        .                             9/13/2023 11:19:05 AM :LOG DATE  
API         .                                    42703302000000 :API NUMBER
UWI         .                                    42703302000000 :UNIQUE WELL ID
XCOORD      .                                  556028.985600478 :SURFACE X 
YCOORD      .                                   10283706.324983 :SURFACE Y 
LAT         .                                        28.2964478 :LATITUDE  
LON         .                                       -96.3697382 :LONGITUDE 
ELEV        .FT                                              92 :ELEVATION VALUE
ELEV_TYPE   .                                                KB :ELEVATION REFERENCE TYPE
~Curve Information Section
#MNEM       .UNIT                                      API CODE :CURVE DESCRIPTION
#------------------------------------------------------------------------------
DEPT        .FT                                                 :DEPTH     
ASFL        .OHMM                                               :          
CILD        .MMHO                                               :          
DT          .US/F                                               :          
GR          .GAPI                                               :          
GR_NORM     .GAPI                                               :GammaRay Normalized
ILD         .OHMM                                               :          
SP          .MV                                                 :          
SP_NORM     .MV                                                 :SP Normalized
VSH_GR      .V/V                                                :Volume of Shale from GR
VSH_SP      .V/V                                                :Volume of Shale from SP
~A        DEPTH           ASFL           CILD             DT             GR        GR_NORM            ILD             SP        SP_NORM         VSH_GR         VSH_SP
# ...
      7485.5000         2.1445       487.8867        -999.25        -999.25        -999.25         1.9997        -41.686      -1.366806        -999.25      0.9937829
      7486.0000         2.0849       467.9121        -999.25        -999.25        -999.25           1.97       -42.1809      -1.869541        -999.25       0.985262
      7486.5000           2.04       471.0903        -999.25        -999.25        -999.25         1.9404       -42.6891      -2.385571        -999.25      0.9765158
      7487.0000         2.0205       474.2651        -999.25        -999.25        -999.25         1.9078       -43.4285      -3.132805        -999.25      0.9638507
      7487.5000          2.001       477.4434        -999.25        -999.25        -999.25         1.8577       -44.1665      -3.878639        -999.25      0.9512095
      7488.0000         1.8703       485.8311        -999.25        -999.25        -999.25         1.8076       -44.6088       -4.32877        -999.25      0.9435802
      7488.5000         1.7507       500.3672        -999.25        -999.25        -999.25         1.7575       -44.8122      -4.540005        -999.25      0.9399999
      7489.0000         1.7074       514.9033        -999.25        -999.25        -999.25         1.7074       -44.5766      -4.312237        -999.25      0.9438604
      7489.5000          1.677       529.4141        -999.25        -999.25        -999.25         1.6573       -44.3407      -4.084171        -999.25      0.9477259
      7490.0000         1.6465       543.9502        -999.25        -999.25        -999.25         1.6086       -44.1048      -3.856106        -999.25      0.9515914
      7490.5000          1.614       559.2939        -999.25        -999.25        -999.25         1.5654        -43.578      -3.337139        -999.25      0.9603875
      7491.0000         1.5758        580.584        -999.25        -999.25        -999.25         1.5222       -41.3771      -1.144073        -999.25      0.9975581
      7491.5000         1.5352        601.874        -999.25        -999.25        -999.25         1.4789       -40.2086     0.01659775        -999.25              1
      7492.0000         1.4891       623.1641        -999.25        -999.25        -999.25         1.4357       -39.4997      0.7176628        -999.25              1
      7492.5000         1.4802       644.4551        -999.25        -999.25        -999.25         1.3925       -39.5402      0.6693306        -999.25              1
      7493.0000         1.4606       664.0068        -999.25        -999.25        -999.25         1.3492       -39.5894      0.6122932        -999.25              1
      7493.5000         1.3884       682.9727        -999.25        -999.25        -999.25          1.306       -39.8326      0.3612633        -999.25              1
      7494.0000         1.3466       701.9375        -999.25        -999.25        -999.25         1.2627       -40.0758      0.1102257        -999.25              1
      7494.5000         1.3222       720.9033        -999.25        -999.25        -999.25         1.2195        -40.319     -0.1408043        -999.25              1
      7495.0000         1.3188        739.208        -999.25        -999.25        -999.25         1.1828        -40.554     -0.3836403        -999.25              1
      7495.5000         1.3474       757.2676        -999.25        -999.25        -999.25         1.1565       -40.7183     -0.5557709        -999.25              1
      7496.0000         1.3721       775.3281        -999.25        -999.25        -999.25         1.1302       -40.8826     -0.7279015        -999.25              1
      7496.5000         1.3951       794.3906        -999.25        -999.25        -999.25         1.1425       -41.0469     -0.9000397        -999.25              1
      7497.0000         1.4018       814.4326        -999.25        -999.25        -999.25         1.1659        -41.089     -0.9499702        -999.25              1
      7497.5000         1.4085       828.2227        -999.25        -999.25        -999.25          1.188       -41.2434      -1.112206        -999.25      0.9980982
      7498.0000         1.4151       819.5596        -999.25        -999.25        -999.25         1.2089        -41.897      -1.773636        -999.25      0.9868875
      7498.5000         1.4255       809.9307        -999.25        -999.25        -999.25         1.2298       -42.5511      -2.435574        -999.25      0.9756683
      7499.0000         1.4362       790.7451        -999.25        -999.25        -999.25         1.2508       -43.1342      -3.026505        -999.25      0.9656525
      7499.5000         1.4469       771.5596        -999.25        -999.25        -999.25         1.2778       -42.2259      -2.126038        -999.25      0.9809146
      7500.0000         1.4577       752.3984        -999.25        -999.25        -999.25         1.3089       -41.3176      -1.225571        -999.25      0.9961768
      7500.5000         1.4684       733.2129        -999.25        -999.25        -999.25           1.34       -40.6683     -0.5841026        -999.25              1
      7501.0000         1.6202       714.0273        -999.25        -999.25        -999.25         1.3711       -40.0287     0.04766083        -999.25              1
      7501.5000         1.6881       695.4531        -999.25        -999.25        -999.25         1.4023       -39.3891      0.6794319        -999.25              1
      7502.0000         1.7173       679.2529        -999.25        -999.25        -999.25         1.4324       -38.9902       1.070496        -999.25              1
      7502.5000         1.7424       664.6982        -999.25        -999.25        -999.25         1.4618       -38.9598       1.093063        -999.25              1
      7503.0000         1.7455       666.2705        -999.25        -999.25        -999.25         1.4796       -39.4396      0.6054268        -999.25              1
      7503.5000         1.6831       667.8418        -999.25        -999.25        -999.25         1.4579       -39.9193       0.117897        -999.25              1
      7504.0000         1.5708       669.4121        -999.25        -999.25        -999.25         1.4361       -40.2278     -0.1984367        -999.25              1
      7504.5000         1.4325       667.2891        -999.25        -999.25        -999.25         1.4029       -40.3711     -0.3495712        -999.25              1
      7505.0000         1.3629       668.5586        -999.25        -999.25        -999.25         1.3595       -40.5145     -0.5008011        -999.25              1
      7505.5000         1.3537       689.1885        -999.25        -999.25        -999.25         1.3161       -40.6578     -0.6519356        -999.25              1
      7506.0000         1.3445        709.793        -999.25        -999.25        -999.25         1.2728       -40.8324     -0.8343697        -999.25              1
      7506.5000         1.3354       732.8701        -999.25        -999.25        -999.25         1.2294       -41.1544      -1.164204        -999.25      0.9972169
      7507.0000         1.3268       766.3955        -999.25        -999.25        -999.25         1.1866       -41.5291      -1.546734        -999.25      0.9907333
      7507.5000         1.3184        799.873        -999.25        -999.25        -999.25         1.1445       -42.2855       -2.31097        -999.25      0.9777802
      7508.0000           1.31       825.1025        -999.25        -999.25        -999.25         1.1025        -43.009      -3.042301        -999.25      0.9653847
      7508.5000         1.3017       845.0469        -999.25        -999.25        -999.25         1.0604       -43.6984      -3.739536        -999.25      0.9535672
      7509.0000         1.2864       864.9297        -999.25        -999.25        -999.25         1.0204       -44.2991      -4.348068        -999.25      0.9432531
      7509.5000         1.2472       872.6016        -999.25        -999.25        -999.25         0.9817       -44.6644      -4.721199        -999.25      0.9369288
