#------------------------------------------------------------------------------
# Created by    : vladimir.rabinovich
# Created on    : 09/19/2023 17:22:56
#------------------------------------------------------------------------------
~Version Information Section
VERS.           2.0     :   CWLS log ASCII Standard - VERSION 2.0
WRAP.           NO      :   One line per depth step
~Well Information Section
#MNEM       .UNIT                                         VALUE :DESCRIPTION
#------------------------------------------------------------------------------
STRT        .FT                                             513 :START DEPTH
STOP        .FT                                           16000 :STOP DEPTH
STEP        .FT                                             0.5 :STEP      
NULL        .                                           -999.25 :NULL      
COMP        .              PENNZOIL EXPLORATION & PRODUCTION CO :COMPANY   
WELL        .                                ST TR 00486-L SE/4 :WELL      
FLD         .                                           WILDCAT :FIELD     
LOC         .                                                   :LOCATION  
CNTY        .                      MATAGORDA ISLAND LARGE BLOCK :LOCATION  
STAT        .                                             TEXAS :STATE     
CTRY        .                                     UNITED STATES :COUNTRY   
SRVC        .                                                   :SERVICE COMPANY
DATE        .                             9/13/2023 11:19:05 AM :LOG DATE  
API         .                                    42703302080000 :API NUMBER
UWI         .                                    42703302080000 :UNIQUE WELL ID
XCOORD      .                                  648049.134083277 :SURFACE X 
YCOORD      .                                  10318924.3450998 :SURFACE Y 
LAT         .                                        28.3999658 :LATITUDE  
LON         .                                       -96.0869402 :LONGITUDE 
ELEV        .FT                                              47 :ELEVATION VALUE
ELEV_TYPE   .                                                KB :ELEVATION REFERENCE TYPE
~Curve Information Section
#MNEM       .UNIT                                      API CODE :CURVE DESCRIPTION
#------------------------------------------------------------------------------
DEPT        .FT                                                 :DEPTH     
SFL         .OHMM                                               :          
SP          .MV                                                 :          
SP_NORM     .MV                                                 :SP Normalized
VSH_SP      .V/V                                                :Volume of Shale from SP
~A        DEPTH            SFL             SP        SP_NORM         VSH_SP
# ...
      4647.0000         0.9265       -63.4814      -2.836235      0.9733879
      4647.5000         0.9362       -63.7844      -3.139236      0.9689966
      4648.0000         0.9617       -64.9637      -4.318535      0.9519053
      4648.5000         1.0325       -66.5991      -5.953934      0.9282039
      4649.0000         1.0441       -67.8291      -7.183937      0.9103777
      4649.5000          0.996       -68.8313      -8.186134      0.8958531
      4650.0000         0.8487       -69.8439      -9.198738      0.8811777
      4650.5000         0.7836       -69.5685      -8.923332      0.8851691
      4651.0000         0.8297       -65.6849      -5.039734      0.9414532
      4651.5000         0.8546       -62.5845      -1.939335      0.9863865
      4652.0000         0.7966       -61.2581     -0.6129341              1
      4652.5000         0.6863        -62.946      -2.300835      0.9811473
      4653.0000         0.6459       -65.1492      -4.504036      0.9492168
      4653.5000         0.6549       -67.9312      -7.286034      0.9088981
      4654.0000         0.6912       -71.5992      -10.95403      0.8557386
      4654.5000         0.7324       -75.3499      -14.70473      0.8013806
      4655.0000         0.7884        -79.876      -19.23083       0.735785
      4655.5000         0.9799       -90.8729      -30.22774      0.5764096
      4656.0000         1.5535      -102.0309      -41.38573      0.4146995
      4656.5000         1.7347      -107.7748      -47.12964      0.3314545
      4657.0000         1.6738      -108.7756      -48.13043      0.3169503
      4657.5000         1.1471      -106.3511      -45.70593      0.3520879
      4658.0000         0.8394       -99.4082      -38.76304      0.4527096
      4658.5000         0.6853       -89.7489      -29.10374      0.5926995
      4659.0000         0.5955       -80.9926      -20.34743      0.7196024
      4659.5000         0.5838       -77.0491      -16.40394      0.7767545
      4660.0000         0.6793       -76.4037      -15.75854      0.7861081
      4660.5000         0.9393       -77.9801      -17.33494      0.7632618
      4661.0000         1.2044       -80.6985      -20.05334      0.7238647
      4661.5000         1.3495       -79.7374      -19.09223      0.7377937
      4662.0000         1.1742       -74.0573      -13.41213       0.820114
      4662.5000         0.9699        -68.392      -7.746834      0.9022198
      4663.0000         0.8917       -64.6902      -4.045036       0.955869
      4663.5000         0.8662       -62.8083      -2.163136       0.983143
      4664.0000         0.8585       -62.0011      -1.355934      0.9948415
      4664.5000         0.8873       -62.0028      -1.357635      0.9948169
      4665.0000         0.9637       -62.3519      -1.706734      0.9897575
      4665.5000         0.9977       -62.6671      -2.021935      0.9851894
      4666.0000         0.9323       -62.6045      -1.959335      0.9860966
      4666.5000         0.8682       -62.5231      -1.877937      0.9872763
      4667.0000         0.8445       -62.0913      -1.446136      0.9935343
      4667.5000         0.8461         -61.66      -1.014835       0.999785
      4668.0000         0.8474       -61.1368     -0.4916344              1
      4668.5000          0.842       -60.5692     0.07596588              1
      4669.0000         0.8278       -60.1792      0.4659653              1
      4669.5000         0.8196       -60.1467      0.4984627              1
      4670.0000         0.8145       -60.1949       0.450264              1
      4670.5000         0.8163       -60.4727      0.1724663              1
      4671.0000         0.8226       -60.8403      -0.195137              1
      4671.5000         0.8265       -61.3804     -0.7352371              1
      4672.0000         0.8294       -61.8403      -1.195137      0.9971719
      4672.5000         0.8344       -62.1912      -1.546036      0.9920864
      4673.0000         0.8414       -62.0774      -1.432236      0.9937357
      4673.5000         0.8715       -62.1803      -1.535137      0.9922444
      4674.0000         0.9193       -62.5316      -1.886436      0.9871531
      4674.5000         0.9768       -63.0093      -2.364136      0.9802299
      4675.0000         1.0258       -63.4704      -2.825237      0.9735473
      4675.5000         1.0043       -63.5947      -2.949535      0.9717458
      4676.0000         0.9366       -63.3493      -2.704136      0.9753024
      4676.5000         0.8787       -62.8145      -2.169334      0.9830531
      4677.0000         0.8707       -61.6318     -0.9866371              1
      4677.5000         0.9063       -60.4882      0.1569633              1
      4678.0000         0.9511       -59.6182       1.026966              1
      4678.5000         0.9959       -59.2571       1.388065              1
      4679.0000         1.0135       -59.2327       1.412464              1
      4679.5000         1.0276       -59.3315       1.313663              1
      4680.0000         1.0278       -59.9791      0.6660652              1
      4680.5000         0.9469       -60.5814     0.06376266              1
      4681.0000          0.888        -60.901     -0.2558365              1
      4681.5000         0.9014       -61.1826     -0.5374336              1
      4682.0000         1.0485        -61.214     -0.5688362              1
      4682.5000         1.0441       -61.1141     -0.4689369              1
      4683.0000         0.9978       -60.8312     -0.1860352              1
      4683.5000         0.9325       -60.6872    -0.04203415              1
      4684.0000          0.874       -60.9172     -0.2720337              1
      4684.5000         0.8324       -61.7658      -1.120636      0.9982517
      4685.0000         0.8035       -63.5605      -2.915337      0.9722415
      4685.5000         0.8082       -65.3121      -4.666939       0.946856
      4686.0000         0.8533       -66.3724      -5.727234      0.9314893
      4686.5000         0.8573       -66.1564      -5.511238      0.9346197
      4687.0000         0.8531       -65.7576      -5.112434      0.9403995
      4687.5000         0.8354       -65.2915      -4.646332      0.9471546
      4688.0000         0.8012        -65.062      -4.416832      0.9504807
      4688.5000          0.755       -64.9355      -4.290337       0.952314
      4689.0000         0.7217       -65.4779      -4.832733      0.9444531
      4689.5000          0.704       -66.6722      -6.027039      0.9271443
      4690.0000         0.6799       -68.9241      -8.278938      0.8945081
      4690.5000         0.6402       -71.2695      -10.62434      0.8605168
      4691.0000         0.5906        -76.545      -15.89983      0.7840604
      4691.5000         0.5919       -86.4966      -25.85143      0.6398343
      4692.0000          0.845      -102.6829      -42.03773      0.4052502
      4692.5000         1.0853       -115.467      -54.82184      0.2199734
      4693.0000         1.0204      -120.1318      -59.48663      0.1523676
      4693.5000         0.8314      -117.9175      -57.27234      0.1844589
      4694.0000         0.7861      -111.8326      -51.18744      0.2726458
      4694.5000         0.8692      -103.4248      -42.77963      0.3944981
      4695.0000         0.9152       -94.1027      -33.45753      0.5296009
      4695.5000          0.675        -80.277      -19.63184      0.7299734
      4696.0000         0.5923        -69.561      -8.915833      0.8852778
      4696.5000         0.5798       -61.3893     -0.7441368              1
      4697.0000          0.665       -58.6925       1.952663              1
      4697.5000         0.6998       -57.6293       3.015865              1
      4698.0000         0.7027       -57.3348       3.310364              1
      4698.5000         0.6979       -57.6851       2.960064              1
      4699.0000         0.7132        -58.293       2.352165              1
      4699.5000         0.7848       -58.8588       1.786366              1
