#------------------------------------------------------------------------------
# Created by    : vladimir.rabinovich
# Created on    : 09/19/2023 17:20:46
#------------------------------------------------------------------------------
~Version Information Section
VERS.           2.0     :   CWLS log ASCII Standard - VERSION 2.0
WRAP.           NO      :   One line per depth step
~Well Information Section
#MNEM       .UNIT                                         VALUE :DESCRIPTION
#------------------------------------------------------------------------------
STRT        .FT                                            1957 :START DEPTH
STOP        .FT                                            6608 :STOP DEPTH
STEP        .FT                                             0.5 :STEP      
NULL        .                                           -999.25 :NULL      
COMP        .                            HIGHLAND RESOURCES INC :COMPANY   
WELL        .                                     ST TR 00691-L :WELL      
FLD         .                                           WILDCAT :FIELD     
LOC         .                                                   :LOCATION  
CNTY        .                      MATAGORDA ISLAND LARGE BLOCK :LOCATION  
STAT        .                                             TEXAS :STATE     
CTRY        .                                     UNITED STATES :COUNTRY   
SRVC        .                                                   :SERVICE COMPANY
DATE        .                             9/13/2023 11:12:01 AM :LOG DATE  
API         .                                    42703000470000 :API NUMBER
UWI         .                                    42703000470000 :UNIQUE WELL ID
XCOORD      .                                  404407.912506245 :SURFACE X 
YCOORD      .                                  10154689.9311845 :SURFACE Y 
LAT         .                                        27.9298131 :LATITUDE  
LON         .                                       -96.8274765 :LONGITUDE 
ELEV        .FT                                              63 :ELEVATION VALUE
ELEV_TYPE   .                                                KB :ELEVATION REFERENCE TYPE
~Curve Information Section
#MNEM       .UNIT                                      API CODE :CURVE DESCRIPTION
#------------------------------------------------------------------------------
DEPT        .FT                                                 :DEPTH     
ASN         .OHMM                                               :          
CILD        .MMHO                                               :          
ILD         .OHMM                                               :          
SP          .MV                                                 :          
SP_NORM     .MV                                                 :SP Normalized
VSH_SP      .V/V                                                :Volume of Shale from SP
~A        DEPTH            ASN           CILD            ILD             SP        SP_NORM         VSH_SP
# ...
      6251.0000          0.915       1473.732         0.8105       -98.6716       -47.0314      0.4173241
      6251.5000         1.3226       1145.066         0.9238       -96.6614        -45.052      0.4423798
      6252.0000         1.4075       906.4346         1.0373       -94.6345       -43.0559      0.4676468
      6252.5000         1.4113       988.8994         1.1508       -92.3204       -40.7726      0.4965494
      6253.0000         1.3224       1038.225         1.2643       -90.0063       -38.4893      0.5254519
      6253.5000         1.2334       1058.268          1.203       -83.3549       -31.8687       0.609257
      6254.0000         1.1406       1078.287         1.1415       -80.0756       -28.6202      0.6503772
      6254.5000         1.0434        1098.33         1.0802       -77.3223       -25.8978       0.684838
      6255.0000         0.9711       1119.371         1.0205       -74.7322       -23.3385      0.7172342
      6255.5000         1.0106        1143.92         0.9608       -72.1605       -20.7976      0.7493975
      6256.0000         1.0895       1128.582         0.9352       -69.5184       -18.1863      0.7824519
      6256.5000         1.1683       1118.475         0.9192       -66.8505       -15.5492      0.8158329
      6257.0000         1.2418        1140.51         0.9032       -67.3322       -16.0617      0.8093455
      6257.5000         1.2839        1166.23         0.8438       -80.1755       -28.9358      0.6463823
      6258.0000         1.3259       1195.113         0.7844       -84.9631       -33.7542      0.5853899
      6258.5000         1.4085       1223.996          0.725       -87.6311        -36.453      0.5512279
      6259.0000          1.317       1252.854         0.6692       -90.2991       -39.1518      0.5170658
      6259.5000         1.2052       1295.258         0.6365       -93.1486       -42.0322      0.4806051
      6260.0000         1.0909       1340.424         0.6038       -95.3534       -44.2678      0.4523063
      6260.5000           0.97       1394.057         0.5711       -87.6237       -36.5689      0.5497608
      6261.0000         0.8317       1520.344         0.5385       -80.6128       -29.5888      0.6381165
      6261.5000         0.7158       1931.801         0.5057       -75.8512        -24.858          0.698
      6262.0000         0.7023       1954.285         0.4742       -69.0739       -18.1115      0.7833987
      6262.5000         0.6888       1974.502         0.4664       -84.7334       -33.8018      0.5847874
      6263.0000         0.6753       1987.961         0.4587      -100.3262       -49.4254      0.3870203
      6263.5000         0.7004       1991.238          0.451      -104.2651       -53.3951      0.3367709
      6264.0000          0.737       1994.516         0.4432      -107.8076       -56.9684      0.2915393
      6264.5000         0.7875       2038.752         0.4354      -110.5201       -59.7118      0.2568127
      6265.0000         0.8504       2129.781         0.4277      -113.2029       -62.4254      0.2224633
      6265.5000          0.884       2220.715         0.4258      -115.5577        -64.811      0.1922659
      6266.0000          0.858       2311.746         0.4268      -118.0052       -67.2893      0.1608949
      6266.5000         0.8159       2402.773         0.4278      -120.3193       -69.6342      0.1312127
      6267.0000         0.7708       2443.758         0.4287      -117.0677       -66.4134      0.1719823
      6267.5000         0.7257        2432.48         0.4297      -113.8846       -63.2611      0.2118848
      6268.0000         0.6806       2415.898         0.4307      -112.2775       -61.6848       0.231838
      6268.5000          0.639       2399.313         0.4382       -113.881       -63.3191      0.2111506
      6269.0000         0.6146       2362.988          0.449      -116.6453       -66.1142      0.1757697
      6269.5000          0.631       2320.211         0.4599      -119.4097       -68.9094      0.1403873
      6270.0000         0.6474         2187.5         0.4606      -120.8622       -70.3927      0.1216114
      6270.5000         0.6637       2242.523         0.4594      -115.1187       -64.6801      0.1939228
      6271.0000         0.6801       2284.504         0.4582      -107.0554       -56.6476         0.2956
      6271.5000         0.6798       2309.652          0.457      -104.4189       -54.0419      0.3285835
      6272.0000          0.676       2334.801         0.4552      -106.6478       -56.3016      0.2999797
      6272.5000         0.6873       2359.949         0.4514      -108.8767       -58.5613       0.271376
      6273.0000         0.7004       2385.098         0.4475      -111.9949       -61.7103      0.2315152
      6273.5000          0.732       2381.762         0.4437      -115.5559       -65.3021      0.1860494
      6274.0000         0.7826       2332.809         0.4491      -119.0391       -68.8161      0.1415683
      6274.5000         1.0035       2002.684         0.4645      -122.1146       -71.9224      0.1022481
      6275.0000         1.1914       1920.123          0.515      -125.0958       -74.9344     0.06412148
      6275.5000         1.3795       1752.402         0.5967      -127.3765        -77.246     0.03486073
      6276.0000         1.5674       1584.684          0.654      -129.2856       -79.1859     0.01030509
      6276.5000         1.7553       1416.963         0.6901      -130.5039        -80.435              0
      6277.0000         1.9432       1249.244         0.6848      -131.4358       -81.3977              0
      6277.5000         2.2414       1191.777         0.6615      -129.7942       -79.7869    0.002697426
      6278.0000         2.2895       1262.291         0.6368      -128.1528       -78.1763     0.02308481
      6278.5000         2.1855       1331.311          0.603      -126.5112       -76.5655      0.0434747
      6279.0000          2.113       1401.426         0.5516      -124.8698       -74.9549     0.06386199
      6279.5000         2.0277       1463.375         0.4688      -123.2281        -73.344     0.08425314
      6280.0000         1.8667       1537.076         0.4077      -127.9509       -78.0976     0.02408098
      6280.5000         1.4484       1745.432         0.3588      -131.2581       -81.4357              0
      6281.0000         1.0305       1889.646         0.3375      -132.0713       -82.2797              0
      6281.5000         0.8017         2132.5         0.3283      -132.8848        -83.124              0
      6282.0000         0.7894         2659.5         0.3191       -133.698        -83.968              0
      6282.5000         0.7832         3186.5         0.3099      -134.5125       -84.8133              0
      6283.0000         0.7807       3187.156         0.3007      -135.0789       -85.4105              0
      6283.5000         0.7782       3160.203         0.2915      -135.6074       -85.9698              0
      6284.0000         0.7758       3124.547         0.2823      -136.1355       -86.5287              0
      6284.5000         0.7723        3071.91         0.2747      -136.6633       -87.0873              0
      6285.0000         0.7505       3041.484         0.2773      -136.4119       -86.8667              0
      6285.5000         0.7287       3150.195         0.2799      -135.9441       -86.4298              0
      6286.0000         0.7071       3199.047         0.2826      -135.4758       -85.9923              0
      6286.5000         0.6895       3230.844         0.2852      -135.0081       -85.5554              0
      6287.0000          0.679        3252.43         0.2878      -134.5398       -85.1179              0
      6287.5000         0.6753       3264.793         0.2904        -134.72       -85.3289              0
      6288.0000         0.6812       3262.516          0.293      -135.2595       -85.8992              0
      6288.5000         0.7058       3216.078         0.2965      -135.7986       -86.4691              0
