#------------------------------------------------------------------------------
# Created by    : vladimir.rabinovich
# Created on    : 09/19/2023 17:22:56
#------------------------------------------------------------------------------
~Version Information Section
VERS.           2.0     :   CWLS log ASCII Standard - VERSION 2.0
WRAP.           NO      :   One line per depth step
~Well Information Section
#MNEM       .UNIT                                         VALUE :DESCRIPTION
#------------------------------------------------------------------------------
STRT        .FT                                             513 :START DEPTH
STOP        .FT                                           16000 :STOP DEPTH
STEP        .FT                                             0.5 :STEP      
NULL        .                                           -999.25 :NULL      
COMP        .              PENNZOIL EXPLORATION & PRODUCTION CO :COMPANY   
WELL        .                                ST TR 00486-L SE/4 :WELL      
FLD         .                                           WILDCAT :FIELD     
LOC         .                                                   :LOCATION  
CNTY        .                      MATAGORDA ISLAND LARGE BLOCK :LOCATION  
STAT        .                                             TEXAS :STATE     
CTRY        .                                     UNITED STATES :COUNTRY   
SRVC        .                                                   :SERVICE COMPANY
DATE        .                             9/13/2023 11:19:05 AM :LOG DATE  
API         .                                    42703302080000 :API NUMBER
UWI         .                                    42703302080000 :UNIQUE WELL ID
XCOORD      .                                  648049.134083277 :SURFACE X 
YCOORD      .                                  10318924.3450998 :SURFACE Y 
LAT         .                                        28.3999658 :LATITUDE  
LON         .                                       -96.0869402 :LONGITUDE 
ELEV        .FT                                              47 :ELEVATION VALUE
ELEV_TYPE   .                                                KB :ELEVATION REFERENCE TYPE
~Curve Information Section
#MNEM       .UNIT                                      API CODE :CURVE DESCRIPTION
#------------------------------------------------------------------------------
DEPT        .FT                                                 :DEPTH     
SFL         .OHMM                                               :          
SP          .MV                                                 :          
SP_NORM     .MV                                                 :SP Normalized
VSH_SP      .V/V                                                :Volume of Shale from SP
~A        DEPTH            SFL             SP        SP_NORM         VSH_SP
# ...
     11802.0000          0.947       -51.7326      -2.880444      0.9727472
     11802.5000         0.9764       -52.1733       -3.30666      0.9665701
     11803.0000         0.9944       -52.7503      -3.869175      0.9584178
     11803.5000         1.0032       -53.3469      -4.451294      0.9499813
     11804.0000         1.0125       -53.9752      -5.065109      0.9410854
     11804.5000         1.0238       -54.2543      -5.329727      0.9372503
     11805.0000         1.0335       -54.1647      -5.225643      0.9387588
     11805.5000         1.0418       -53.9598       -5.00626      0.9419383
     11806.0000         1.0658       -53.7869      -4.818878      0.9446539
     11806.5000         1.0807       -53.6461      -4.663593      0.9469044
     11807.0000         1.0745       -53.4258      -4.428814      0.9503071
     11807.5000         1.0423       -53.3712       -4.35973      0.9513083
     11808.0000         1.0079       -53.5765      -4.550545      0.9485428
     11808.5000         0.9639       -54.5942      -5.553764      0.9340034
     11809.0000         0.9406       -55.6137      -6.558781      0.9194379
     11809.5000         0.9714       -55.7771      -6.707699      0.9172797
     11810.0000         0.9754       -55.1021      -6.018215      0.9272723
     11810.5000         0.9606       -53.9911      -4.892735      0.9435835
     11811.0000           0.94       -52.8763      -3.763451        0.95995
     11811.5000          0.919       -52.0137      -2.886364      0.9726614
     11812.0000         0.8971       -51.4044      -2.262585      0.9817017
     11812.5000         0.8856       -51.7023      -2.546001      0.9775942
     11813.0000         0.8843       -51.8756      -2.704819      0.9752925
     11813.5000         0.9172       -51.8159      -2.630634      0.9763676
     11814.0000         0.9629       -51.7336      -2.533852      0.9777703
     11814.5000         1.0013       -51.6388      -2.424572       0.979354
     11815.0000         1.0349       -51.0016      -1.772884      0.9887988
     11815.5000         1.0673       -50.3471      -1.103905      0.9984941
     11816.0000         1.0757         -49.97     -0.7123222              1
     11816.5000         1.0456       -49.9559     -0.6837349              1
     11817.0000         1.0022       -49.8474     -0.5607567              1
     11817.5000         0.9623       -49.2865     0.01462936              1
     11818.0000         0.9363       -48.9966      0.3190079              1
     11818.5000         0.9475       -49.5003      -0.170208              1
     11819.0000         0.9558       -50.3256     -0.9810219              1
     11819.5000           0.96       -50.1111     -0.7520409              1
     11820.0000         0.9581       -50.3369      -0.963356              1
     11820.5000         0.9571       -51.3918      -2.003777      0.9854525
     11821.0000         0.9713       -52.2247      -2.822193      0.9735914
     11821.5000         1.0024       -52.1929      -2.775909      0.9742622
     11822.0000         1.0467       -51.7504      -2.318928      0.9808851
     11822.5000         1.0919       -51.2256      -1.779644      0.9887008
     11823.0000         1.1184       -51.0601      -1.599663      0.9913092
     11823.5000         1.1312       -50.8354      -1.360477      0.9947757
     11824.0000         1.1306       -50.1837      -0.694294              1
     11824.5000           1.13       -49.1885      0.3153877              1
     11825.0000         1.1338       -49.2781      0.2402725              1
     11825.5000         1.1613       -50.4862     -0.9533463              1
     11826.0000         1.2174       -51.6757      -2.128365      0.9836469
     11826.5000         1.2794       -53.0164      -3.454578      0.9644264
     11827.0000         1.3372       -54.0378      -4.461498      0.9498333
     11827.5000          1.384       -55.0984      -5.507614      0.9346722
     11828.0000         1.3894       -56.1552      -6.549934      0.9195662
     11828.5000         1.3056       -56.9264      -7.306648      0.9085993
     11829.0000         1.1992       -55.5446      -5.910366      0.9288353
     11829.5000         1.1452       -54.5265      -4.877785      0.9438002
     11830.0000         1.2043       -54.3914      -4.728199      0.9459682
     11830.5000         1.4574       -54.2151      -4.537418      0.9487331
     11831.0000         1.7628        -54.006      -4.313835      0.9519734
     11831.5000         1.9562       -53.8282      -4.121552      0.9547601
     11832.0000         1.9678       -53.7193      -3.998169      0.9565483
     11832.5000         1.8592       -53.7325      -3.996883      0.9565669
     11833.0000         1.7077       -53.8716      -4.121506      0.9547608
     11833.5000         1.6374       -53.7194      -3.954819      0.9571766
     11834.0000         1.7338       -53.2395      -3.460434      0.9643415
     11834.5000         1.7821       -53.2292      -3.435654      0.9647007
     11835.0000         1.7717       -54.0303      -4.222271      0.9533004
     11835.5000         1.6861       -54.6819       -4.85939      0.9440668
     11836.0000         1.3492       -54.7856      -4.948605      0.9427738
     11836.5000         1.1553       -54.1647      -4.313221      0.9519823
     11837.0000         1.0817       -53.6765      -3.810539      0.9592676
     11837.5000         1.0484       -53.4244      -3.543957      0.9631311
     11838.0000         1.0681       -53.2913      -3.396378      0.9652699
     11838.5000          1.103       -53.0906       -3.18119      0.9683886
     11839.0000         1.1381       -52.8535      -2.929607      0.9720347
     11839.5000         1.1709       -52.5323      -2.593925      0.9768996
     11840.0000          1.168         -51.98      -2.027142      0.9851139
     11840.5000         1.1276       -51.1566      -1.189262      0.9972571
     11841.0000         1.0775       -50.2225     -0.2406769              1
     11841.5000         1.1023       -50.5646     -0.5682983              1
     11842.0000         1.5136       -51.0137      -1.002911      0.9999578
     11842.5000         2.6217       -50.8354     -0.8101273              1
     11843.0000         2.6074       -50.1725     -0.1327477              1
     11843.5000         1.4567       -49.4518      0.6024361              1
     11844.0000         1.2154       -48.9205       1.148216              1
     11844.5000         1.1657       -48.3519       1.731304              1
     11845.0000         1.1191       -47.5621       2.535587              1
     11845.5000         1.1014       -46.7554       3.356766              1
     11846.0000         1.1002       -46.8367       3.289951              1
     11846.5000         1.1333       -47.9038       2.237331              1
     11847.0000          1.236       -49.5918      0.5638161              1
     11847.5000         1.4164       -50.4899     -0.3197975              1
     11848.0000          1.605       -50.4437     -0.2591171              1
     11848.5000           1.74       -50.4909      -0.291832              1
     11849.0000         1.8333       -51.1566     -0.9430542              1
     11849.5000         1.8603       -52.5234      -2.295368      0.9812266
     11850.0000         1.3703       -53.0873      -2.844784       0.973264
     11850.5000         1.2243       -53.1321      -2.875103      0.9728246
     11851.0000         1.1826       -51.9894      -1.717918      0.9895954
     11851.5000         1.2557        -51.137     -0.8510399              1
     11852.0000         1.3772       -50.4816     -0.1811562              1
     11852.5000         1.4576       -49.9947      0.3202286              1
     11853.0000         1.4696       -49.8262      0.4842491              1
     11853.5000         1.4343       -50.2528     0.03191376              1
     11854.0000          1.384       -50.5726     -0.3136215              1
     11854.5000         1.2964       -50.8251     -0.5918503              1
