#------------------------------------------------------------------------------
# Created by    : vladimir.rabinovich
# Created on    : 09/19/2023 17:19:56
#------------------------------------------------------------------------------
~Version Information Section
VERS.           2.0     :   CWLS log ASCII Standard - VERSION 2.0
WRAP.           NO      :   One line per depth step
~Well Information Section
#MNEM       .UNIT                                         VALUE :DESCRIPTION
#------------------------------------------------------------------------------
STRT        .FT                                             748 :START DEPTH
STOP        .FT                                            7997 :STOP DEPTH
STEP        .FT                                             0.5 :STEP      
NULL        .                                           -999.25 :NULL      
COMP        .                                        EXXON CORP :COMPANY   
WELL        .                                     ST TR 00560-L :WELL      
FLD         .                                           WILDCAT :FIELD     
LOC         .                                                   :LOCATION  
CNTY        .                      MATAGORDA ISLAND LARGE BLOCK :LOCATION  
STAT        .                                             TEXAS :STATE     
CTRY        .                                     UNITED STATES :COUNTRY   
SRVC        .                                                   :SERVICE COMPANY
DATE        .                             9/13/2023 11:19:05 AM :LOG DATE  
API         .                                    42703302000000 :API NUMBER
UWI         .                                    42703302000000 :UNIQUE WELL ID
XCOORD      .                                  556028.985600478 :SURFACE X 
YCOORD      .                                   10283706.324983 :SURFACE Y 
LAT         .                                        28.2964478 :LATITUDE  
LON         .                                       -96.3697382 :LONGITUDE 
ELEV        .FT                                              92 :ELEVATION VALUE
ELEV_TYPE   .                                                KB :ELEVATION REFERENCE TYPE
~Curve Information Section
#MNEM       .UNIT                                      API CODE :CURVE DESCRIPTION
#------------------------------------------------------------------------------
DEPT        .FT                                                 :DEPTH     
ASFL        .OHMM                                               :          
CILD        .MMHO                                               :          
DT          .US/F                                               :          
GR          .GAPI                                               :          
GR_NORM     .GAPI                                               :GammaRay Normalized
ILD         .OHMM                                               :          
SP          .MV                                                 :          
SP_NORM     .MV                                                 :SP Normalized
VSH_GR      .V/V                                                :Volume of Shale from GR
VSH_SP      .V/V                                                :Volume of Shale from SP
~A        DEPTH           ASFL           CILD             DT             GR        GR_NORM            ILD             SP        SP_NORM         VSH_GR         VSH_SP
# ...
       772.5000         6.8752       568.5928        -999.25        24.1053       67.07252         6.5321      -134.3303       1.140839      0.7249472              1
       773.0000         6.9895       664.4805        -999.25        22.5178       63.98928          6.643      -132.4927      0.3434448      0.6593465              1
       773.5000         6.7031       688.6758        -999.25        21.4378         61.861         6.9111      -130.4014       1.688095      0.6140639              1
       774.0000         5.6494       463.0889        -999.25         20.739       60.45002         5.7774      -129.4697       1.873138      0.5840431              1
       774.5000         4.9003       326.4067        -999.25        20.2068       59.35252         4.4448      -128.5383       2.057892       0.560692              1
       775.0000         4.3217       228.1914        -999.25        19.9735       58.81747         4.1119      -127.6069        2.24263      0.5493079              1
       775.5000         3.8092       142.4478        -999.25        19.8129       58.41922         3.9926      -126.4987       2.604187      0.5408344              1
       776.0000         3.6451        72.8569        -999.25        19.9052       58.49684         3.8455      -125.5875        2.76873       0.542486              1
       776.5000         3.4809       113.9526        -999.25        20.3112       59.16473         3.5876      -125.0491       2.560478      0.5566964              1
       777.0000         3.3355       155.0479        -999.25        20.8945       60.16625         3.4289      -124.5105       2.352432      0.5780054              1
       777.5000         3.2286       196.1436        -999.25        21.8906       61.94453         3.1212      -124.0516       2.064682      0.6158411              1
       778.0000         3.1193       235.1196        -999.25        22.8838       63.71735         2.9015       -123.853       1.516632      0.6535606              1
       778.5000              3       262.5063        -999.25        23.6391       65.04251         2.8271      -123.6545      0.9684677      0.6817555              1
       779.0000         3.1784       289.8931        -999.25        24.3944       66.36768          2.775      -123.4561      0.4202194      0.7099506              1
       779.5000         3.3961       317.2798        -999.25        25.1496       67.69265           2.73      -123.2576     -0.1279297      0.7381415              1
       780.0000          3.496       344.6665        -999.25        26.1387       69.45777         2.6868       -123.059     -0.6759796      0.7756973              1
       780.5000         3.6828       372.0532        -999.25        27.2682       71.48706         2.6462      -122.8605      -1.224129      0.8188736      0.9898123
       781.0000          3.689       383.1294        -999.25        28.3978       73.51652         2.6082      -122.2993      -1.409584      0.8620536      0.9813825
       781.5000         3.4442       386.9453        -999.25        29.5612        75.6096         2.5703      -121.6255      -1.482437      0.9065873       0.978071
       782.0000         3.2128       390.7617        -999.25        30.7369       77.54071         2.5326      -120.9336      -1.537193      0.9476747      0.9755821
       782.5000         2.9834       395.7739        -999.25        32.1242       79.11047         2.4958      -120.1653      -1.515541      0.9810737      0.9765663
       783.0000         2.8125       401.7529        -999.25        33.5056       80.66913         2.4589      -119.6395      -1.736397              1      0.9665274
       783.5000         2.6015       407.7319        -999.25        34.2221       80.97665         2.4221      -119.3563      -2.199844              1      0.9454616
       784.0000         2.3202       413.7114        -999.25        34.8412       81.10093         2.3772      -119.0734      -2.663597              1       0.924382
       784.5000         2.2522       433.8892        -999.25        35.3362       80.99165         2.3307      -118.7902      -3.127045              1      0.9033161
       785.0000         2.2104       454.2319        -999.25        35.8311       80.88221         2.2832      -118.5071      -3.590599              1      0.8822455
       785.5000         2.5651       474.5742        -999.25        36.3259       80.77258         2.2584      -117.8358      -3.665955              1      0.8788202
       786.0000          2.919        484.998        -999.25        36.9095       80.83002          2.304      -116.8751      -3.451904              1      0.8885498
       786.5000         3.0846        480.291        -999.25         37.829       81.51955         2.3496      -115.9266      -3.250053              1      0.8977249
       787.0000         3.2021       467.6802        -999.25        38.7487       82.20941         2.4033      -115.3892      -3.459305              1      0.8882134
       787.5000         3.3214       437.8892        -999.25        39.4104       82.41385          2.494      -114.8517      -3.456665              1      0.8883334
       788.0000         3.3906       408.0034        -999.25        39.9761       82.43762         2.6023      -114.5249      -3.061424              1      0.9062989
       788.5000         3.2883       391.2554        -999.25        40.5419        82.4616         2.6802      -114.2382      -2.706276              1       0.922442
       789.0000         3.1188       383.7832        -999.25        41.1075       82.48518         2.6679      -113.9515      -2.351135              1      0.9385847
       789.5000         2.9494         365.73        -999.25        42.6036       84.25967         2.6125      -113.9124      -2.243591              1      0.9434731
       790.0000         2.7891       355.7842        -999.25        46.4616       90.47847         2.5572      -113.8934      -2.156151              1      0.9474477
       790.5000         2.7501       358.0781        -999.25         47.386       91.17722         2.5021      -113.8807      -2.075005              1      0.9511362
       791.0000         2.7111       360.3711        -999.25        47.5566        91.1841          2.447      -113.9563      -2.082161              1      0.9508108
       791.5000          2.672       368.9429        -999.25         47.574       91.21687         2.3915      -114.0319      -2.089317              1      0.9504856
       792.0000          2.633         379.71        -999.25         47.171       90.45855         2.3353      -114.1282      -2.117172              1      0.9492195
       792.5000         2.5933       390.4785        -999.25         46.768       89.70023          2.279       -114.332      -2.252533              1      0.9430667
       793.0000         2.5444       403.3447        -999.25        46.7201       89.61008         2.2072      -114.5359      -2.387985              1      0.9369097
       793.5000         2.4955       421.0654        -999.25        47.2183       90.54753         2.0942      -114.7396      -2.523247              1      0.9307615
       794.0000         2.4466       438.7866        -999.25        47.7166       91.48519         2.0268       -115.124      -2.839203              1      0.9163999
       794.5000         2.3977       456.5073        -999.25        48.2435       92.47664         1.9594      -115.5548      -3.201561              1       0.899929
       795.0000         2.3498       474.2251        -999.25        48.4869       92.93463         1.9006      -116.7445      -4.322815              1       0.848963
       795.5000         2.3022       491.9458        -999.25        48.3915       92.75511         1.8539      -116.4399      -3.949776              1      0.8659193
       796.0000         2.2545        509.667        -999.25        47.5826       91.23303         1.8072      -115.6505      -3.091927              1      0.9049124
       796.5000          2.197       525.4609        -999.25        46.7568       89.67915         1.7614      -115.1143      -2.487289              1      0.9323959
