#------------------------------------------------------------------------------
# Created by    : vladimir.rabinovich
# Created on    : 09/19/2023 17:20:54
#------------------------------------------------------------------------------
~Version Information Section
VERS.           2.0     :   CWLS log ASCII Standard - VERSION 2.0
WRAP.           NO      :   One line per depth step
~Well Information Section
#MNEM       .UNIT                                         VALUE :DESCRIPTION
#------------------------------------------------------------------------------
STRT        .FT                                            2835 :START DEPTH
STOP        .FT                                            6351 :STOP DEPTH
STEP        .FT                                             0.5 :STEP      
NULL        .                                           -999.25 :NULL      
COMP        .                                   PENNZOIL CO INC :COMPANY   
WELL        .                                     ST TR 00659-L :WELL      
FLD         .                                           WILDCAT :FIELD     
LOC         .                                                   :LOCATION  
CNTY        .                      MATAGORDA ISLAND LARGE BLOCK :LOCATION  
STAT        .                                             TEXAS :STATE     
CTRY        .                                     UNITED STATES :COUNTRY   
SRVC        .                                                   :SERVICE COMPANY
DATE        .                             9/13/2023 11:19:13 AM :LOG DATE  
API         .                                    42703300020000 :API NUMBER
UWI         .                                    42703300020000 :UNIQUE WELL ID
XCOORD      .                                  437819.375414617 :SURFACE X 
YCOORD      .                                  10187782.3810297 :SURFACE Y 
LAT         .                                        28.0235144 :LATITUDE  
LON         .                                       -96.7273206 :LONGITUDE 
ELEV        .FT                                              73 :ELEVATION VALUE
ELEV_TYPE   .                                                KB :ELEVATION REFERENCE TYPE
~Curve Information Section
#MNEM       .UNIT                                      API CODE :CURVE DESCRIPTION
#------------------------------------------------------------------------------
DEPT        .FT                                                 :DEPTH     
ASN         .OHMM                                               :          
CILD        .MMHO                                               :          
ILD         .OHMM                                               :          
SP          .MV                                                 :          
SP_NORM     .MV                                                 :SP Normalized
VSH_SP      .V/V                                                :Volume of Shale from SP
~A        DEPTH            ASN           CILD            ILD             SP        SP_NORM         VSH_SP
# ...
      4241.0000         0.8122       1209.189         0.8698       -51.4633    -0.04341507              1
      4241.5000         0.8008       1232.803         0.8526       -51.7018     -0.2924271              1
      4242.0000         0.7902       1249.861         0.8384       -51.9357     -0.5368385              1
      4242.5000         0.7803       1262.674         0.8232       -51.9486     -0.5602531              1
      4243.0000         0.7704       1272.756          0.806       -51.9615     -0.5836639              1
      4243.5000         0.7605       1282.848         0.7889       -51.9814     -0.6140747              1
      4244.0000         0.7539       1295.627         0.7797       -52.1025     -0.7456894              1
      4244.5000         0.7475       1311.787         0.7725       -52.2236     -0.8773003              1
      4245.0000         0.7411       1325.018         0.7654       -52.3595      -1.023712      0.9994611
      4245.5000         0.7352        1336.76         0.7612       -52.6286      -1.303326      0.9931062
      4246.0000         0.7297       1347.768         0.7605       -52.8975      -1.582737       0.986756
      4246.5000         0.7255       1333.916         0.7599       -53.1664      -1.862152      0.9804056
      4247.0000          0.723       1320.074         0.7592       -53.4788      -2.185062      0.9730667
      4247.5000          0.726       1306.223         0.7586        -53.828      -2.544773      0.9648915
      4248.0000         0.7297       1291.971         0.7579       -54.1772      -2.904488      0.9567162
      4248.5000         0.7343       1277.318         0.7623       -54.8417      -3.579502       0.941375
      4249.0000         0.7388       1262.666         0.7683       -55.7428      -4.491112      0.9206566
      4249.5000         0.7433       1249.613         0.7743       -56.5913      -5.350124      0.9011335
      4250.0000          0.748       1237.145         0.7803       -57.1058      -5.875137      0.8892014
      4250.5000          0.753        1244.01         0.7859       -56.6188      -5.398647      0.9000307
      4251.0000         0.7543       1257.324         0.7859       -55.5613      -4.351658       0.923826
      4251.5000         0.7538       1267.439         0.7859       -54.8331      -3.633972       0.940137
      4252.0000         0.7532       1276.607          0.786       -54.5257      -3.337086      0.9468844
      4252.5000         0.7541       1285.779          0.786       -54.7679      -3.589794      0.9411411
      4253.0000         0.7551       1294.945         0.7861       -55.2997      -4.132111      0.9288157
      4253.5000         0.7561       1313.604         0.7855       -55.8317      -4.674622      0.9164858
      4254.0000         0.7609       1303.988         0.7841       -56.3635      -5.216934      0.9041606
      4254.5000         0.7668       1294.379         0.7827       -56.8976      -5.761543      0.8917831
      4255.0000         0.7727       1284.762         0.7813       -57.4333      -6.307758      0.8793691
      4255.5000         0.7794       1274.174         0.7799       -57.0856      -5.970573      0.8870324
      4256.0000         0.7886        1262.41         0.7785       -56.3929      -5.288383      0.9025367
      4256.5000         0.7978       1250.648         0.7818       -55.6077      -4.513695      0.9201433
      4257.0000          0.807       1239.012         0.7857       -54.8229      -3.739407      0.9377407
      4257.5000         0.8168       1227.994         0.7896       -54.2548       -3.18182      0.9504132
      4258.0000         0.8266       1223.959         0.7935       -53.7344      -2.671932      0.9620016
      4258.5000         0.8358       1221.371         0.7992       -53.2141      -2.162144      0.9735876
      4259.0000         0.8425       1232.402         0.8053       -52.6935      -1.652058      0.9851805
      4259.5000         0.8412       1243.436         0.8115       -52.1732      -1.142269      0.9967666
      4260.0000         0.8351       1258.211         0.8176       -51.6529     -0.6324806              1
      4260.5000         0.8291       1298.271         0.8157       -51.3148     -0.3048935              1
      4261.0000          0.823       1328.148         0.8123        -51.238     -0.2386055              1
      4261.5000         0.8169       1350.277         0.7968       -51.6629     -0.6740189              1
      4262.0000         0.8107       1364.816         0.7689       -52.2123      -1.233929      0.9946834
      4262.5000         0.8036       1381.926         0.7284       -52.9382      -1.970345      0.9779467
      4263.0000         0.7965       1398.492         0.7386       -53.2964      -2.339054      0.9695669
      4263.5000         0.7911       1407.953          0.751       -53.5716      -2.624771      0.9630734
      4264.0000         0.7862       1395.717          0.773       -53.4582      -2.521877      0.9654119
      4264.5000         0.8123       1340.131         0.7949       -53.1228      -2.196991      0.9727957
      4265.0000         0.8604       1297.049         0.8169       -52.7874      -1.872105      0.9801794
      4265.5000         0.8951       1267.246         0.8389        -52.452      -1.547215      0.9875633
      4266.0000         0.9148       1240.189         0.8609       -52.0668      -1.172527      0.9960789
      4266.5000         0.9336       1215.879         0.8837       -51.5815     -0.6977425              1
      4267.0000         0.9516       1195.074         0.9066       -51.2868     -0.4135551              1
      4267.5000         0.9679       1175.193         0.9294       -51.8463     -0.9835625              1
      4268.0000         0.9679       1163.568         0.9447       -52.4057      -1.553478       0.987421
      4268.5000          0.946       1158.529         0.9577       -52.9191      -2.077393      0.9755138
      4269.0000         0.9249       1153.488         0.9628       -53.3618      -2.530605      0.9652135
      4269.5000         0.9009       1148.449         0.9629       -53.8046      -2.983913      0.9549111
      4270.0000         0.9152       1137.205         0.9629       -54.2028      -3.392628      0.9456221
      4270.5000         0.9491       1119.346          0.963       -54.3668      -3.567139      0.9416559
      4271.0000         0.9728       1088.883          0.963       -53.9272       -3.13805       0.951408
      4271.5000         0.9923       1053.938         0.9676       -53.4873      -2.708664      0.9611667
      4272.0000         1.0156         1070.1         0.9727       -52.9532      -2.185078      0.9730664
      4272.5000         1.0311       1091.803         0.9571       -52.3206      -1.562988      0.9872048
      4273.0000          1.021       1114.055         0.9244       -51.6879     -0.9407997              1
      4273.5000         0.9686       1144.543         0.8916       -51.4595     -0.7229118              1
      4274.0000         0.9345       1194.389         0.8612       -51.6767     -0.9506264              1
      4274.5000         0.8933       1273.662         0.8307       -52.1238      -1.408237      0.9907219
      4275.0000         0.8288       1307.309         0.8003       -52.7329      -2.027847      0.9766398
      4275.5000         0.8047       1324.992         0.7656       -53.7416      -3.047062      0.9534759
      4276.0000         0.7929       1343.063         0.7503       -53.3315      -2.647476      0.9625574
      4276.5000           0.78       1357.439         0.7875        -52.921       -2.24749       0.971648
      4277.0000         0.7638       1295.627         0.8254       -52.5108      -1.847797      0.9807319
      4277.5000         0.9188       1247.715         0.8687       -52.1003      -1.447811      0.9898224
      4278.0000         0.9045       1229.932         0.8802       -51.5065     -0.8645248              1
      4278.5000          0.878        1236.58         0.8662       -50.8882     -0.2567329              1
