#------------------------------------------------------------------------------
# Created by    : vladimir.rabinovich
# Created on    : 09/19/2023 17:22:56
#------------------------------------------------------------------------------
~Version Information Section
VERS.           2.0     :   CWLS log ASCII Standard - VERSION 2.0
WRAP.           NO      :   One line per depth step
~Well Information Section
#MNEM       .UNIT                                         VALUE :DESCRIPTION
#------------------------------------------------------------------------------
STRT        .FT                                             513 :START DEPTH
STOP        .FT                                           16000 :STOP DEPTH
STEP        .FT                                             0.5 :STEP      
NULL        .                                           -999.25 :NULL      
COMP        .              PENNZOIL EXPLORATION & PRODUCTION CO :COMPANY   
WELL        .                                ST TR 00486-L SE/4 :WELL      
FLD         .                                           WILDCAT :FIELD     
LOC         .                                                   :LOCATION  
CNTY        .                      MATAGORDA ISLAND LARGE BLOCK :LOCATION  
STAT        .                                             TEXAS :STATE     
CTRY        .                                     UNITED STATES :COUNTRY   
SRVC        .                                                   :SERVICE COMPANY
DATE        .                             9/13/2023 11:19:05 AM :LOG DATE  
API         .                                    42703302080000 :API NUMBER
UWI         .                                    42703302080000 :UNIQUE WELL ID
XCOORD      .                                  648049.134083277 :SURFACE X 
YCOORD      .                                  10318924.3450998 :SURFACE Y 
LAT         .                                        28.3999658 :LATITUDE  
LON         .                                       -96.0869402 :LONGITUDE 
ELEV        .FT                                              47 :ELEVATION VALUE
ELEV_TYPE   .                                                KB :ELEVATION REFERENCE TYPE
~Curve Information Section
#MNEM       .UNIT                                      API CODE :CURVE DESCRIPTION
#------------------------------------------------------------------------------
DEPT        .FT                                                 :DEPTH     
SFL         .OHMM                                               :          
SP          .MV                                                 :          
SP_NORM     .MV                                                 :SP Normalized
VSH_SP      .V/V                                                :Volume of Shale from SP
~A        DEPTH            SFL             SP        SP_NORM         VSH_SP
# ...
      8728.0000         4.4313       -88.3168      -29.61735      0.5852558
      8728.5000          3.225       -83.4796      -24.78474      0.6552936
      8729.0000          2.137       -75.9993      -17.30904      0.7636371
      8729.5000         1.5703       -70.1512      -11.46555      0.8483254
      8730.0000          1.147       -66.8491      -8.168049      0.8961152
      8730.5000          1.148       -64.8198      -6.143353      0.9254587
      8731.0000         1.1186        -63.986      -5.314152       0.937476
      8731.5000         1.0094       -63.7655      -5.098255       0.940605
      8732.0000         0.9369       -65.3253      -6.662659      0.9179325
      8732.5000         0.9172       -68.6799      -10.02186      0.8692484
      8733.0000         1.0627       -72.0344      -13.38096      0.8205658
      8733.5000          2.493       -74.9248      -16.27596      0.7786093
      8734.0000         4.8868       -76.4617      -17.81746      0.7562687
      8734.5000         5.1294       -74.7375      -16.09787      0.7811903
      8735.0000         3.4053       -72.4463      -13.81126      0.8143295
      8735.5000         1.9548       -70.7015      -12.07107      0.8395497
      8736.0000         1.3646       -69.4642      -10.83837      0.8574149
      8736.5000         1.0853        -68.854      -10.23277      0.8661917
      8737.0000         0.8507       -69.6289      -11.01227      0.8548946
      8737.5000         0.7654       -71.1733      -12.56128      0.8324453
      8738.0000         0.7343       -73.4608      -14.85338      0.7992264
      8738.5000         0.7303       -76.5383      -17.93548      0.7545583
      8739.0000         0.7649       -80.3947      -21.79648      0.6986018
      8739.5000         0.8633       -85.8383      -27.24469      0.6196423
      8740.0000          1.229       -92.3452      -33.75618      0.5252727
      8740.5000         3.9131       -95.9319      -37.34748      0.4732248
      8741.0000         5.5899       -99.6908      -41.11099      0.4186813
      8741.5000         7.1259      -103.8429      -45.26769      0.3584392
      8742.0000         7.7895      -107.2162      -48.64559      0.3094842
      8742.5000         7.4049       -113.184      -54.61799      0.2229277
      8743.0000         5.9078      -116.6246       -58.0632      0.1729971
      8743.5000         4.3153      -118.9908      -60.43399      0.1386378
      8744.0000         3.4761      -120.6699      -62.11769      0.1142363
      8744.5000         3.3224      -121.6144       -63.0668      0.1004811
      8745.0000         3.2624      -121.4993       -62.9563      0.1020826
      8745.5000         3.2722      -120.5127       -61.9743      0.1163144
      8746.0000         3.2946      -118.9159      -60.38211      0.1393898
      8746.5000         3.3913       -116.984      -58.45481      0.1673216
      8747.0000         3.5062      -114.2098      -55.68521      0.2074608
      8747.5000         3.5383      -109.5748      -51.05481       0.274568
      8748.0000         3.4064      -104.5205      -46.00511       0.347752
      8748.5000         3.0139       -99.4213      -40.91051      0.4215868
      8749.0000          2.271       -88.4441      -29.93791        0.58061
      8749.5000         1.7269       -82.0645      -23.56292      0.6730012
      8750.0000         1.4103       -79.0206      -20.52362       0.717049
      8750.5000         1.2926       -77.1355      -18.64312      0.7443027
      8751.0000         1.2971       -75.8888      -17.40102       0.762304
      8751.5000         1.4126       -75.2196      -16.73642      0.7719359
      8752.0000         1.5528       -74.2396      -15.76102      0.7860721
      8752.5000         1.6617       -72.3789      -13.90493      0.8129721
      8753.0000          1.716        -69.541      -11.07163      0.8540344
      8753.5000         1.7488       -67.2871       -8.82233      0.8866329
      8754.0000         1.7831       -64.6177      -6.157528      0.9252532
      8754.5000         1.5219       -62.7832      -4.327633      0.9517735
      8755.0000         1.3778       -61.8753      -3.424335      0.9648647
      8755.5000         1.2541       -62.8038      -4.357433      0.9513416
      8756.0000         1.1899       -63.4993      -5.057537      0.9411951
      8756.5000         1.1775       -63.9321      -5.494938       0.934856
      8757.0000         1.1791       -63.5573      -5.124741      0.9402211
      8757.5000         1.1729       -63.1108      -4.682846      0.9466254
      8758.0000         1.1316       -62.6578      -4.234444       0.953124
      8758.5000          1.032       -63.1997      -4.780945      0.9452037
      8759.0000         0.9307       -64.0149      -5.600746      0.9333225
      8759.5000         0.8978       -65.1737      -6.764149      0.9164616
      8760.0000         1.3326       -66.4952      -8.090252      0.8972427
      8760.5000         1.5966       -68.1819      -9.781551      0.8727311
      8761.0000         1.5521       -70.6866      -12.29086      0.8363644
      8761.5000         1.2522       -73.8989      -15.50776      0.7897426
      8762.0000          0.985       -77.9011      -19.51456      0.7316731
      8762.5000         1.2637       -84.4606      -26.07866      0.6365411
      8763.0000         2.5507       -92.0382      -33.66086      0.5266542
      8763.5000         4.5131       -97.9163      -39.54356      0.4413977
      8764.0000         4.6973       -100.696      -42.32786      0.4010455
      8764.5000         4.0691      -101.9138      -43.55027      0.3833294
      8765.0000          3.792      -102.3275      -43.96857      0.3772672
      8765.5000         3.6612      -101.8707      -43.51637      0.3838208
      8766.0000         3.7216      -101.0405      -42.69077       0.395786
      8766.5000         3.8534       -99.4213      -41.07618      0.4191858
      8767.0000         3.9989       -96.8417      -38.50117      0.4565048
      8767.5000         4.0968       -93.8728      -35.53688      0.4994655
      8768.0000         4.0139       -90.7616      -32.43027      0.5444888
      8768.5000         3.3146       -86.9764      -28.64968        0.59928
      8769.0000         2.0745       -79.8555      -21.53338      0.7024148
      8769.5000         1.4129       -73.5957      -15.27819      0.7930698
      8770.0000         1.0997       -68.5264      -10.21348      0.8664713
      8770.5000         1.1486       -65.7896      -7.481281      0.9060684
      8771.0000         1.4119       -64.3313      -6.027588      0.9271364
      8771.5000         1.3847       -63.3317      -5.032589      0.9415567
      8772.0000         1.0185       -62.6456      -4.351089      0.9514335
      8772.5000          0.937       -62.3962      -4.106293      0.9549813
      8773.0000          0.903       -62.2835      -3.998196      0.9565479
      8773.5000           0.93       -62.2787      -3.997997      0.9565508
      8774.0000         0.9904       -62.3234      -4.047298      0.9558362
      8774.5000         1.0526       -62.3765         -4.105          0.955
      8775.0000         1.1436       -62.6807      -4.413799      0.9505246
      8775.5000          1.255       -63.0289      -4.766602      0.9454116
      8776.0000         1.3094       -62.7781      -4.520405      0.9489796
      8776.5000         1.2994       -62.5183      -4.265205      0.9526782
      8777.0000         1.2772       -62.2385      -3.990005      0.9566666
      8777.5000         1.2666       -61.9348       -3.69091      0.9610013
      8778.0000         1.2656       -61.6151      -3.375813      0.9655679
      8778.5000         1.2902       -60.8625      -2.627811      0.9764085
      8779.0000         1.3255       -59.9153      -1.685215      0.9900693
      8779.5000          1.404       -58.6406     -0.4151154              1
      8780.0000         1.5996       -57.7111      0.5097809              1
      8780.5000         1.7082       -57.2244      0.9918785              1
