#------------------------------------------------------------------------------
# Created by    : vladimir.rabinovich
# Created on    : 09/19/2023 17:20:54
#------------------------------------------------------------------------------
~Version Information Section
VERS.           2.0     :   CWLS log ASCII Standard - VERSION 2.0
WRAP.           NO      :   One line per depth step
~Well Information Section
#MNEM       .UNIT                                         VALUE :DESCRIPTION
#------------------------------------------------------------------------------
STRT        .FT                                            2835 :START DEPTH
STOP        .FT                                            6351 :STOP DEPTH
STEP        .FT                                             0.5 :STEP      
NULL        .                                           -999.25 :NULL      
COMP        .                                   PENNZOIL CO INC :COMPANY   
WELL        .                                     ST TR 00659-L :WELL      
FLD         .                                           WILDCAT :FIELD     
LOC         .                                                   :LOCATION  
CNTY        .                      MATAGORDA ISLAND LARGE BLOCK :LOCATION  
STAT        .                                             TEXAS :STATE     
CTRY        .                                     UNITED STATES :COUNTRY   
SRVC        .                                                   :SERVICE COMPANY
DATE        .                             9/13/2023 11:19:13 AM :LOG DATE  
API         .                                    42703300020000 :API NUMBER
UWI         .                                    42703300020000 :UNIQUE WELL ID
XCOORD      .                                  437819.375414617 :SURFACE X 
YCOORD      .                                  10187782.3810297 :SURFACE Y 
LAT         .                                        28.0235144 :LATITUDE  
LON         .                                       -96.7273206 :LONGITUDE 
ELEV        .FT                                              73 :ELEVATION VALUE
ELEV_TYPE   .                                                KB :ELEVATION REFERENCE TYPE
~Curve Information Section
#MNEM       .UNIT                                      API CODE :CURVE DESCRIPTION
#------------------------------------------------------------------------------
DEPT        .FT                                                 :DEPTH     
ASN         .OHMM                                               :          
CILD        .MMHO                                               :          
ILD         .OHMM                                               :          
SP          .MV                                                 :          
SP_NORM     .MV                                                 :SP Normalized
VSH_SP      .V/V                                                :Volume of Shale from SP
~A        DEPTH            ASN           CILD            ILD             SP        SP_NORM         VSH_SP
# ...
      3291.0000         1.0193       1235.188         0.8719       -61.4193      -3.587975      0.9215765
      3291.5000         1.3095       1232.785         0.8636       -67.3134      -9.482075      0.7429674
      3292.0000         1.3559       1230.383         0.8552       -73.5559      -15.72458      0.5538008
      3292.5000         1.3913       1216.383         0.8469       -77.5823      -19.75097      0.4317887
      3293.0000         1.4207       1215.443         0.8385       -80.7612      -22.92987      0.3354583
      3293.5000         1.4419       1236.158         0.8306        -82.765      -24.93367      0.2747371
      3294.0000          1.458       1256.875         0.8256       -84.0286      -26.19728      0.2364461
      3294.5000          1.477        1275.67         0.8205        -84.922      -27.09067      0.2093736
      3295.0000         1.4999       1288.332         0.8154       -85.5284      -27.69707      0.1909978
      3295.5000         1.4895       1301.002         0.8103       -86.1348      -28.30348      0.1726219
      3296.0000         1.4343       1313.664         0.8052       -86.6444      -28.81308      0.1571795
      3296.5000         1.3791       1326.334         0.8001       -87.0859      -29.25457      0.1438008
      3297.0000         1.3239       1336.121         0.7951       -87.5275      -29.69617      0.1304191
      3297.5000         1.2379        1345.49           0.79       -88.0164      -30.18508      0.1156037
      3298.0000         1.1361       1354.865         0.7849       -86.0223      -28.19098      0.1760311
      3298.5000         1.0611        1364.24         0.7802        -83.976      -26.14467      0.2380402
      3299.0000          1.047       1370.256         0.7803       -82.3995      -24.56817      0.2858129
      3299.5000         1.0471       1368.975         0.7803        -78.209      -20.37767      0.4127977
      3300.0000         1.0481       1340.807         0.7804       -74.3557      -16.52437      0.5295645
      3300.5000         1.0708       1324.855         0.7805       -69.0602      -11.22888       0.690034
      3301.0000         1.0934         1312.6         0.7804       -70.5337      -12.70237      0.6453826
      3301.5000         1.1174       1314.381         0.7795       -75.4387      -17.60737      0.4967463
      3302.0000         1.1431       1325.363         0.7786       -78.4485      -20.61718      0.4055401
      3302.5000         1.1554       1344.363         0.7778       -77.0112      -19.17987      0.4490947
      3303.0000         1.0442       1363.363         0.7769       -75.5753      -17.74398      0.4926068
      3303.5000         1.0086       1380.342         0.7643       -74.3024      -16.47107      0.5311796
      3304.0000           0.99       1396.166         0.7514       -73.0294      -15.19808      0.5697552
      3304.5000         0.9717       1411.254         0.7641       -71.7997      -13.96837       0.607019
      3305.0000         0.9609         1413.5         0.7826       -70.7423      -12.91098      0.6390613
      3305.5000         0.9722       1402.305         0.8116       -69.6857      -11.85437      0.6710796
      3306.0000         0.9981       1353.355         0.8545       -75.4813      -17.64997      0.4954553
      3306.5000         1.0374       1283.115         0.8974       -81.0452      -23.21387      0.3268524
      3307.0000         1.1051       1177.705         0.9403       -82.2034      -24.37207      0.2917553
      3307.5000          1.178       1044.789         0.9864       -83.6606      -25.82927      0.2475978
      3308.0000         1.2383       948.7969         1.0429        -83.895      -26.06367      0.2404948
      3308.5000         1.4474       911.6982         1.0994       -82.9122      -25.08088      0.2702765
      3309.0000         1.5096       882.1328         1.1422        -82.058      -24.22667      0.2961614
      3309.5000         1.6572       895.1025         1.1357       -81.4907      -23.65937      0.3133523
      3310.0000          1.759       956.3125         1.0682       -81.0577      -23.22638      0.3264735
      3310.5000         1.6942        1017.91         1.0007        -81.801      -23.96968      0.3039492
      3311.0000         1.6213       1077.504         0.9355       -82.8333      -25.00197      0.2726675
      3311.5000         1.5619       1148.246         0.8866       -83.8214      -25.99008      0.2427249
      3312.0000         1.5163       1186.797         0.8439       -84.5519      -26.72058      0.2205886
      3312.5000         1.4755       1225.324         0.8318       -85.2827      -27.45137      0.1984432
      3313.0000         1.4476       1243.197         0.8197       -86.0132      -28.18187      0.1763069
      3313.5000         1.4433       1259.906         0.8105       -86.6938      -28.86248      0.1556825
      3314.0000         1.4516       1275.857         0.8116       -87.3385      -29.50718      0.1361462
      3314.5000           1.46       1287.975         0.8127       -87.9832      -30.15187      0.1166099
      3315.0000         1.4697       1300.094         0.8139       -88.6838      -30.85247     0.09537957
      3315.5000         1.4811       1286.234         0.8257       -89.4489      -31.61757     0.07219476
      3316.0000         1.4924       1271.924         0.8503       -89.6212      -31.78988     0.06697349
      3316.5000         1.5038       1257.615         0.8749       -89.2629      -31.43158     0.07783104
      3317.0000         1.4949       1167.434         0.8995       -88.5992      -30.76787     0.09794328
      3317.5000         1.4366       1007.139         0.9427       -87.2971      -29.46577      0.1374009
      3318.0000         1.4043       959.5439         0.9886       -85.6337      -27.80237      0.1878069
      3318.5000         1.3736       941.1318         1.0345       -84.2917      -26.46038      0.2284734
      3319.0000         1.3557       923.0645         1.0817       -83.0176      -25.18628      0.2670826
      3319.5000         1.3496       914.6162         1.1306       -81.2401      -23.40877      0.3209463
      3320.0000         1.3844       928.0742         1.1089       -79.1592      -21.32788      0.3840037
      3320.5000         1.4526       941.5322         1.0592       -73.7013      -15.86998      0.5493947
      3321.0000         1.6536       975.0752         1.0223       -69.8505      -12.01918      0.6660855
      3321.5000         1.6734       1018.185         0.9853       -71.0298      -13.19847      0.6303492
      3322.0000         1.6903       1088.727         0.9483       -71.4503      -13.61898      0.6176068
      3322.5000          1.374       1146.992         0.9114       -71.9546      -14.12327      0.6023251
      3323.0000         1.2473       1191.332         0.8853       -72.5863      -14.75498      0.5831825
      3323.5000         1.1769       1219.213         0.8593       -69.5973      -11.76597      0.6737584
      3324.0000         1.1355           1244         0.8372       -66.8671      -9.035778      0.7564916
      3324.5000         1.1063        1273.17         0.8271       -64.9178      -7.086475      0.8155614
      3325.0000         1.0883       1281.225         0.8226       -63.3635      -5.532173      0.8626614
      3325.5000         1.0704       1257.125         0.8327       -63.8574      -6.026073      0.8476948
      3326.0000         1.0527       1233.027         0.8429       -64.9178      -7.086475      0.8155614
      3326.5000         1.0351       1210.658          0.853       -65.1472      -7.315876      0.8086098
      3327.0000          1.023       1191.945         0.8632       -62.5988      -4.767475      0.8858341
      3327.5000         1.0197       1173.232         0.8733       -60.7737      -2.942375      0.9411402
      3328.0000         1.0224       1161.697         0.8795       -59.3666      -1.535275      0.9837795
      3328.5000         1.0257        1155.35         0.8775       -58.0817     -0.2503738              1
