#------------------------------------------------------------------------------
# Created by    : vladimir.rabinovich
# Created on    : 09/19/2023 17:20:09
#------------------------------------------------------------------------------
~Version Information Section
VERS.           2.0     :   CWLS log ASCII Standard - VERSION 2.0
WRAP.           NO      :   One line per depth step
~Well Information Section
#MNEM       .UNIT                                         VALUE :DESCRIPTION
#------------------------------------------------------------------------------
STRT        .FT                                            1853 :START DEPTH
STOP        .FT                                            6238 :STOP DEPTH
STEP        .FT                                             0.5 :STEP      
NULL        .                                           -999.25 :NULL      
COMP        .               LOUISIANA LAND & EXPLORATION CO THE :COMPANY   
WELL        .                                          SL 79258 :WELL      
FLD         .                                           WILDCAT :FIELD     
LOC         .                                                   :LOCATION  
CNTY        .                      MATAGORDA ISLAND LARGE BLOCK :LOCATION  
STAT        .                                             TEXAS :STATE     
CTRY        .                                     UNITED STATES :COUNTRY   
SRVC        .                                                   :SERVICE COMPANY
DATE        .                             9/13/2023 11:12:01 AM :LOG DATE  
API         .                                    42703301870000 :API NUMBER
UWI         .                                    42703301870000 :UNIQUE WELL ID
XCOORD      .                                  470651.272343367 :SURFACE X 
YCOORD      .                                  10209272.4173218 :SURFACE Y 
LAT         .                                        28.0852496 :LATITUDE  
LON         .                                       -96.6277134 :LONGITUDE 
ELEV        .FT                                              82 :ELEVATION VALUE
ELEV_TYPE   .                                                KB :ELEVATION REFERENCE TYPE
~Curve Information Section
#MNEM       .UNIT                                      API CODE :CURVE DESCRIPTION
#------------------------------------------------------------------------------
DEPT        .FT                                                 :DEPTH     
ASFL        .OHMM                                               :          
CILD        .MMHO                                               :          
ILD         .OHMM                                               :          
SP          .MV                                                 :          
SP_NORM     .MV                                                 :SP Normalized
VSH_SP      .V/V                                                :Volume of Shale from SP
~A        DEPTH           ASFL           CILD            ILD             SP        SP_NORM         VSH_SP
# ...
      2993.0000         0.9491       1027.346         0.9463       -33.3613        2.97192              1
      2993.5000         0.9696       1026.408         0.9773       -35.2574       1.061222              1
      2994.0000         0.9996        1020.36         1.0084       -36.0698      0.2342186              1
      2994.5000          1.041       1014.313         1.0396       -36.7916     -0.5021782              1
      2995.0000         1.0824         996.79         1.0706       -37.3674      -1.092583      0.9979426
      2995.5000         1.1239       979.1973         1.1018       -37.6844      -1.424183      0.9905737
      2996.0000         1.1662       961.5918         1.1332       -37.7139      -1.468285      0.9895937
      2996.5000         1.2085        943.998         1.1655       -37.7432      -1.512184      0.9886181
      2997.0000         1.2525       926.3926         1.1978       -37.7726      -1.556183      0.9876404
      2997.5000         1.2973       888.8779         1.2301        -37.802      -1.600185      0.9866626
      2998.0000         1.3383       848.0391         1.2694       -38.0744      -1.887192      0.9802846
      2998.5000         1.3702       816.4648         1.2668       -39.1827       -3.01009      0.9553313
      2999.0000          1.402       796.6602         1.2345       -46.3553      -10.19729      0.7956157
      2999.5000         1.4409       774.9756         1.2022        -51.124      -14.98059      0.6893201
      3000.0000         1.4834         806.71         1.1458       -55.5757      -19.44689      0.5900691
      3000.5000         1.5631       837.1416         1.0814       -58.6824       -22.5682      0.5207068
      3001.0000         1.4505       865.8662         1.0222       -60.2402      -24.14059      0.4857646
      3001.5000         1.3665       895.7578         0.9889       -59.5417       -23.4567      0.5009623
      3002.0000         1.3155       927.0625         0.9556       -57.2031       -21.1327      0.5526067
      3002.5000         1.2978       1034.072         0.9394         -54.73       -18.6742        0.60724
      3003.0000          1.284       1069.816         0.9376        -52.906       -16.8648      0.6474489
      3003.5000         1.2772       1083.104         0.9357       -51.4981       -15.4715      0.6784111
      3004.0000         1.2705       1083.369         0.9274       -49.0898       -13.0778      0.7316043
      3004.5000         1.2637       1082.584         0.9179        -46.319      -10.32161      0.7928532
      3005.0000         1.2544       1081.799         0.9084       -45.0732      -9.090405      0.8202133
      3005.5000         1.2436       1085.697         0.8932       -44.0117      -8.043507      0.8434776
      3006.0000         1.0701       1099.162         0.8685       -43.1287      -7.175106      0.8627754
      3006.5000         0.9477       1121.854         0.8439       -42.6864       -6.74741      0.8722798
      3007.0000         0.8751       1144.559         0.8192       -42.2444      -6.320011      0.8817775
      3007.5000         0.8382       1167.275         0.8128       -41.4446      -5.534809      0.8992265
      3008.0000         0.8674       1190.004         0.8067       -40.6492      -4.754013      0.9165775
      3008.5000         0.9021       1212.721         0.8006       -39.8894      -4.008816      0.9331374
      3009.0000         0.9374       1234.982         0.7971       -39.1294      -3.263412       0.949702
      3009.5000         0.9727       1255.867         0.7961       -39.3047      -3.453316      0.9454819
      3010.0000         1.0046       1274.357         0.7951       -40.1554      -4.318615       0.926253
      3010.5000         0.9935       1244.123          0.794       -40.6572      -4.835018      0.9147774
      3011.0000         0.9517       1213.887          0.793       -41.1377       -5.33012      0.9037751
      3011.5000         0.9287       1183.652          0.792       -41.6182      -5.825218      0.8927729
      3012.0000         0.9057       1117.123         0.7908       -42.0987      -6.320324      0.8817706
      3012.5000         0.8982       1127.984         0.7886       -42.5792      -6.815422      0.8707684
      3013.0000         0.8946       1150.049         0.7865       -43.8027      -8.053524       0.843255
      3013.5000         0.8911       1172.104         0.7843       -45.0417      -9.307125      0.8153972
      3014.0000         0.8862       1194.156         0.7821       -45.9306      -10.21062      0.7953194
      3014.5000         0.8752       1216.209          0.785       -46.6111      -10.90573      0.7798727
      3015.0000         0.8642       1222.029         0.7903       -45.7759      -10.08513      0.7981082
      3015.5000         0.8532       1227.629         0.7957       -44.8987       -9.22253      0.8172771
      3016.0000          0.842       1233.229          0.801       -44.0222      -8.360634      0.8364304
      3016.5000         0.8294       1238.828         0.8058       -43.7248      -8.077831      0.8427148
      3017.0000         0.8279       1244.217         0.8101       -43.4462      -7.813835      0.8485814
      3017.5000         0.8534       1249.477         0.8144       -43.1675      -7.549736      0.8544503
      3018.0000         0.8715        1254.73         0.8197       -42.8889      -7.285736       0.860317
      3018.5000         0.8895       1254.443         0.8276       -42.6271       -7.03854      0.8658102
      3019.0000         0.9205       1223.666         0.8355       -42.3702      -6.796238      0.8711947
      3019.5000         0.9586       1144.201         0.8433       -42.1132      -6.553841      0.8765813
      3020.0000         0.9967       1049.969         0.8775       -41.8563      -6.311543      0.8819657
      3020.5000         1.0327       1028.039         0.9131       -41.4713      -5.941139      0.8901969
      3021.0000         1.0686        1008.21         0.9527       -41.0848      -5.569244      0.8984612
      3021.5000         1.0972       990.6904         1.0005       -40.6982      -5.197243      0.9067279
      3022.0000         1.1246       973.1836         1.0412       -40.3115      -4.825146      0.9149967
      3022.5000         1.1535       957.8135         1.0649       -40.0329       -4.56115      0.9208633
      3023.0000         1.1524       945.8779         1.0578       -39.7924      -4.335247      0.9258834
      3023.5000         1.1063        936.418         1.0211       -39.7726      -4.330048      0.9259989
      3024.0000          1.069       925.5879         0.9845       -40.5591      -5.131149      0.9081967
      3024.5000         1.0353         937.21         0.9479       -40.3633      -4.949951      0.9122233
      3025.0000         0.9472       1018.991         0.9191       -40.1675      -4.768753      0.9162499
      3025.5000          0.903       1034.453         0.9022       -39.9716      -4.587452      0.9202788
      3026.0000         0.8927       1050.074         0.8853       -39.7759      -4.406357      0.9243032
      3026.5000         0.9049       1065.701         0.8772       -39.5801      -4.225159      0.9283298
      3027.0000         0.9186       1081.193         0.8768       -39.3842      -4.043858      0.9323587
      3027.5000         0.9329       1093.996         0.8764       -38.9774      -3.651661      0.9410742
      3028.0000         0.9472       1106.803         0.8733        -38.563      -3.251858      0.9499587
      3028.5000         0.9615       1115.541         0.8617       -38.1485      -2.851959      0.9588454
      3029.0000         0.9656       1123.221          0.852       -37.7341      -2.452164      0.9677297
      3029.5000         0.9429       1130.898         0.8545       -37.3142      -2.046864      0.9767364
      3030.0000         0.9191        1138.58          0.857       -36.8938      -1.641064      0.9857541
      3030.5000         0.8819       1139.479         0.8737       -36.8792      -1.641064      0.9857541
