#------------------------------------------------------------------------------
# Created by    : vladimir.rabinovich
# Created on    : 09/19/2023 17:20:46
#------------------------------------------------------------------------------
~Version Information Section
VERS.           2.0     :   CWLS log ASCII Standard - VERSION 2.0
WRAP.           NO      :   One line per depth step
~Well Information Section
#MNEM       .UNIT                                         VALUE :DESCRIPTION
#------------------------------------------------------------------------------
STRT        .FT                                             695 :START DEPTH
STOP        .FT                                            9139 :STOP DEPTH
STEP        .FT                                             0.5 :STEP      
NULL        .                                           -999.25 :NULL      
COMP        .                   COASTAL STATES GAS TRANSMISSION :COMPANY   
WELL        .                                     ST TR 00592-L :WELL      
FLD         .                                           WILDCAT :FIELD     
LOC         .                                                   :LOCATION  
CNTY        .                      MATAGORDA ISLAND LARGE BLOCK :LOCATION  
STAT        .                                             TEXAS :STATE     
CTRY        .                                     UNITED STATES :COUNTRY   
SRVC        .                                                   :SERVICE COMPANY
DATE        .                             9/13/2023 11:12:01 AM :LOG DATE  
API         .                                    42703000420000 :API NUMBER
UWI         .                                    42703000420000 :UNIQUE WELL ID
XCOORD      .                                  562172.631053371 :SURFACE X 
YCOORD      .                                   10240692.584136 :SURFACE Y 
LAT         .                                        28.1787665 :LATITUDE  
LON         .                                       -96.3469802 :LONGITUDE 
ELEV        .FT                                              11 :ELEVATION VALUE
ELEV_TYPE   .                                                KB :ELEVATION REFERENCE TYPE
~Curve Information Section
#MNEM       .UNIT                                      API CODE :CURVE DESCRIPTION
#------------------------------------------------------------------------------
DEPT        .FT                                                 :DEPTH     
ASN         .OHMM                                               :          
CALI        .IN                                                 :          
CILD        .MMHO                                               :          
DT          .US/F                                               :          
ILD         .OHMM                                               :          
SP          .MV                                                 :          
SP_NORM     .MV                                                 :SP Normalized
VSH_SP      .V/V                                                :Volume of Shale from SP
~A        DEPTH            ASN           CALI           CILD             DT            ILD             SP        SP_NORM         VSH_SP
# ...
      5739.5000         0.8746        11.5484       1414.809       108.2584          0.689      -101.2859      -48.65228      0.1923342
      5740.0000         0.9175        11.5215       1375.236       103.8168          0.718      -100.8512      -48.19444      0.2000942
      5740.5000         0.9699        11.3366       1307.908       100.0389         0.7461      -100.4792      -47.79931      0.2067913
      5741.0000         1.2242        10.6548       1277.311        95.8079         0.7727      -100.3309      -47.62788      0.2096969
      5741.5000         1.3946        10.3656       1264.488        91.5817         0.7891       -100.434      -47.70784      0.2083417
      5742.0000         1.7092        10.1465       1307.355        87.8262         0.7979      -100.6958      -47.94651      0.2042965
      5742.5000         1.7314           10.1       1438.441        84.9525         0.7832      -101.0608      -48.28837      0.1985022
      5743.0000         1.7347        10.0997       1481.133        85.7106         0.7612      -101.5679      -48.77234      0.1902994
      5743.5000         1.7008        10.0994       1538.254        93.9598         0.7392      -102.0757        -49.257      0.1820848
      5744.0000         1.6612        10.0434       1593.111        95.3533          0.713      -102.5885      -49.74666      0.1737854
      5744.5000         1.6459         9.9823        1635.65        99.9869         0.6855      -103.2191      -50.35413      0.1634894
      5745.0000          1.639           9.92       1679.799       100.8311          0.658      -103.8497      -50.96159      0.1531933
      5745.5000         1.6419         9.8622       1717.713       101.6542         0.6452      -104.4647      -51.55346      0.1431618
      5746.0000         1.6447         9.8327       1760.252       101.9326         0.6362       -104.894      -51.95962      0.1362777
      5746.5000         1.6451         9.8032       1769.918       102.3031         0.6273      -105.3232      -52.36568      0.1293952
      5747.0000         1.6455         9.7865       1779.824       102.7426         0.6288      -105.7526      -52.77195      0.1225093
      5747.5000         1.6459         9.7808        1790.76       102.0319         0.6304      -106.1818      -53.17801      0.1156269
      5748.0000         1.6467         9.7847       1802.074       100.8676          0.632      -106.6709      -53.64397      0.1077292
      5748.5000         1.6481         9.8068         1813.4        99.3949         0.6336      -107.1843      -54.13424     0.09941961
      5749.0000         1.6496         9.8289       1824.727        98.0547         0.6268      -107.6978       -54.6246     0.09110842
      5749.5000          1.651         9.8661       1836.053        96.9412          0.614      -108.2113      -55.11497     0.08279704
      5750.0000          1.652          9.911        1873.99        97.8912         0.6013      -108.6868      -55.56733     0.07512995
      5750.5000         1.6159         9.8551       1947.404       100.1108         0.5828      -109.1489       -56.0063      0.0676898
      5751.0000         1.5446          9.915       2004.266       101.6653         0.5642      -109.6111      -56.44536      0.0602481
      5751.5000         1.4828        10.0983       2029.445       102.6921         0.5456      -109.9808      -56.79192     0.05437418
      5752.0000         1.4151        10.1588       2099.715       104.0793          0.527      -110.2775      -57.06549     0.04973751
      5752.5000         1.3563         10.192       2359.477       103.3138         0.5018      -110.5743      -57.33916     0.04509903
      5753.0000         1.2927        10.2155       2500.164         99.863         0.4766       -110.871      -57.61272     0.04046236
      5753.5000         1.2291        10.2456       2640.957        99.7417         0.4515      -111.2784      -57.99698     0.03394945
      5754.0000         1.1655        10.2811        2781.75       105.4802         0.4307       -111.689      -58.38445     0.02738216
      5754.5000         1.1018        10.3165       2922.539       106.5863         0.4162      -112.1179      -58.79021      0.0205049
      5755.0000         1.0382        10.4314        3063.23       108.1978         0.4018      -112.5602      -59.20938     0.01340032
      5755.5000         0.9746        10.5513       3208.348       110.2922         0.3873      -113.0027      -59.62874    0.006292505
      5756.0000         0.9109        10.6738       3277.738       112.9479         0.3727       -113.413      -60.01591              0
      5756.5000         0.8473        10.8493       3340.031       114.3871         0.3581      -113.8235      -60.40327              0
      5757.0000         0.7813        11.0881       3346.746       115.1064         0.3435      -113.9139      -60.47054              0
      5757.5000         0.6967        11.2528       3353.449       115.0845         0.3296      -113.8018       -60.3353              0
      5758.0000         0.6626        11.4108       3358.379       113.6564         0.3347      -113.6893      -60.19967              0
      5758.5000         0.6544        11.6093       3348.738       110.7976         0.3397      -113.1787      -59.66593    0.005662174
      5759.0000         0.6552        11.5676       3312.031       107.3295         0.3447      -112.5709      -59.03499     0.01635606
      5759.5000         0.6752        11.1371       3241.133       102.3081         0.3498      -111.9631      -58.40405     0.02704995
      5760.0000         0.7218        10.9108       3133.727       102.6896         0.3574      -111.3553      -57.77312     0.03774371
      5760.5000         0.7498        10.9618        3050.66       109.2047         0.3685      -109.7383      -56.13298     0.06554271
      5761.0000         0.7537        11.2223       2962.063       110.4607         0.3795      -108.0643      -54.43585     0.09430765
      5761.5000          0.727        11.3534       2873.566       112.7738         0.3906      -106.3676      -52.71601      0.1234574
      5762.0000         0.7034        11.2323       2784.969       111.8789         0.4017      -105.0361      -51.36138      0.1464173
      5762.5000         0.6923        11.0461       2696.367        111.111          0.414      -104.1631      -50.46524       0.161606
      5763.0000         0.6987        10.9063       2607.871       111.2596         0.4281        -103.29      -49.56901      0.1767965
      5763.5000         0.7191        10.8059       2519.273        111.137         0.4422      -102.3334      -48.58927      0.1934022
      5764.0000         0.7426        10.7183       2430.676       110.8347         0.4563      -101.2456      -47.47833      0.2122317
      5764.5000         0.7833        10.7103       2342.078       111.8281         0.4704       -100.158       -46.3676      0.2310577
      5765.0000         0.8129         10.702           2132       112.2678         0.4845       -98.4397      -44.62616      0.2605736
      5765.5000         0.8372        10.6902       1799.723       110.8546         0.4985       -97.0797      -43.24302      0.2840165
      5766.0000         0.8671        10.6767       1753.916       108.2362         0.5124        -96.158      -42.29819      0.3000307
      5766.5000         0.9047        10.5811       1716.807       104.0223         0.5263       -95.5375      -41.65456      0.3109397
      5767.0000         1.1677        10.3965       1655.613        82.5001         0.5402       -95.0062      -41.10012      0.3203369
      5767.5000          1.493        10.2771        1585.77        72.5118         0.5534       -94.9468      -41.01759      0.3217358
      5768.0000         1.5587        10.1909       1513.363         77.828         0.5623       -94.9788      -41.02645      0.3215856
      5768.5000         1.5856        10.1508       1475.174        80.1467         0.5713       -95.0164      -41.04092      0.3213404
