#------------------------------------------------------------------------------
# Created by    : vladimir.rabinovich
# Created on    : 09/19/2023 17:20:49
#------------------------------------------------------------------------------
~Version Information Section
VERS.           2.0     :   CWLS log ASCII Standard - VERSION 2.0
WRAP.           NO      :   One line per depth step
~Well Information Section
#MNEM       .UNIT                                         VALUE :DESCRIPTION
#------------------------------------------------------------------------------
STRT        .FT                                            2010 :START DEPTH
STOP        .FT                                            6610 :STOP DEPTH
STEP        .FT                                             0.5 :STEP      
NULL        .                                           -999.25 :NULL      
COMP        .                                      SHELL OIL CO :COMPANY   
WELL        .                                ST TR 00691-L SE/4 :WELL      
FLD         .                                           WILDCAT :FIELD     
LOC         .                                                   :LOCATION  
CNTY        .                      MATAGORDA ISLAND LARGE BLOCK :LOCATION  
STAT        .                                             TEXAS :STATE     
CTRY        .                                     UNITED STATES :COUNTRY   
SRVC        .                                                   :SERVICE COMPANY
DATE        .                             9/13/2023 11:12:05 AM :LOG DATE  
API         .                                    42703000190000 :API NUMBER
UWI         .                                    42703000190000 :UNIQUE WELL ID
XCOORD      .                                  412077.623085271 :SURFACE X 
YCOORD      .                                  10154908.2726125 :SURFACE Y 
LAT         .                                        27.9310704 :LATITUDE  
LON         .                                         -96.80379 :LONGITUDE 
ELEV        .FT                                              82 :ELEVATION VALUE
ELEV_TYPE   .                                                DF :ELEVATION REFERENCE TYPE
~Curve Information Section
#MNEM       .UNIT                                      API CODE :CURVE DESCRIPTION
#------------------------------------------------------------------------------
DEPT        .FT                                                 :DEPTH     
ASN         .OHMM                                               :          
CILD        .MMHO                                               :          
ILD         .OHMM                                               :          
SP          .MV                                                 :          
SP_NORM     .MV                                                 :SP Normalized
VSH_SP      .V/V                                                :Volume of Shale from SP
~A        DEPTH            ASN           CILD            ILD             SP        SP_NORM         VSH_SP
# ...
      4138.0000         0.8036       1300.432         0.7804       -70.5868        -6.4359      0.8968396
      4138.5000         0.7994       1208.533         0.7755       -70.0615        -5.9106      0.9090558
      4139.0000         0.8013       1116.684          0.765       -69.6691        -5.5182      0.9181814
      4139.5000         0.8032       1024.785         0.7546       -69.2886        -5.1376      0.9270325
      4140.0000         0.7857       1071.908         0.7441       -68.9082        -4.7573      0.9358767
      4140.5000         0.7623       1121.479         0.7337       -68.5281        -4.3772      0.9447163
      4141.0000         0.7336       1171.051         0.7232       -68.1476        -3.9967      0.9535651
      4141.5000          0.705       1220.621          0.712       -67.9961        -3.8452      0.9570884
      4142.0000         0.6813       1270.191         0.6954       -67.8751        -3.7242      0.9599023
      4142.5000         0.6665       1311.736         0.6789        -67.754        -3.6031      0.9627186
      4143.0000         0.6517       1337.941         0.6624       -67.6331        -3.4822      0.9655302
      4143.5000         0.6368       1359.557         0.6458       -67.5027        -3.3518      0.9685628
      4144.0000         0.6221       1378.861         0.6322       -67.2925        -3.1416      0.9734511
      4144.5000         0.6109       1400.271         0.6192       -67.0824        -2.9314      0.9783396
      4145.0000         0.5997       1427.736         0.6062       -66.8722        -2.7213      0.9832256
      4145.5000         0.5885       1459.127         0.5932       -66.6621        -2.5112      0.9881116
      4146.0000         0.5773       1486.432         0.5802        -66.447        -2.2961      0.9931139
      4146.5000         0.5661       1525.041         0.5689       -66.1899         -2.039       0.999093
      4147.0000         0.5565        1576.57         0.5616       -65.9329         -1.782              1
      4147.5000         0.5487       1628.146         0.5543       -65.6758        -1.5248              1
      4148.0000         0.5409       1679.674          0.547       -65.4187        -1.2678              1
      4148.5000         0.5331       1731.203         0.5398       -65.1616        -1.0107              1
      4149.0000         0.5253       1725.881         0.5325       -64.9763        -0.8254              1
      4149.5000         0.5175       1705.684         0.5296       -64.8625        -0.7116              1
      4150.0000         0.5097       1685.484         0.5279       -64.7487        -0.5978              1
      4150.5000         0.5045       1665.287         0.5263       -64.6727        -0.5218              1
      4151.0000          0.504        1645.09         0.5247       -64.8837        -0.7327              1
      4151.5000          0.507       1624.893          0.523       -65.0947        -0.9438              1
      4152.0000         0.5156       1604.695         0.5236       -65.3057        -1.1548              1
      4152.5000         0.5242       1584.496         0.5316       -65.5166        -1.3657              1
      4153.0000         0.5329       1564.299         0.5395       -65.7871        -1.6362              1
      4153.5000         0.5415       1544.102         0.5474       -66.2815        -2.1306      0.9969628
      4154.0000         0.5501       1565.902         0.5554        -66.776        -2.6251      0.9854628
      4154.5000         0.5587       1609.967         0.5848       -67.2705        -3.1196      0.9739628
      4155.0000         0.5673       1654.033         0.6412       -67.7649         -3.614      0.9624651
      4155.5000         0.5812       1661.568         0.6977       -68.2594        -4.1085      0.9509651
      4156.0000         0.5965       1553.129         0.7618       -68.7539         -4.603      0.9394651
      4156.5000         0.6117       1444.691         0.8322       -69.0728        -4.9219      0.9320489
      4157.0000         0.6269       1336.154         0.9026       -69.2064        -5.0555      0.9289418
      4157.5000         0.6498       1227.717          0.973        -68.902        -4.7511      0.9360209
      4158.0000         0.6779        1119.18          1.165       -68.5978        -4.4469      0.9430953
      4158.5000          0.706       1010.741         1.2879       -68.2933        -4.1423       0.950179
      4159.0000         1.2172       902.3027          1.232       -67.9891        -3.8382      0.9572511
      4159.5000         1.1764       793.7656         1.1762       -67.9351        -3.7841      0.9585093
      4160.0000         1.1356       767.1455          1.124       -68.0261        -3.8752      0.9563907
      4160.5000         1.0948       846.5176         1.0734       -68.2452        -4.0943      0.9512954
      4161.0000         1.0539       925.8887         1.0228       -68.4856        -4.3347      0.9457046
      4161.5000         1.0131       1005.261         0.9722        -68.726        -4.5751       0.940114
      4162.0000         0.9815       1084.582         0.9216       -68.9664        -4.8155      0.9345233
      4162.5000           0.96       1163.955          0.871       -69.2068        -5.0559      0.9289325
      4163.0000         0.9384       1243.326         0.8333       -69.2214        -5.0704      0.9285954
      4163.5000         0.9209       1322.648         0.8071       -69.0631        -4.9122      0.9322744
      4164.0000         0.9404       1328.521         0.9322       -68.9049         -4.754      0.9359535
      4164.5000         0.9782       1179.174         1.1766       -68.7466        -4.5956      0.9396372
      4165.0000         1.0265       1029.824         1.3746       -68.5884        -4.4375       0.943314
      4165.5000         1.0949       880.5752         1.5072       -68.3999         -4.249      0.9476977
      4166.0000         1.3732       731.2275         1.6398       -68.0759        -3.9249      0.9552349
      4166.5000         1.7045       581.8799         1.7731       -67.7521        -3.6012      0.9627628
      4167.0000         1.8735       500.9668         1.9063       -67.4281        -3.2772      0.9702977
      4167.5000         1.8901       544.0537         1.9873       -67.1042        -2.9533      0.9778302
      4168.0000          1.906       568.8633         2.0193       -67.0166        -2.8657      0.9798675
      4168.5000         1.9209       575.2246         1.8701       -67.3479         -3.197      0.9721628
      4169.0000         1.9335       581.5859         1.7209        -67.679        -3.5281      0.9644628
      4169.5000         1.9177       592.1807         1.5717       -68.0101        -3.8671      0.9565791
      4170.0000         1.8941       611.9863         1.4225       -68.2908        -4.1571      0.9498349
      4170.5000         1.6879       647.0117         1.3018       -68.5443        -4.4199      0.9437233
      4171.0000         1.4164       754.4717         1.1852       -68.7979        -4.6828      0.9376093
      4171.5000         1.1669        814.416         1.0882       -69.0513        -4.9456      0.9314977
      4172.0000         1.1481       874.3115         0.9944       -69.3048        -5.2084      0.9253861
      4172.5000         1.1293       934.2568         0.9611        -69.548        -5.4609      0.9195139
      4173.0000          1.114       1015.928         0.9409        -69.739        -5.6612      0.9148558
      4173.5000         1.1004       1155.488         0.9207       -69.9301        -5.8617       0.910193
      4174.0000         1.0864       1183.369         0.9112        -70.121        -6.0619      0.9055372
      4174.5000         1.0564       1198.463         0.9031       -69.7238         -5.674      0.9145582
      4175.0000         1.0265       1195.309         0.8949       -69.2053        -5.1648         0.9264
      4175.5000         0.9855       1192.152         0.8868       -68.6866        -4.6554      0.9382465
