#------------------------------------------------------------------------------
# Created by    : vladimir.rabinovich
# Created on    : 09/19/2023 17:19:56
#------------------------------------------------------------------------------
~Version Information Section
VERS.           2.0     :   CWLS log ASCII Standard - VERSION 2.0
WRAP.           NO      :   One line per depth step
~Well Information Section
#MNEM       .UNIT                                         VALUE :DESCRIPTION
#------------------------------------------------------------------------------
STRT        .FT                                             748 :START DEPTH
STOP        .FT                                            7997 :STOP DEPTH
STEP        .FT                                             0.5 :STEP      
NULL        .                                           -999.25 :NULL      
COMP        .                                        EXXON CORP :COMPANY   
WELL        .                                     ST TR 00560-L :WELL      
FLD         .                                           WILDCAT :FIELD     
LOC         .                                                   :LOCATION  
CNTY        .                      MATAGORDA ISLAND LARGE BLOCK :LOCATION  
STAT        .                                             TEXAS :STATE     
CTRY        .                                     UNITED STATES :COUNTRY   
SRVC        .                                                   :SERVICE COMPANY
DATE        .                             9/13/2023 11:19:05 AM :LOG DATE  
API         .                                    42703302000000 :API NUMBER
UWI         .                                    42703302000000 :UNIQUE WELL ID
XCOORD      .                                  556028.985600478 :SURFACE X 
YCOORD      .                                   10283706.324983 :SURFACE Y 
LAT         .                                        28.2964478 :LATITUDE  
LON         .                                       -96.3697382 :LONGITUDE 
ELEV        .FT                                              92 :ELEVATION VALUE
ELEV_TYPE   .                                                KB :ELEVATION REFERENCE TYPE
~Curve Information Section
#MNEM       .UNIT                                      API CODE :CURVE DESCRIPTION
#------------------------------------------------------------------------------
DEPT        .FT                                                 :DEPTH     
ASFL        .OHMM                                               :          
CILD        .MMHO                                               :          
DT          .US/F                                               :          
GR          .GAPI                                               :          
GR_NORM     .GAPI                                               :GammaRay Normalized
ILD         .OHMM                                               :          
SP          .MV                                                 :          
SP_NORM     .MV                                                 :SP Normalized
VSH_GR      .V/V                                                :Volume of Shale from GR
VSH_SP      .V/V                                                :Volume of Shale from SP
~A        DEPTH           ASFL           CILD             DT             GR        GR_NORM            ILD             SP        SP_NORM         VSH_GR         VSH_SP
# ...
      1728.0000         1.1709       1351.826        -999.25        40.7183        81.2925         0.6979      -101.4907      0.3057098              1              1
      1728.5000         1.1451       1362.527        -999.25        40.0244       79.98841          0.683      -101.5404       0.256012      0.9997534              1
      1729.0000          1.121         1375.5        -999.25        38.5533       77.22193         0.6681      -102.5208     -0.7243881      0.9408922              1
      1729.5000         1.1258       1397.398        -999.25        36.8068       73.93718         0.6531      -105.8979      -4.101494      0.8710038      0.9204745
      1730.0000         1.1826       1419.291        -999.25        33.9698       68.60049         0.6322       -109.672      -7.875587      0.7574571      0.8237029
      1730.5000         1.2283       1466.236        -999.25         28.575       58.45084         0.6078      -116.9795      -15.18309      0.5415073       0.636331
      1731.0000         1.2523       1572.133        -999.25        26.9182       55.33488         0.5835      -119.6486      -17.85219      0.4752102      0.5678926
      1731.5000          1.277       2220.738        -999.25        26.1318       53.85675         0.5591      -121.2385      -19.44209      0.4437607      0.5271258
      1732.0000         1.2635        2358.93        -999.25        25.5333       52.73219         0.5342      -122.1421      -20.34569      0.4198338      0.5039567
      1732.5000         1.2005       2424.668        -999.25        25.7777       53.19368         0.5066      -122.6233      -20.82689      0.4296528      0.4916182
      1733.0000         1.0989       2485.711        -999.25        26.6546       54.84534          0.479      -123.1045      -21.30809      0.4647944      0.4792797
      1733.5000         1.0326       2544.457        -999.25        27.3826       56.21681         0.4588      -123.6705      -21.87409      0.4939747      0.4647669
      1734.0000         1.0018       2524.168        -999.25        28.1106       57.58828         0.4434      -124.3082      -22.51179      0.5231548      0.4484157
      1734.5000         0.9735       2364.613        -999.25        28.8735       59.02543         0.4281      -125.5781      -23.78169      0.5537326       0.415854
      1735.0000         0.9344       2304.816        -999.25        30.0475       61.23615         0.4127      -122.1674      -20.37099      0.6007692       0.503308
      1735.5000         0.8848       2262.441        -999.25        31.1934       63.39397         0.4123      -120.8188      -19.02239      0.6466802      0.5378874
      1736.0000         0.8847       2233.988        -999.25        31.9977       64.90903         0.4245      -118.6083      -16.81189      0.6789154      0.5945669
      1736.5000         0.9147       2209.199        -999.25        32.8023       66.42463         0.4366      -118.9152      -17.11879      0.7111623      0.5866977
      1737.0000         0.9481       2184.414        -999.25        33.6066       67.93969         0.4488      -119.5464      -17.74999      0.7433977       0.570513
      1737.5000         1.0373       2144.957        -999.25        33.9858       68.65483          0.461      -120.1777      -18.38129      0.7586134       0.554326
      1738.0000         1.0749       2102.566        -999.25        34.2643        69.1805         0.4731      -120.7778      -18.98139      0.7697978      0.5389386
      1738.5000         1.1177       2119.473        -999.25        34.4457       69.52344         0.4853      -121.3297      -19.53329      0.7770944      0.5247875
      1739.0000         1.1548       2193.125        -999.25        33.8635       68.42952         0.4906      -121.8816      -20.08519      0.7538196      0.5106362
      1739.5000         1.1828       2266.777        -999.25        33.2812       67.33548         0.4938      -122.4824      -20.68599      0.7305421       0.495231
      1740.0000         1.1371        2406.02        -999.25        32.8101       66.45061          0.497      -123.1996      -21.40319       0.711715      0.4768413
      1740.5000         1.0034         2464.5        -999.25        33.2646       67.30746         0.5002      -123.2406      -21.44419      0.7299459        0.47579
      1741.0000         0.9201       2478.715        -999.25        33.7191       68.16429         0.5034      -123.0115      -21.21509      0.7481764      0.4816644
      1741.5000         0.8974       2492.926        -999.25        34.1736       69.02113         0.4814      -122.6895      -20.89309       0.766407      0.4899208
      1742.0000         0.8792       2502.609        -999.25        34.5627       69.75491         0.4542      -122.3674      -20.57099      0.7820194      0.4981797
      1742.5000         0.8649       2501.969        -999.25        34.7959       70.19532         0.4271      -122.2355      -20.43909      0.7913898      0.5015619
      1743.0000         0.8507       2501.328        -999.25        35.0291       70.63575         0.3999      -122.1611      -20.36469      0.8007606      0.5034694
      1743.5000         0.8274       2500.688        -999.25        34.9744       70.53445         0.3728      -122.2247      -20.42829      0.7986053      0.5018387
      1744.0000         0.8216       2503.531        -999.25        34.5031       69.64922         0.3648      -122.3914      -20.59499      0.7797707      0.4975643
      1744.5000         0.8268        2519.66        -999.25        34.0318       68.76401          0.358      -122.5581      -20.76169      0.7609363        0.49329
      1745.0000          0.834       2668.875        -999.25        33.3624       67.50601         0.3513      -123.0369      -21.24049      0.7341705       0.481013
      1745.5000         0.8439        2719.68        -999.25        32.5151       65.91331         0.3509      -123.7413      -21.94489      0.7002833      0.4629515
      1746.0000         0.8539       2770.203        -999.25        31.6677       64.32038         0.3574      -124.2025      -22.40609      0.6663911      0.4511259
      1746.5000         0.8718       2816.594        -999.25        31.0719        63.2009         0.3638      -122.8026      -21.00619      0.6425723      0.4870208
      1747.0000         0.9003       2879.148        -999.25        30.6983       62.49951         0.3703      -122.2583      -20.46189      0.6276491      0.5009772
      1747.5000         0.9377       2862.586        -999.25        30.8424       62.77229         0.3767      -121.8326      -20.03619      0.6334529      0.5118924
      1748.0000         0.9518       2821.973        -999.25        30.9864       63.04486         0.3832      -121.5392      -19.74279      0.6392523      0.5194156
      1748.5000         0.9658       2781.352        -999.25        31.1305       63.31763         0.3814      -121.2458      -19.44939      0.6450559      0.5269388
      1749.0000         0.9758       2740.738        -999.25        31.2745       63.59021         0.3795      -118.9478      -17.15139      0.6508554      0.5858618
      1749.5000          0.982       2586.695        -999.25        31.4185       63.86278         0.3776      -115.4319      -13.63549      0.6566548      0.6760131
      1750.0000         0.9882       2407.934        -999.25        31.5626       64.13553         0.3758      -114.1477      -12.35129      0.6624581      0.7089413
      1750.5000         1.0326        2229.07        -999.25        31.3769       63.78772         0.3739      -112.9968      -11.20039      0.6550578      0.7384514
      1751.0000         1.0769       2007.771        -999.25        31.1624       63.38571          0.372      -112.3381      -10.54169      0.6465045      0.7553414
      1751.5000          1.058       1884.186        -999.25        30.9479       62.98372         0.3702      -111.6794      -9.882988      0.6379515      0.7722311
      1752.0000         1.0359       1851.781        -999.25        30.7334       62.58172         0.4477      -111.1176       -9.32119      0.6293983      0.7866362
