#------------------------------------------------------------------------------
# Created by    : vladimir.rabinovich
# Created on    : 09/19/2023 17:20:45
#------------------------------------------------------------------------------
~Version Information Section
VERS.           2.0     :   CWLS log ASCII Standard - VERSION 2.0
WRAP.           NO      :   One line per depth step
~Well Information Section
#MNEM       .UNIT                                         VALUE :DESCRIPTION
#------------------------------------------------------------------------------
STRT        .FT                                            1401 :START DEPTH
STOP        .FT                                            4951 :STOP DEPTH
STEP        .FT                                             0.5 :STEP      
NULL        .                                           -999.25 :NULL      
COMP        .                      GULF ENERGY EXPLORATION CORP :COMPANY   
WELL        .                                ST TR 00596-L NE/4 :WELL      
FLD         .                        SHERMAN OFFSHORE SOUTHWEST :FIELD     
LOC         .                                                   :LOCATION  
CNTY        .                      MATAGORDA ISLAND LARGE BLOCK :LOCATION  
STAT        .                                             TEXAS :STATE     
CTRY        .                                     UNITED STATES :COUNTRY   
SRVC        .                                                   :SERVICE COMPANY
DATE        .                             9/13/2023 11:12:01 AM :LOG DATE  
API         .                                    42703301240000 :API NUMBER
UWI         .                                    42703301240000 :UNIQUE WELL ID
XCOORD      .                                    480210.3272994 :SURFACE X 
YCOORD      .                                  10243409.1849528 :SURFACE Y 
LAT         .                                        28.1797739 :LATITUDE  
LON         .                                       -96.6012532 :LONGITUDE 
ELEV        .FT                                              82 :ELEVATION VALUE
ELEV_TYPE   .                                                KB :ELEVATION REFERENCE TYPE
~Curve Information Section
#MNEM       .UNIT                                      API CODE :CURVE DESCRIPTION
#------------------------------------------------------------------------------
DEPT        .FT                                                 :DEPTH     
ASN         .OHMM                                               :          
CILD        .MMHO                                               :          
ILD         .OHMM                                               :          
SP          .MV                                                 :          
SP_NORM     .MV                                                 :SP Normalized
VSH_SP      .V/V                                                :Volume of Shale from SP
~A        DEPTH            ASN           CILD            ILD             SP        SP_NORM         VSH_SP
# ...
      2807.0000         0.6052       3487.514         0.2738         -58.89       -40.0221       0.139021
      2807.5000         0.6033       3529.671         0.2726       -58.9875       -40.1196      0.1367535
      2808.0000         0.6093       3571.829         0.2703       -59.1841       -40.3162      0.1321814
      2808.5000         0.6153        3612.14         0.2734       -59.2816       -40.4137       0.129914
      2809.0000         0.6194       3615.986         0.2837       -59.6755       -40.8076      0.1207535
      2809.5000         0.6254        3611.88         0.2939       -59.7738       -40.9059      0.1184675
      2810.0000         0.6294       3234.518         0.3041        -59.773       -40.9051       0.118486
      2810.5000         0.6474       2857.156           0.35       -43.2275       -24.3596      0.5032651
      2811.0000         0.6534       2479.793         0.4033       -43.2256       -24.3577      0.5033093
      2811.5000         0.6694       2247.434          0.445       -43.3227       -24.4548      0.5010512
      2812.0000         0.6754       2195.622         0.4555       -43.9161       -25.0482      0.4872512
      2812.5000         0.6814       2191.514         0.4563       -44.5085       -25.6406      0.4734744
      2813.0000         0.6835       2203.306         0.4253       -45.0019        -26.134          0.462
      2813.5000         0.6836       2394.401         0.4056       -45.7925       -26.9246      0.4436139
      2814.0000         0.6796       2585.495         0.3562       -46.9794       -28.1115      0.4160116
      2814.5000         0.6737       2771.516         0.3366       -48.3645       -29.4966         0.3838
      2815.0000         0.6639       2779.334         0.3171       -49.0571       -30.1892       0.367693
      2815.5000          0.658       2771.251         0.3174       -49.7489        -30.881      0.3516046
      2816.0000          0.654       2747.267         0.3375       -49.6489        -30.781      0.3539302
      2816.5000         0.6561       2670.674         0.3478       -47.4484       -28.5805      0.4051047
      2817.0000         0.6581        2594.08          0.368       -45.2479         -26.38      0.4562791
      2817.5000         0.6622       2517.487         0.3881       -43.0474       -24.1795      0.5074535
      2818.0000         0.6662       2440.894         0.3984       -40.3246       -21.4567      0.5707744
      2818.5000         0.6682         2364.3         0.4186         -39.63       -20.7621      0.5869279
      2819.0000         0.6842       2287.707         0.4288       -39.5289        -20.661      0.5892791
      2819.5000         0.6843       2211.114          0.439       -40.5178       -21.6499      0.5662814
      2820.0000         0.7042       2153.735         0.4393       -42.7576       -23.8897       0.514193
      2820.5000         0.7162       2141.608         0.4396       -44.9975       -26.1296      0.4621023
      2821.0000         0.7321       2149.559         0.4399       -47.2373       -28.3694      0.4100139
      2821.5000         0.7661       2157.377         0.4303       -49.4771       -30.6092      0.3579256
      2822.0000          0.786       2173.146         0.4107        -51.717       -32.8491      0.3058349
      2822.5000         0.8179       2188.914         0.3812       -53.9568       -35.0889      0.2537465
      2823.0000         0.8329       2196.732         0.3517       -56.1966       -37.3287      0.2016581
      2823.5000         0.8479       2644.197          0.342       -59.4338       -40.5659      0.1263744
      2824.0000         0.8629       2725.301         0.3324       -60.0277       -41.1598      0.1125628
      2824.5000         0.8779       2806.404         0.3228       -60.1268       -41.2589      0.1102581
      2825.0000         0.8929       2887.508         0.3231       -60.9176       -42.0497      0.0918674
      2825.5000         0.9137       2951.555         0.3234       -61.3126       -42.4447     0.08268143
      2826.0000         0.9227       2931.545         0.3237       -61.6085       -42.7406     0.07579999
      2826.5000         0.9257       2895.905          0.324       -62.1027       -43.2348     0.06430701
      2827.0000         0.9417       2860.264         0.3243       -62.4978       -43.6299     0.05511856
      2827.5000         0.9838       2824.624         0.3246        -62.992       -44.1241     0.04362559
      2828.0000         1.0015       2788.983         0.3249        -63.288       -44.4201     0.03674183
      2828.5000         0.9995       2753.343         0.3252       -63.0883       -44.2204       0.041386
      2829.0000         0.9857       2707.988         0.3354       -62.7895       -43.9216     0.04833487
      2829.5000         0.9857       2743.703         0.3357       -63.7795       -44.9116     0.02531167
      2830.0000         1.0415       2943.211         0.3062       -63.3815       -44.5136     0.03456746
      2830.5000         1.0316       3196.731         0.2866       -63.1818       -44.3139     0.03921163
      2831.0000         1.0118       3204.617          0.277       -63.2803       -44.4124     0.03692095
      2831.5000         1.0079       3216.414         0.2773       -63.7739        -44.906      0.0254419
      2832.0000              1       3212.372         0.2875       -63.8717       -45.0038     0.02316746
      2832.5000          0.998       3089.967         0.2977       -63.9701       -45.1022     0.02087908
      2833.0000         0.9981       2967.561          0.308       -64.0397       -45.1718      0.0192605
      2833.5000         1.0021       2845.156         0.3182        -64.165       -45.2971     0.01634651
      2834.0000         1.0042        2722.75         0.3185       -64.2627       -45.3948     0.01407446
      2834.5000         1.0022       2600.344         0.3188        -64.063       -45.1951     0.01871863
      2835.0000         0.9387       2477.938         0.3489       -58.2711       -39.4032       0.153414
      2835.5000         0.8752       2355.533         0.3691       -52.4792       -33.6113      0.2881093
      2836.0000         0.7838       2256.811         0.3794        -47.098       -28.2301      0.4132535
      2836.5000         0.7858       2236.733         0.3896       -47.6921       -28.8242      0.3994372
      2837.0000         0.8103       2236.666         0.3899       -50.3358       -31.4679      0.3379558
      2837.5000         0.8349       2280.266         0.3902       -52.9795       -34.1116      0.2764744
      2838.0000         0.8595       2342.521         0.3605       -55.6232       -36.7553      0.2149931
      2838.5000         0.8755       2404.775         0.3411       -58.2669        -39.399      0.1535117
      2839.0000         0.8736        2467.03         0.3315       -61.3717       -42.5038     0.08130699
      2839.5000           0.82       2529.284         0.3019       -62.5613       -43.6934     0.05364183
      2840.0000         0.7664       2591.539         0.2824       -62.8581       -43.9902     0.04673953
      2840.5000         0.7405       3510.521         0.2628       -63.5504       -44.6825     0.03063956
      2841.0000         0.7386        3683.21         0.2531       -63.7474       -44.8795     0.02605811
      2841.5000         0.7327       3718.863         0.2433       -63.6468       -44.7789     0.02839767
      2842.0000         0.7308       3710.717         0.2436       -61.2741       -42.4062     0.08357673
      2842.5000         0.7269        3726.62         0.2439       -58.9015       -40.0336      0.1387535
      2843.0000          0.723       3558.301          0.281       -56.5289        -37.661      0.1939303
      2843.5000          0.719       3389.982          0.295       -53.0233       -34.1554      0.2754558
      2844.0000         0.7987       3221.663         0.3104       -53.1225       -34.2546      0.2731488
      2844.5000         0.8356       3053.343         0.3275       -53.7169        -34.849      0.2593256
