#------------------------------------------------------------------------------
# Created by    : vladimir.rabinovich
# Created on    : 09/19/2023 17:19:56
#------------------------------------------------------------------------------
~Version Information Section
VERS.           2.0     :   CWLS log ASCII Standard - VERSION 2.0
WRAP.           NO      :   One line per depth step
~Well Information Section
#MNEM       .UNIT                                         VALUE :DESCRIPTION
#------------------------------------------------------------------------------
STRT        .FT                                             748 :START DEPTH
STOP        .FT                                            7997 :STOP DEPTH
STEP        .FT                                             0.5 :STEP      
NULL        .                                           -999.25 :NULL      
COMP        .                                        EXXON CORP :COMPANY   
WELL        .                                     ST TR 00560-L :WELL      
FLD         .                                           WILDCAT :FIELD     
LOC         .                                                   :LOCATION  
CNTY        .                      MATAGORDA ISLAND LARGE BLOCK :LOCATION  
STAT        .                                             TEXAS :STATE     
CTRY        .                                     UNITED STATES :COUNTRY   
SRVC        .                                                   :SERVICE COMPANY
DATE        .                             9/13/2023 11:19:05 AM :LOG DATE  
API         .                                    42703302000000 :API NUMBER
UWI         .                                    42703302000000 :UNIQUE WELL ID
XCOORD      .                                  556028.985600478 :SURFACE X 
YCOORD      .                                   10283706.324983 :SURFACE Y 
LAT         .                                        28.2964478 :LATITUDE  
LON         .                                       -96.3697382 :LONGITUDE 
ELEV        .FT                                              92 :ELEVATION VALUE
ELEV_TYPE   .                                                KB :ELEVATION REFERENCE TYPE
~Curve Information Section
#MNEM       .UNIT                                      API CODE :CURVE DESCRIPTION
#------------------------------------------------------------------------------
DEPT        .FT                                                 :DEPTH     
ASFL        .OHMM                                               :          
CILD        .MMHO                                               :          
DT          .US/F                                               :          
GR          .GAPI                                               :          
GR_NORM     .GAPI                                               :GammaRay Normalized
ILD         .OHMM                                               :          
SP          .MV                                                 :          
SP_NORM     .MV                                                 :SP Normalized
VSH_GR      .V/V                                                :Volume of Shale from GR
VSH_SP      .V/V                                                :Volume of Shale from SP
~A        DEPTH           ASFL           CILD             DT             GR        GR_NORM            ILD             SP        SP_NORM         VSH_GR         VSH_SP
# ...
      4129.0000         0.9153       1345.545       132.8494        -999.25        -999.25          0.859       -74.8833      -2.975792        -999.25      0.9382565
      4129.5000         0.9184       1350.699       130.4121        -999.25        -999.25         0.8532       -74.8365      -2.953545        -999.25      0.9389517
      4130.0000         0.9225       1342.094        129.301        -999.25        -999.25         0.8474       -74.3352      -2.476799        -999.25        0.95385
      4130.5000         0.9265       1333.486       130.4548        -999.25        -999.25         0.8415        -73.795      -1.961151        -999.25       0.969964
      4131.0000         0.9306       1324.881       133.5767        -999.25        -999.25         0.8357       -73.2725      -1.463203        -999.25      0.9855249
      4131.5000         0.9364        1319.09       136.6982        -999.25        -999.25         0.8295       -72.7843     -0.9995651        -999.25              1
      4132.0000         0.9423       1321.713       138.9336        -999.25        -999.25         0.8229        -72.296     -0.5358124        -999.25              1
      4132.5000         0.9482       1324.336       135.3223        -999.25        -999.25         0.8163       -72.0647     -0.3290634        -999.25              1
      4133.0000         0.9541       1326.959       132.4919        -999.25        -999.25         0.8098       -72.0259     -0.3148193        -999.25              1
      4133.5000         0.9623       1353.227       128.9199        -999.25        -999.25         0.8032       -71.9869     -0.3003769        -999.25              1
      4134.0000         0.9713       1380.746       121.3545        -999.25        -999.25         0.7967       -71.9481     -0.2861252        -999.25              1
      4134.5000         0.9719       1408.266       114.4182        -999.25        -999.25         0.7901       -72.1802      -0.542778        -999.25              1
      4135.0000         0.9563       1433.141       111.8279        -999.25        -999.25         0.7835       -72.4557     -0.8428421        -999.25              1
      4135.5000         0.9406       1450.979       116.4675        -999.25        -999.25          0.778       -72.7312      -1.142891        -999.25      0.9955347
      4136.0000           0.92       1468.826        120.948        -999.25        -999.25         0.7724       -73.0277      -1.463943        -999.25      0.9855018
      4136.5000          0.897       1486.662       125.7761        -999.25        -999.25         0.7669         -73.34      -1.800789        -999.25      0.9749753
      4137.0000         0.8776       1492.137       130.1758        -999.25        -999.25         0.7614       -73.6519      -2.137253        -999.25      0.9644608
      4137.5000         0.8602       1497.355       133.0769        -999.25        -999.25         0.7558       -73.8021      -2.312004        -999.25      0.9589999
      4138.0000          0.852        1502.57       135.8804        -999.25        -999.25         0.7503       -73.8759      -2.410355        -999.25      0.9559264
      4138.5000         0.8554       1507.785       138.2834        -999.25        -999.25         0.7448       -73.9496      -2.508614        -999.25      0.9528558
      4139.0000         0.8629       1513.004       139.9729        -999.25        -999.25         0.7403       -73.9745      -2.558067        -999.25      0.9513104
      4139.5000         0.8703       1511.213       141.4675        -999.25        -999.25         0.7383       -73.9178      -2.525917        -999.25      0.9523151
      4140.0000         0.8861        1508.92       141.6868        -999.25        -999.25         0.7364       -73.8612      -2.493866        -999.25      0.9533167
      4140.5000         0.9048       1506.625       140.2092        -999.25        -999.25         0.7344       -73.8046       -2.46183        -999.25      0.9543178
      4141.0000         0.9235       1504.328       138.7317        -999.25        -999.25         0.7325        -73.546      -2.227776        -999.25       0.961632
      4141.5000         0.9189       1502.035       136.4949        -999.25        -999.25         0.7305       -73.0579      -1.764229        -999.25      0.9761178
      4142.0000         0.9108        1499.74       133.5103        -999.25        -999.25         0.7285       -72.5696      -1.300491        -999.25      0.9906096
      4142.5000         0.9026       1497.445       130.5039        -999.25        -999.25         0.7266       -72.2167     -0.9721375        -999.25              1
      4143.0000         0.8944        1492.35       127.5096        -999.25        -999.25         0.7251       -71.9232     -0.7031937        -999.25              1
      4143.5000          0.888       1484.943       124.2092        -999.25        -999.25         0.7238       -71.6327     -0.4372406        -999.25              1
      4144.0000         0.8827       1477.529       120.5122        -999.25        -999.25         0.7225       -71.3481     -0.1772003        -999.25              1
      4144.5000         0.8774       1470.117       133.3513        -999.25        -999.25         0.7212       -71.0986     0.04774475        -999.25              1
      4145.0000         0.8755       1462.711       135.3872        -999.25        -999.25           0.72       -71.0187       0.103096        -999.25              1
      4145.5000         0.8813       1455.299       137.4229        -999.25        -999.25         0.7187       -70.9388      0.1584396        -999.25              1
      4146.0000         0.8871       1447.887       139.4587        -999.25        -999.25         0.7174       -70.9917     0.08098602        -999.25              1
      4146.5000         0.8924        1440.48       144.2241        -999.25        -999.25         0.7161       -71.0726    -0.02446747        -999.25              1
      4147.0000         0.8934       1436.355       143.7241        -999.25        -999.25         0.7149       -71.1536     -0.1300201        -999.25              1
      4147.5000         0.8944       1434.676       143.2236        -999.25        -999.25         0.7133       -71.2377      -0.238678        -999.25              1
      4148.0000         0.8927       1432.996       142.7236        -999.25        -999.25         0.7115       -71.3284     -0.3539276        -999.25              1
      4148.5000         0.8856       1431.316       142.2236        -999.25        -999.25         0.7096       -71.4191     -0.4691772        -999.25              1
      4149.0000         0.8785       1429.635       141.0269        -999.25        -999.25         0.7077       -71.4861     -0.5607376        -999.25              1
      4149.5000         0.8714       1427.955       136.6101        -999.25        -999.25         0.7058       -71.4666     -0.5657883        -999.25              1
      4150.0000         0.8651       1426.273       132.1956        -999.25        -999.25         0.7039        -71.447     -0.5707397        -999.25              1
      4150.5000         0.8591       1426.689       128.1519        -999.25        -999.25          0.702       -71.4274     -0.5756989        -999.25              1
      4151.0000         0.8558       1432.174       127.8405        -999.25        -999.25         0.7002        -71.282     -0.4548492        -999.25              1
      4151.5000         0.8657       1437.658       127.5289        -999.25        -999.25         0.7006        -71.108     -0.3054047        -999.25              1
      4152.0000         0.8757       1443.143       127.3221        -999.25        -999.25         0.7011        -70.924     -0.1459579        -999.25              1
      4152.5000         0.8869       1448.627       127.0956        -999.25        -999.25         0.7016        -70.719     0.03448486        -999.25              1
      4153.0000         0.8987       1454.111       126.3859        -999.25        -999.25          0.702       -70.3085       0.420433        -999.25              1
