#------------------------------------------------------------------------------
# Created by    : vladimir.rabinovich
# Created on    : 09/19/2023 17:22:30
#------------------------------------------------------------------------------
~Version Information Section
VERS.           2.0     :   CWLS log ASCII Standard - VERSION 2.0
WRAP.           NO      :   One line per depth step
~Well Information Section
#MNEM       .UNIT                                         VALUE :DESCRIPTION
#------------------------------------------------------------------------------
STRT        .FT                                             328 :START DEPTH
STOP        .FT                                            8026 :STOP DEPTH
STEP        .FT                                             0.5 :STEP      
NULL        .                                           -999.25 :NULL      
COMP        .                                 MESA PETROLEUM CO :COMPANY   
WELL        .                                ST TR 00565-L NW/4 :WELL      
FLD         .                                           WILDCAT :FIELD     
LOC         .                                                   :LOCATION  
CNTY        .                      MATAGORDA ISLAND LARGE BLOCK :LOCATION  
STAT        .                                             TEXAS :STATE     
CTRY        .                                     UNITED STATES :COUNTRY   
SRVC        .                                                   :SERVICE COMPANY
DATE        .                             9/13/2023 11:12:01 AM :LOG DATE  
API         .                                    42703301780000 :API NUMBER
UWI         .                                    42703301780000 :UNIQUE WELL ID
XCOORD      .                                  585273.186473096 :SURFACE X 
YCOORD      .                                  10269188.7462706 :SURFACE Y 
LAT         .                                          28.25878 :LATITUDE  
LON         .                                       -96.2777629 :LONGITUDE 
ELEV        .FT                                              82 :ELEVATION VALUE
ELEV_TYPE   .                                                KB :ELEVATION REFERENCE TYPE
~Curve Information Section
#MNEM       .UNIT                                      API CODE :CURVE DESCRIPTION
#------------------------------------------------------------------------------
DEPT        .FT                                                 :DEPTH     
CILD        .MMHO                                               :          
DT          .US/F                                               :          
ILD         .OHMM                                               :          
SFL         .OHMM                                               :          
SP          .MV                                                 :          
SP_NORM     .MV                                                 :SP Normalized
VSH_SP      .V/V                                                :Volume of Shale from SP
~A        DEPTH           CILD             DT            ILD            SFL             SP        SP_NORM         VSH_SP
# ...
      1366.5000       1317.447       139.6416         0.7737         1.1346       -64.1147       1.753563              1
      1367.0000       1321.537       137.1592          0.776         1.0139       -64.2623       1.605965              1
      1367.5000       1325.447       141.6262         0.7715         0.8387       -64.3629       1.505363              1
      1368.0000       1328.908       150.2937         0.7661         0.7445       -64.4634       1.404861              1
      1368.5000       1346.779       157.7856         0.7609         0.7191       -64.6046       1.263664              1
      1369.0000        1369.93       161.4963          0.747         0.7165       -64.7473       1.120964              1
      1369.5000       1400.752       161.8159         0.7303         0.7277       -65.0782       0.790062              1
      1370.0000       1440.504       161.1313         0.7124          0.758        -65.436      0.4322662              1
      1370.5000       1481.695       160.4834         0.7406         0.8324       -65.9558    -0.08753967              1
      1371.0000       1519.951       160.1292         0.7301         0.8374        -66.647     -0.7787399              1
      1371.5000       1531.563       160.9788         0.7161         0.8228       -67.5239       -1.65564              1
      1372.0000       1543.174       162.0271         0.7024          0.798       -67.4706      -1.602333              1
      1372.5000       1556.508       163.1492         0.6868         0.7721       -67.1389      -1.270638              1
      1373.0000       1590.568       164.3474         0.6709          0.752         -67.04      -1.171738              1
      1373.5000       1635.354       165.6785         0.6562         0.7357       -66.9874      -1.119133              1
      1374.0000       1684.176       167.1252         0.6467         0.7202       -66.9779      -1.109634              1
      1374.5000       1723.867       168.1748         0.6373         0.7054       -67.0114      -1.143135              1
      1375.0000       1752.756       168.0427         0.6308         0.6908       -67.1251      -1.256836              1
      1375.5000       1727.355       166.8784         0.6341         0.6781       -67.2219      -1.353638              1
      1376.0000       1701.955       165.4626         0.6375         0.6699       -67.2946      -1.426338              1
      1376.5000       1666.996       163.8796         0.6423         0.6824       -67.4064      -1.538139              1
      1377.0000       1634.217       162.4072         0.6525         0.7141       -67.5613      -1.693039              1
      1377.5000       1602.568       161.0791         0.6628         0.7478       -67.7896      -1.921333              1
      1378.0000       1580.076       159.9109         0.6722         0.7771       -68.0798       -2.21154      0.9915384
      1378.5000       1559.809       159.0632          0.681          0.798       -68.3408      -2.472534      0.9810987
      1379.0000       1539.861       158.4048         0.6898         0.8023       -68.5883      -2.720039      0.9711984
      1379.5000       1520.045       157.9155         0.6943         0.7978        -68.623      -2.754738      0.9698105
      1380.0000       1501.279       157.7197         0.6965         0.7844       -68.6135      -2.745239      0.9701904
      1380.5000       1494.832       157.6311         0.6983         0.7663        -68.548      -2.679733      0.9728107
      1381.0000       1507.689       158.2202         0.6888          0.747       -68.4624      -2.594139      0.9762344
      1381.5000       1528.195       159.0552         0.6794         0.7582       -68.2791      -2.410835      0.9835666
      1382.0000       1552.273       159.9861         0.6693         0.7863       -68.0415      -2.173233      0.9930707
      1382.5000       1574.945       160.9343         0.6593         0.7725       -67.8588       -1.99054              1
      1383.0000        1602.74       161.8877         0.6503          0.759       -67.7209      -1.852638              1
      1383.5000       1631.346        162.855         0.6489         0.7384       -67.5536      -1.685333              1
      1384.0000       1660.357        163.814         0.6475         0.7165       -67.3729      -1.504639              1
      1384.5000        1705.49       164.5608         0.6477         0.7032        -67.079      -1.210739              1
      1385.0000       1713.029         164.97         0.6527         0.6932       -66.7617     -0.8934402              1
      1385.5000       1722.432       164.7732         0.6618         0.6918       -66.4617     -0.5934372              1
      1386.0000        1688.24       163.4175          0.684         0.7011       -66.1785     -0.3102341              1
      1386.5000       1649.816       162.4756         0.7103         0.7191        -65.974     -0.1057358              1
      1387.0000       1568.855       161.6753         0.7386         0.7408       -66.1357     -0.2674332              1
      1387.5000       1488.994        160.002         0.7672         0.7685       -66.3383     -0.4700394              1
      1388.0000       1420.854       156.2581         0.7964         0.8109       -66.5509     -0.6826401              1
      1388.5000       1360.865       152.2524         0.8172         0.8759       -66.3182     -0.4499359              1
      1389.0000       1337.824       148.5295         0.8324         0.9703       -65.9579    -0.08963776              1
      1389.5000       1325.625       146.9182         0.8417         1.0743       -65.1909      0.6773605              1
      1390.0000       1325.035       148.0891         0.8408         1.0583       -64.7329       1.135361              1
      1390.5000       1328.496       154.9807         0.8399         0.9325       -64.5436       1.324661              1
      1391.0000       1335.668       157.2957         0.8254         0.8525       -64.4595        1.40876              1
      1391.5000       1366.645       158.4656         0.8084         0.8021       -64.5006       1.367661              1
      1392.0000       1407.131       158.4028         0.7911         0.7812       -64.7164       1.151863              1
      1392.5000       1451.904       158.2173         0.7631          0.763       -64.9927      0.8755646              1
      1393.0000       1504.271       158.9939         0.7482          0.748       -64.9226      0.9456635              1
      1393.5000       1533.572       160.3137         0.7378         0.7457       -64.7946       1.073662              1
      1394.0000       1543.682       161.6594         0.7327         0.7472       -64.5247       1.343567              1
      1394.5000       1540.695       162.6482         0.7278         0.7487        -64.228       1.640266              1
      1395.0000       1523.389       163.3259         0.7258         0.7444       -63.8539       2.014362              1
      1395.5000       1506.711       163.7227          0.724           0.74       -63.3593       2.508965              1
      1396.0000       1493.861       163.5449         0.7208         0.7362        -62.301       3.567265              1
      1396.5000       1495.105        163.616         0.7139         0.7365       -60.7845       5.083763              1
      1397.0000       1509.484       163.7563          0.707         0.7707       -59.4142       6.454063              1
      1397.5000       1534.025       164.2681         0.7018         0.8332       -58.3759       7.492363              1
      1398.0000       1561.186       165.1106         0.6973         0.8229       -57.5881       8.280163              1
      1398.5000       1581.996       166.1475         0.6928         0.7704       -57.1293       8.738964              1
      1399.0000       1596.924       167.1997         0.6867         0.7165       -56.9783       8.889965              1
      1399.5000       1608.385       168.1206         0.6806         0.6863        -56.879       8.989262              1
