#------------------------------------------------------------------------------
# Created by    : vladimir.rabinovich
# Created on    : 09/19/2023 17:19:49
#------------------------------------------------------------------------------
~Version Information Section
VERS.           2.0     :   CWLS log ASCII Standard - VERSION 2.0
WRAP.           NO      :   One line per depth step
~Well Information Section
#MNEM       .UNIT                                         VALUE :DESCRIPTION
#------------------------------------------------------------------------------
STRT        .FT                                            1295 :START DEPTH
STOP        .FT                                            4592 :STOP DEPTH
STEP        .FT                                             0.5 :STEP      
NULL        .                                           -999.25 :NULL      
COMP        .                     FREEPORT-MCMORAN OIL & GAS CO :COMPANY   
WELL        .                                     ST TR 00662-L :WELL      
FLD         .                                         SIX-SIXTY :FIELD     
LOC         .                                                   :LOCATION  
CNTY        .                      MATAGORDA ISLAND LARGE BLOCK :LOCATION  
STAT        .                                             TEXAS :STATE     
CTRY        .                                     UNITED STATES :COUNTRY   
SRVC        .                                                   :SERVICE COMPANY
DATE        .                             9/13/2023 11:19:13 AM :LOG DATE  
API         .                                    42703300650000 :API NUMBER
UWI         .                                    42703300650000 :UNIQUE WELL ID
XCOORD      .                                  434889.841251994 :SURFACE X 
YCOORD      .                                  10179416.4588751 :SURFACE Y 
LAT         .                                        28.0002971 :LATITUDE  
LON         .                                       -96.7355909 :LONGITUDE 
ELEV        .FT                                              77 :ELEVATION VALUE
ELEV_TYPE   .                                                KB :ELEVATION REFERENCE TYPE
~Curve Information Section
#MNEM       .UNIT                                      API CODE :CURVE DESCRIPTION
#------------------------------------------------------------------------------
DEPT        .FT                                                 :DEPTH     
ASFL        .OHMM                                               :          
CILD        .MMHO                                               :          
ILD         .OHMM                                               :          
SFL         .OHMM                                               :          
SP          .MV                                                 :          
SP_NORM     .MV                                                 :SP Normalized
VSH_SP      .V/V                                                :Volume of Shale from SP
~A        DEPTH           ASFL           CILD            ILD            SFL             SP        SP_NORM         VSH_SP
# ...
      2802.5000         0.7936       3161.652         0.3439         0.7153       -68.1378      -40.95734     0.09187854
      2803.0000         0.7892       3128.926         0.3364         0.7222       -68.2745      -41.10073     0.08861966
      2803.5000          0.795       3097.582          0.329         0.7292         -68.15      -40.98293     0.09129698
      2804.0000         0.8038       3067.055         0.3215         0.7362       -67.7919      -40.63153     0.09928339
      2804.5000         0.8171       3029.168         0.3182         0.7431       -67.7256      -40.57193       0.100638
      2805.0000         0.8446       2983.906         0.3191         0.7491        -69.364      -42.21703     0.06324942
      2805.5000         0.8676       2940.199         0.3201         0.7547       -71.1522      -44.01192     0.02245634
      2806.0000         0.8897       2900.332          0.321         0.7603        -72.827      -45.69342              0
      2806.5000         0.9087       2865.586         0.3219         0.7752       -72.6512      -45.52431              0
      2807.0000         0.9275       2850.121         0.3213         0.7926       -72.7694      -45.64922              0
      2807.5000         0.9457       2912.582         0.3199           0.81       -73.0989      -45.98541              0
      2808.0000         0.9544       2992.691         0.3185         0.8272       -73.7614      -46.65461              0
      2808.5000         0.9489       3099.797         0.3171          0.843       -74.4402      -47.34011              0
      2809.0000         0.9385       3199.875         0.3157         0.8588       -75.5154        -48.422              0
      2809.5000         0.9268        3274.91         0.3095         0.8746       -76.3043       -49.2176              0
      2810.0000         0.9151       3338.535         0.2978         0.8738       -75.2816       -48.2016              0
      2810.5000         0.9073       3405.328         0.2862         0.8698       -74.0059      -46.93259              0
      2811.0000         0.8998       3492.242         0.2745         0.8658       -72.4835      -45.41689              0
      2811.5000         0.8923       3588.113         0.2629         0.8613       -71.6353      -44.57539    0.009650317
      2812.0000         0.8944        3647.73         0.2533         0.8567       -69.6699      -42.61668     0.05416627
      2812.5000         0.9013       3402.313          0.266         0.8522       -65.1174      -38.07088      0.1574799
      2813.0000         0.9117       3229.473         0.2788         0.8476       -63.0016      -35.96178      0.2054142
      2813.5000         0.9235       2963.094         0.3096         0.8492       -60.6872      -33.65408      0.2578619
      2814.0000          0.924       2806.688         0.3538         0.8533       -55.3229      -28.29647      0.3796256
      2814.5000         0.9158       2657.016         0.3988         0.8574       -50.2856      -23.26587      0.4939575
      2815.0000          0.907       2482.695         0.4555         0.8614       -40.7464      -13.73337      0.7106053
      2815.5000         0.8904       1751.506         0.5122         0.8655       -36.9268      -9.920465      0.7972621
      2816.0000         0.8739        1602.18         0.5692         0.8676       -33.2355      -6.235865      0.8810031
      2816.5000         0.8605       1477.898         0.6265         0.8689       -29.4344      -2.441462      0.9672395
      2817.0000         0.8523        1382.67         0.6839         0.8701       -27.1779      -0.191658              1
      2817.5000         0.8616        1287.49         0.7288         0.8722       -25.3347       1.644846              1
      2818.0000           0.88       1170.979         0.7667         0.8771       -24.2114       2.761448              1
      2818.5000          0.905       1087.234         0.8045         0.8819        -23.407       3.559151              1
      2819.0000         0.9308        1044.42         0.8423         0.9074       -22.6664       4.293053              1
      2819.5000          0.956       1002.301          0.893         0.9405       -21.7291       5.223658              1
      2820.0000         0.9775       967.4932         0.9442         0.9736       -21.6748       5.271257              1
      2820.5000         0.9977       939.1826         0.9954         1.0033       -22.2501       4.689262              1
      2821.0000         1.0102       916.2598         1.0264         1.0227       -22.9449       3.987764              1
      2821.5000         1.0078       913.0625         1.0542         1.0421       -23.6429       3.283068              1
      2822.0000         0.9946       916.0732          1.082         1.0616       -23.3686       3.550669              1
      2822.5000         0.9812       919.0811         1.1098         1.0474       -22.4453       4.467274              1
      2823.0000         0.9677       932.9209         1.0926         1.0251         -21.38       5.525877              1
      2823.5000         0.9543       953.8945         1.0753         0.9933       -22.4416       4.457579              1
      2824.0000         0.9958       998.6875         1.0435         0.9761       -26.0823      0.8101807              1
      2824.5000         1.0362       1067.609         0.9972         0.9906       -31.4096      -4.523815      0.9199133
      2825.0000         1.0632       1171.869         0.9488         1.0051       -33.4976      -6.618513      0.8723065
      2825.5000         1.0903       1248.389         0.8921         1.0196       -34.8868      -8.014408      0.8405817
      2826.0000         1.1285       1340.797         0.8354          1.042       -35.7319      -8.866207      0.8212225
      2826.5000         1.1698       1465.078         0.7787          1.074       -35.3837      -8.524706       0.828984
      2827.0000         1.2143       1586.736         0.7227          1.106       -45.1385       -18.2862      0.6071318
      2827.5000         1.2559       1760.068         0.6677          1.138       -58.6083       -31.7627      0.3008478
      2828.0000         1.2975       1864.898         0.6128         1.1777       -61.8013      -34.96239      0.2281274
      2828.5000           1.34        1937.73         0.5621         1.2176       -65.0675      -38.23529      0.1537434
      2829.0000         1.3658       2027.242         0.5158         1.2575        -66.031      -39.20549      0.1316934
      2829.5000         1.3851       2102.547         0.4719         1.2962       -66.8348      -40.01599      0.1132729
      2830.0000         1.3913       2178.598         0.4387         1.3335       -67.6658      -40.85369     0.09423438
      2830.5000          1.278       2286.496         0.4055         1.3344        -68.463      -41.65758     0.07596415
      2831.0000         1.2139        2426.32         0.3862         1.2873       -69.0685      -42.26978     0.06205056
      2831.5000          1.153       2508.578         0.3731           1.25       -69.5022      -42.71017     0.05204149
      2832.0000         1.0947       2575.598           0.36         1.2128       -69.2012      -42.41588     0.05873004
      2832.5000         1.0288       2583.613          0.369         1.1579        -65.722      -38.94337      0.1376507
      2833.0000          0.949       2459.133         0.3781         1.0874       -62.9153      -36.14336      0.2012872
      2833.5000         0.8438       2320.301         0.3872         1.0071       -58.7391      -31.97387      0.2960485
      2834.0000         0.8025       2199.285         0.4187          0.912       -51.6464      -24.88786       0.457094
      2834.5000         0.7737        2033.23         0.4524         0.8605       -44.8967      -18.14486      0.6103441
      2835.0000         0.7559       1935.875         0.4861         0.8091       -36.6455      -9.900356      0.7977192
      2835.5000         0.7397       1830.152         0.5198         0.7846       -32.4169      -5.678455      0.8936715
