#------------------------------------------------------------------------------
# Created by    : vladimir.rabinovich
# Created on    : 09/19/2023 17:20:45
#------------------------------------------------------------------------------
~Version Information Section
VERS.           2.0     :   CWLS log ASCII Standard - VERSION 2.0
WRAP.           NO      :   One line per depth step
~Well Information Section
#MNEM       .UNIT                                         VALUE :DESCRIPTION
#------------------------------------------------------------------------------
STRT        .FT                                            1401 :START DEPTH
STOP        .FT                                            4951 :STOP DEPTH
STEP        .FT                                             0.5 :STEP      
NULL        .                                           -999.25 :NULL      
COMP        .                      GULF ENERGY EXPLORATION CORP :COMPANY   
WELL        .                                ST TR 00596-L NE/4 :WELL      
FLD         .                        SHERMAN OFFSHORE SOUTHWEST :FIELD     
LOC         .                                                   :LOCATION  
CNTY        .                      MATAGORDA ISLAND LARGE BLOCK :LOCATION  
STAT        .                                             TEXAS :STATE     
CTRY        .                                     UNITED STATES :COUNTRY   
SRVC        .                                                   :SERVICE COMPANY
DATE        .                             9/13/2023 11:12:01 AM :LOG DATE  
API         .                                    42703301240000 :API NUMBER
UWI         .                                    42703301240000 :UNIQUE WELL ID
XCOORD      .                                    480210.3272994 :SURFACE X 
YCOORD      .                                  10243409.1849528 :SURFACE Y 
LAT         .                                        28.1797739 :LATITUDE  
LON         .                                       -96.6012532 :LONGITUDE 
ELEV        .FT                                              82 :ELEVATION VALUE
ELEV_TYPE   .                                                KB :ELEVATION REFERENCE TYPE
~Curve Information Section
#MNEM       .UNIT                                      API CODE :CURVE DESCRIPTION
#------------------------------------------------------------------------------
DEPT        .FT                                                 :DEPTH     
ASN         .OHMM                                               :          
CILD        .MMHO                                               :          
ILD         .OHMM                                               :          
SP          .MV                                                 :          
SP_NORM     .MV                                                 :SP Normalized
VSH_SP      .V/V                                                :Volume of Shale from SP
~A        DEPTH            ASN           CILD            ILD             SP        SP_NORM         VSH_SP
# ...
      3947.0000         2.0793       626.4582         1.7326         -40.75       -23.7234      0.4948047
      3947.5000         2.0794       617.6847         1.7327       -40.2595       -23.2367      0.5061232
      3948.0000         2.0795       617.7267         1.7228       -40.0515       -23.0325      0.5108721
      3948.5000         2.0796       621.7372         1.5462       -39.1156       -22.1004      0.5325488
      3949.0000         2.0698       637.6499         1.3696       -38.2655       -21.2541      0.5522302
      3949.5000         1.0652       739.7334          1.193       -37.8688       -20.8612      0.5613675
      3950.0000         1.0552       845.7845         1.0163       -24.3379         -7.334      0.8759535
      3950.5000         1.0473       951.8357         0.8506       -24.1372        -7.1371      0.8805326
      3951.0000         1.0453       1057.887         0.7912       -23.9366        -6.9403      0.8851093
      3951.5000         1.0493       1163.938         0.7813       -23.8347        -6.8422      0.8873907
      3952.0000         1.0671       1269.989         0.7319       -23.9301        -6.9414      0.8850837
      3952.5000          1.085       1411.527         0.7122       -24.1242        -7.1393      0.8804814
      3953.0000         1.1007       1435.347         0.7222       -24.3184        -7.3373      0.8758767
      3953.5000         1.1164       1435.363         0.7322       -24.0191        -7.0418      0.8827488
      3954.0000         1.1321       1357.769         0.7871       -23.3575         -6.384      0.8980465
      3954.5000         1.1478       1280.175          0.842        -22.696        -5.7263      0.9133419
      3955.0000         1.1635       1202.582          0.897       -22.3319         -5.366      0.9217209
      3955.5000         1.1802       1124.988         0.9519       -22.3288        -5.3667      0.9217046
      3956.0000         1.2567       1047.394         1.0068       -22.6232        -5.6649      0.9147698
      3956.5000         1.3331       969.8006         1.0618       -23.3859        -6.4314      0.8969442
      3957.0000         1.3887       892.2069         1.1167       -24.1486        -7.1979      0.8791186
      3957.5000         1.3941       797.0344         1.1717       -25.1754        -8.2284      0.8551535
      3958.0000         1.3842       808.9546         1.2266       -25.2724        -8.3292      0.8528093
      3958.5000          1.342       864.3682         1.2391       -25.3678        -8.4284      0.8505023
      3959.0000         1.2998       919.7817          1.173       -25.2659        -8.3303      0.8527837
      3959.5000         1.2577       975.1952         1.1069       -24.1898         -7.258       0.877721
      3960.0000         1.2155       1030.609         1.0408       -23.1137        -6.1857      0.9026582
      3960.5000         1.1733       1086.022         0.9747       -22.0376        -5.1134      0.9275954
      3961.0000         1.1311       1166.174         0.9026       -20.9112        -3.9908      0.9537023
      3961.5000         1.1046       1178.091         0.9026        -20.811        -3.8944      0.9559442
      3962.0000         1.0987       1190.025         0.9027       -20.6106        -3.6978      0.9605163
      3962.5000         1.0928       1197.975         0.9029       -20.5089        -3.5999      0.9627931
      3963.0000         1.1195        1198.01         0.9129       -20.1113        -3.2061      0.9719512
      3963.5000         1.1422       1178.231         0.9328       -20.0095        -3.1081      0.9742302
      3964.0000          1.165        1166.35         0.9428       -19.9078        -3.0102      0.9765069
      3964.5000         1.1877       1138.641         0.9529       -20.0033        -3.1095      0.9741977
      3965.0000         1.2105       1134.693         0.9629        -20.199        -3.3089      0.9695604
      3965.5000         1.2376       1106.984         0.9828       -20.5903         -3.704      0.9603721
      3966.0000         1.2911       1091.156         1.0028       -20.9287        -4.0462       0.952414
      3966.5000         1.3202       1071.344         1.0227       -21.3713        -4.4926      0.9420326
      3967.0000         1.3492       1055.517         1.0427       -21.9597        -5.0848      0.9282604
      3967.5000         1.3943       996.3159         1.0037       -22.5482        -5.6771      0.9144861
      3968.0000           1.47       937.1148         1.0671       -24.7296        -7.8623      0.8636674
      3968.5000         1.5456       877.9136         1.1391       -26.9111       -10.0476      0.8128465
      3969.0000         1.6166       818.7124         1.2214       -29.0925       -12.2328      0.7620279
      3969.5000         1.6277       746.4368           1.41       -31.5098       -14.6539      0.7057232
      3970.0000         1.6575       734.5602         1.4002       -28.5573       -11.7052      0.7742977
      3970.5000         1.6477       734.6007         1.3683       -25.6049        -8.7566      0.8428698
      3971.0000          1.628       765.1104         1.3364       -22.6524        -5.8079      0.9114442
      3971.5000         1.5984       795.6201         1.3045       -19.3668        -2.5261      0.9877651
      3972.0000         1.5687       826.1298         1.2726        -18.971        -2.1341      0.9968814
      3972.5000         1.5218       856.6395         1.2407       -18.2779        -1.4447              1
      3973.0000         1.4608       887.1492         1.2088        -17.782        -0.9526              1
      3973.5000         1.3999       917.6589         1.1769       -17.5803        -0.7547              1
      3974.0000         1.3389       948.1687          1.145       -17.1831        -0.3613              1
      3974.5000          1.289       976.7819         1.1131       -16.7858         0.0322              1
      3975.0000          1.285       992.6799         1.0742       -16.4872          0.327              1
      3975.5000          1.281       1004.612         1.0446       -15.8929         0.9175              1
      3976.0000         1.2751       1016.545         1.0249       -15.1015         1.7051              1
      3976.5000          1.283       1016.582         1.0051        -13.719         3.0838              1
      3977.0000         1.3144       1012.635         0.9875        -13.519           3.28              1
      3977.5000         1.3457       1000.778         0.9992       -13.6146         3.1806              1
      3978.0000         1.3771       957.0079         1.0449       -13.9073         2.8841              1
      3978.5000         1.4198       913.2382          1.095       -15.2838         1.5038              1
      3979.0000         1.4218       869.4685         1.1501       -16.0691         0.7147              1
      3979.5000         1.4337       825.6987         1.2111       -16.5617         0.2183              1
      3980.0000         1.5348       759.1809         1.3172        -17.938        -1.1617              1
      3980.5000         1.5107        759.201         1.4223       -18.6231        -1.8506              1
      3981.0000         1.4865       771.1349         1.4224       -19.4082        -2.6395      0.9851279
      3981.5000         1.4624       830.6376         1.2039       -20.9797        -4.2148       0.948493
      3982.0000         1.4383       890.1403         1.1234       -23.2454        -6.4843      0.8957139
      3982.5000         1.4141        949.643          1.053       -25.9147        -9.1574      0.8335488
      3983.0000           1.39       1009.146         0.9909        -28.584       -11.8305      0.7713837
      3983.5000         1.3622       1068.648         0.9358       -31.2533       -14.5036      0.7092186
      3984.0000         1.3483       1128.151         0.8864       -33.9226       -17.1767      0.6470535
      3984.5000         1.3383       1187.654          0.842       -37.7091        -20.967       0.558907
