#------------------------------------------------------------------------------
# Created by    : vladimir.rabinovich
# Created on    : 09/19/2023 17:22:56
#------------------------------------------------------------------------------
~Version Information Section
VERS.           2.0     :   CWLS log ASCII Standard - VERSION 2.0
WRAP.           NO      :   One line per depth step
~Well Information Section
#MNEM       .UNIT                                         VALUE :DESCRIPTION
#------------------------------------------------------------------------------
STRT        .FT                                             513 :START DEPTH
STOP        .FT                                           16000 :STOP DEPTH
STEP        .FT                                             0.5 :STEP      
NULL        .                                           -999.25 :NULL      
COMP        .              PENNZOIL EXPLORATION & PRODUCTION CO :COMPANY   
WELL        .                                ST TR 00486-L SE/4 :WELL      
FLD         .                                           WILDCAT :FIELD     
LOC         .                                                   :LOCATION  
CNTY        .                      MATAGORDA ISLAND LARGE BLOCK :LOCATION  
STAT        .                                             TEXAS :STATE     
CTRY        .                                     UNITED STATES :COUNTRY   
SRVC        .                                                   :SERVICE COMPANY
DATE        .                             9/13/2023 11:19:05 AM :LOG DATE  
API         .                                    42703302080000 :API NUMBER
UWI         .                                    42703302080000 :UNIQUE WELL ID
XCOORD      .                                  648049.134083277 :SURFACE X 
YCOORD      .                                  10318924.3450998 :SURFACE Y 
LAT         .                                        28.3999658 :LATITUDE  
LON         .                                       -96.0869402 :LONGITUDE 
ELEV        .FT                                              47 :ELEVATION VALUE
ELEV_TYPE   .                                                KB :ELEVATION REFERENCE TYPE
~Curve Information Section
#MNEM       .UNIT                                      API CODE :CURVE DESCRIPTION
#------------------------------------------------------------------------------
DEPT        .FT                                                 :DEPTH     
SFL         .OHMM                                               :          
SP          .MV                                                 :          
SP_NORM     .MV                                                 :SP Normalized
VSH_SP      .V/V                                                :Volume of Shale from SP
~A        DEPTH            SFL             SP        SP_NORM         VSH_SP
# ...
      3587.0000         1.5077       -73.1969      -4.809799      0.9447855
      3587.5000         1.5045       -74.8506      -6.463501      0.9208188
      3588.0000         1.4894        -76.002      -7.614899      0.9041319
      3588.5000         1.4991       -76.7854        -8.3983      0.8927783
      3589.0000         1.5164       -77.9432      -9.556099      0.8759986
      3589.5000         1.5429       -79.6045       -11.2174      0.8519217
      3590.0000         1.5926       -82.6112       -14.2241      0.8083464
      3590.5000         1.6252       -85.6292       -17.2421      0.7646072
      3591.0000         1.6272       -88.7087       -20.3216      0.7199768
      3591.5000         1.6019       -92.8491        -24.462      0.6599711
      3592.0000         1.5389       -96.9558       -28.5687      0.6004536
      3592.5000           1.46       -100.999       -32.6119      0.5418565
      3593.0000         1.3785      -104.5604       -36.1733       0.490242
      3593.5000          1.294       -105.963       -37.5759      0.4699145
      3594.0000         1.1852      -104.4316       -36.0445      0.4921087
      3594.5000         1.1784      -102.4745       -34.0874      0.5204724
      3595.0000          1.309      -101.3165       -32.9294      0.5372551
      3595.5000         1.4688      -101.9216       -33.5345      0.5284855
      3596.0000         1.5943      -105.2533       -36.8662         0.4802
      3596.5000         1.6285       -109.713       -41.3259      0.4155667
      3597.0000         1.4976      -113.4799       -45.0928       0.360974
      3597.5000         0.9192      -116.5016       -48.1145      0.3171811
      3598.0000         0.6547      -116.9127       -48.5256      0.3112232
      3598.5000         0.6045      -115.2186       -46.8315      0.3357754
      3599.0000         0.6012      -109.6085       -41.2214      0.4170812
      3599.5000          0.827      -104.7837       -36.3966      0.4870058
      3600.0000         1.3327       -103.179       -34.7919      0.5102623
      3600.5000         1.6506      -102.2302       -33.8431       0.524013
      3601.0000         1.5544      -101.3721        -32.985      0.5364493
      3601.5000         1.3233      -100.3688       -31.9817      0.5509899
      3602.0000         1.1114       -98.7822       -30.3951       0.573984
      3602.5000         0.9963       -98.4172       -30.0301      0.5792739
      3603.0000         1.1961      -100.8777       -32.4906      0.5436145
      3603.5000         1.3926      -103.8864       -35.4993      0.5000102
      3604.0000         1.3568      -105.9779       -37.5908      0.4696986
      3604.5000         1.1347      -106.4843       -38.0972      0.4623594
      3605.0000         1.0029      -106.2433       -37.8562      0.4658522
      3605.5000         1.0058      -106.5195       -38.1324      0.4618493
      3606.0000         1.1548      -108.2059       -39.8188      0.4374087
      3606.5000         1.5008      -110.3079       -41.9208      0.4069449
      3607.0000         1.9177      -112.2529       -43.8658      0.3787565
      3607.5000         1.8894      -114.9291        -46.542       0.339971
      3608.0000         1.5627      -118.2197       -49.8326      0.2922811
      3608.5000         1.2871      -121.7775       -53.3904      0.2407189
      3609.0000         1.0028      -125.9066       -57.5195      0.1808768
      3609.5000         0.7007      -127.9861        -59.599      0.1507391
      3610.0000         0.6458      -129.1394       -60.7523      0.1340246
      3610.5000         0.8128      -128.8899      -60.50279      0.1376407
      3611.0000         0.8085      -127.5985       -59.2114      0.1563565
      3611.5000         0.6626      -123.1594       -54.7723      0.2206913
      3612.0000         0.5215      -117.7976       -49.4105      0.2983986
      3612.5000            0.7       -115.213       -46.8259      0.3358566
      3613.0000         0.9806      -117.0488       -48.6617      0.3092508
      3613.5000         1.1236      -120.2236       -51.8365      0.2632391
      3614.0000         0.9914      -122.4348       -54.0477      0.2311928
      3614.5000          0.586      -123.3931        -55.006      0.2173044
      3615.0000         0.5443      -124.0875       -55.7004      0.2072406
      3615.5000         0.5617      -125.2716       -56.8845      0.1900797
      3616.0000         0.6438      -127.2811        -58.894      0.1609566
      3616.5000         0.7197      -129.8806       -61.4935      0.1232826
      3617.0000         0.7201      -133.0752       -64.6881     0.07698413
      3617.5000         0.6976       -131.553      -63.16589     0.09904502
      3618.0000         0.6551       -128.749      -60.36189      0.1396827
      3618.5000         0.5848      -123.6338       -55.2467       0.213816
      3619.0000         0.5347      -115.5472       -47.1601       0.331013
      3619.5000          0.504      -104.4316       -36.0445      0.4921087
      3620.0000         0.5191       -92.5242       -24.1371      0.6646797
      3620.5000         0.6213       -87.1465       -18.7594      0.7426174
      3621.0000         0.6762       -87.4658       -19.0787      0.7379899
      3621.5000         0.6847       -94.0107       -25.6236      0.6431363
      3622.0000         0.6948      -102.2877       -33.9006      0.5231798
      3622.5000          0.757      -109.6533       -41.2662      0.4164319
      3623.0000         0.8512      -116.1337       -47.7466      0.3225131
      3623.5000         0.8851      -120.1172       -51.7301      0.2647811
      3624.0000         0.8687      -120.9253       -52.5382      0.2530695
      3624.5000         0.8378      -119.8977       -51.5106      0.2679624
      3625.0000         0.8031      -117.8295       -49.4424      0.2979363
      3625.5000         0.7345      -114.7909       -46.4038      0.3419739
      3626.0000         0.6428      -112.4827       -44.0956      0.3754261
      3626.5000         0.5667      -110.8439       -42.4568      0.3991768
      3627.0000         0.5346      -115.9395       -47.5524      0.3253275
      3627.5000         0.5975      -123.2938       -54.9067      0.2187435
      3628.0000         0.6604      -128.9207       -60.5336      0.1371942
      3628.5000         0.7368      -131.5483      -63.16119     0.09911313
      3629.0000         0.8101      -133.0498       -64.6627     0.07735211
      3629.5000          0.855      -134.0559      -65.66879     0.06277112
      3630.0000         0.8583      -134.7651      -66.37801     0.05249267
      3630.5000         0.7975      -134.4565       -66.0694     0.05696526
      3631.0000         0.8159      -133.1824       -64.7953     0.07543039
      3631.5000         0.9292      -131.2048       -62.8177      0.1040913
      3632.0000         1.0134      -128.1812       -59.7941      0.1479116
      3632.5000         0.8183      -123.4956       -55.1085      0.2158189
      3633.0000         0.5923       -117.314       -48.9269      0.3054072
      3633.5000         0.5653      -101.1896       -32.8025      0.5390942
      3634.0000         0.6125       -90.9554       -22.5683       0.687416
      3634.5000         0.7453        -79.384       -10.9969      0.8551174
      3635.0000         0.8433       -68.4514    -0.06430054              1
      3635.5000         0.8776       -64.9609       3.426201              1
      3636.0000           0.88       -63.9924       4.394699              1
      3636.5000          0.802       -63.9962         4.3909              1
      3637.0000         0.7299        -64.066       4.321098              1
      3637.5000         0.6508       -64.1948       4.192299              1
      3638.0000         0.6314       -64.4156       3.971497              1
      3638.5000          0.637       -64.9821       3.404999              1
      3639.0000         0.6431       -65.6482       2.738899              1
      3639.5000         0.6446       -66.3763       2.010803              1
