#------------------------------------------------------------------------------
# Created by    : vladimir.rabinovich
# Created on    : 09/19/2023 17:20:49
#------------------------------------------------------------------------------
~Version Information Section
VERS.           2.0     :   CWLS log ASCII Standard - VERSION 2.0
WRAP.           NO      :   One line per depth step
~Well Information Section
#MNEM       .UNIT                                         VALUE :DESCRIPTION
#------------------------------------------------------------------------------
STRT        .FT                                             556 :START DEPTH
STOP        .FT                                            7001 :STOP DEPTH
STEP        .FT                                             0.5 :STEP      
NULL        .                                           -999.25 :NULL      
COMP        .                          HUMBLE OIL & REFINING CO :COMPANY   
WELL        .                                     ST TR 00598-L :WELL      
FLD         .                                           WILDCAT :FIELD     
LOC         .                                                   :LOCATION  
CNTY        .                      MATAGORDA ISLAND LARGE BLOCK :LOCATION  
STAT        .                                             TEXAS :STATE     
CTRY        .                                     UNITED STATES :COUNTRY   
SRVC        .                                                   :SERVICE COMPANY
DATE        .                             9/13/2023 11:12:05 AM :LOG DATE  
API         .                                    42703000080000 :API NUMBER
UWI         .                                    42703000080000 :UNIQUE WELL ID
XCOORD      .                                  502144.869554487 :SURFACE X 
YCOORD      .                                  10234432.9570627 :SURFACE Y 
LAT         .                                        28.1568958 :LATITUDE  
LON         .                                       -96.5324651 :LONGITUDE 
ELEV        .FT                                              15 :ELEVATION VALUE
ELEV_TYPE   .                                                KB :ELEVATION REFERENCE TYPE
~Curve Information Section
#MNEM       .UNIT                                      API CODE :CURVE DESCRIPTION
#------------------------------------------------------------------------------
DEPT        .FT                                                 :DEPTH     
ASN         .OHMM                                               :          
CALI        .IN                                                 :          
CILD        .MMHO                                               :          
DT          .US/F                                               :          
ILD         .OHMM                                               :          
SP          .MV                                                 :          
SP_NORM     .MV                                                 :SP Normalized
VSH_SP      .V/V                                                :Volume of Shale from SP
~A        DEPTH            ASN           CALI           CILD             DT            ILD             SP        SP_NORM         VSH_SP
# ...
      5246.5000         0.4161         8.6238       3573.102       112.1305         0.3022       -62.6279       -21.8018     0.05705715
      5247.0000         0.4249         8.9495       3553.336         109.39         0.2996       -62.5032       -21.6787     0.06291907
      5247.5000         0.4378         9.4005       3547.867       106.7855         0.3127       -62.3785       -21.5557     0.06877618
      5248.0000         0.4584         9.6662        3541.16        107.257         0.3258        -62.254       -21.4328     0.07462855
      5248.5000         0.4791         9.7529       3528.316       109.5345          0.339       -62.1855        -21.366     0.07780956
      5249.0000         0.4898         9.6664       3515.457       109.4349         0.3521       -62.2576       -21.4397     0.07430004
      5249.5000         0.4967         9.4068       3502.602       112.8478         0.3652       -62.3312        -21.515     0.07071432
      5250.0000         0.5043         9.1386         3409.5       114.2523         0.3783       -62.4296       -21.6151     0.06594758
      5250.5000         0.5134         8.8395       2654.266        105.104         0.3967       -62.5169        -21.704     0.06171426
      5251.0000         0.5225          8.655       1986.961       101.0675         0.4553         -62.27       -21.4588     0.07339051
      5251.5000          0.535         8.6482        1730.08        94.9427         0.5139       -61.9158       -21.1062     0.09018099
      5252.0000         0.5565         8.6487       1508.594        99.6055         0.5725       -61.3036       -20.4957      0.1192523
      5252.5000         0.6016         8.6409       1420.813       111.2386         0.6311       -60.0607       -19.2544      0.1783619
      5253.0000         0.7172         8.6304       1254.627       120.7911         0.6897       -53.0213       -12.2167      0.5134905
      5253.5000         0.7819         8.6273        1154.18        129.887         0.7711       -48.1242        -7.3212      0.7466095
      5254.0000         0.8221         8.6326       1052.381       135.7397         0.8557       -46.9879        -6.1866      0.8006381
      5254.5000         0.8452          8.642       977.6016       139.7612         0.9371       -44.9565        -4.1568      0.8972952
      5255.0000         0.8682         8.6833       931.8018       141.2788         0.9606       -43.3683        -2.5703      0.9728429
      5255.5000         0.8817         8.7455       952.9131       138.9055         0.9841       -42.4294         -1.633              1
      5256.0000         0.8913           8.76       972.1641       135.7197         1.0077       -42.1573        -1.3626              1
      5256.5000         0.9009         8.7652       991.4268       132.4541          1.019       -42.2875        -1.4944              1
      5257.0000          0.906         8.7754        1010.69       131.2522         1.0275       -42.4255        -1.6341              1
      5257.5000          0.909         8.7914       1017.266       132.0737         1.0361        -42.642        -1.8522              1
      5258.0000          0.912         8.7966       1016.195       134.4788         1.0446       -42.8586        -2.0705      0.9966429
      5258.5000          0.915          8.813       1015.127       137.0347         1.0532       -43.0751        -2.2886      0.9862571
      5259.0000         0.9286         8.8454       998.9668       137.2573         1.0617       -43.1755        -2.3907      0.9813952
      5259.5000         0.9484         8.9257         982.75       136.0691         1.1058       -43.2098        -2.4266      0.9796857
      5260.0000         0.9786         9.1362       966.5322       129.3232         1.1622        -43.244        -2.4625      0.9779762
      5260.5000         1.0463         9.2941       930.7617       122.9766         1.2185       -43.2782        -2.4983      0.9762715
      5261.0000         1.1412         9.5205       881.2158       114.8934         1.2749       -43.3125        -2.5343      0.9745572
      5261.5000         1.2118          9.659       829.4453       107.3518         1.3313       -43.4565        -2.6799      0.9676238
      5262.0000         1.2659          9.649        769.458       105.0741         1.3699       -43.6315        -2.8566      0.9592095
      5262.5000         1.3125         9.5499       726.9932        98.1385         1.4011       -43.8065        -3.0332         0.9508
      5263.0000          1.359         9.4122         723.25        93.8314         1.4322       -43.9814        -3.2098      0.9423905
      5263.5000         1.4045         9.2693       724.5342        86.9595         1.4544       -43.9459        -3.1759      0.9440048
      5264.0000         1.4405         9.0907       724.0566        86.9396         1.4518       -43.8292        -3.0609       0.949481
      5264.5000          1.431         8.8146       717.4521        88.5188         1.4493       -43.7596        -2.9929       0.952719
      5265.0000         1.4285         8.7448       710.8486        92.6002         1.4467       -44.1204        -3.3554      0.9354571
      5265.5000         1.4569         9.1181       704.2441        95.0925         1.4572       -44.6288        -3.8654      0.9111714
      5266.0000         1.4875         9.4796       697.6455        98.8633         1.4708       -45.3054        -4.5437      0.8788714
      5266.5000         1.4769         9.5673       687.9355        99.4658         1.4843       -45.7928        -5.0327      0.8555857
      5267.0000         1.4513         9.4059       673.2295         96.043         1.4979       -45.5881        -4.8297      0.8652524
      5267.5000          1.446         9.3961       658.5225         94.087         1.4958       -45.3835        -4.6267      0.8749191
      5268.0000         1.4638          9.505       655.2803        95.4093         1.4663       -45.1787        -4.4236      0.8845904
      5268.5000         1.4818         9.6765       655.3877        100.339         1.4369       -44.9741        -4.2206      0.8942571
      5269.0000         1.4548         9.2967       682.0146       101.7313         1.4074       -44.7693        -4.0175      0.9039286
      5269.5000         1.3861         9.1577       717.4219       101.9307         1.3598       -44.5415        -3.7913         0.9147
      5270.0000         1.2821          9.192       786.3281         98.438         1.3104       -44.2745         -3.526      0.9273334
      5270.5000         1.1756         9.1709       864.0557       100.9827          1.261       -44.0074        -3.2605      0.9399762
      5271.0000         1.1355         9.0143        919.499       112.9076         1.2115       -43.7404        -2.9952      0.9526095
      5271.5000         1.1095         8.9697       962.2305       125.2717         1.1633        -43.644        -2.9004      0.9571238
      5272.0000         1.0903         8.9024       980.4053        134.697         1.1563       -43.6033        -2.8614       0.958981
      5272.5000         1.0799         8.7597       998.5801        138.802         1.1492       -43.5626        -2.8223      0.9608428
      5273.0000         1.0766         8.7534       999.9463       138.7446         1.1421       -43.5219        -2.7833         0.9627
      5273.5000         1.1194         8.8336       958.7012       137.7905          1.157       -43.4811        -2.7441      0.9645666
      5274.0000          1.162         8.9682         878.75       134.0183         1.1877       -43.4968        -2.7615      0.9637381
      5274.5000         1.1968         9.1364        795.126       130.7402         1.2184       -43.6468        -2.9132      0.9565143
      5275.0000         1.2268         9.3077       749.3613       126.6937         1.2491       -43.7968        -3.0648      0.9492952
      5275.5000         1.2474          9.517       732.6484       114.8535         1.2799       -43.8365        -3.1062      0.9473238
