#------------------------------------------------------------------------------
# Created by    : vladimir.rabinovich
# Created on    : 09/19/2023 17:20:54
#------------------------------------------------------------------------------
~Version Information Section
VERS.           2.0     :   CWLS log ASCII Standard - VERSION 2.0
WRAP.           NO      :   One line per depth step
~Well Information Section
#MNEM       .UNIT                                         VALUE :DESCRIPTION
#------------------------------------------------------------------------------
STRT        .FT                                            2835 :START DEPTH
STOP        .FT                                            6351 :STOP DEPTH
STEP        .FT                                             0.5 :STEP      
NULL        .                                           -999.25 :NULL      
COMP        .                                   PENNZOIL CO INC :COMPANY   
WELL        .                                     ST TR 00659-L :WELL      
FLD         .                                           WILDCAT :FIELD     
LOC         .                                                   :LOCATION  
CNTY        .                      MATAGORDA ISLAND LARGE BLOCK :LOCATION  
STAT        .                                             TEXAS :STATE     
CTRY        .                                     UNITED STATES :COUNTRY   
SRVC        .                                                   :SERVICE COMPANY
DATE        .                             9/13/2023 11:19:13 AM :LOG DATE  
API         .                                    42703300020000 :API NUMBER
UWI         .                                    42703300020000 :UNIQUE WELL ID
XCOORD      .                                  437819.375414617 :SURFACE X 
YCOORD      .                                  10187782.3810297 :SURFACE Y 
LAT         .                                        28.0235144 :LATITUDE  
LON         .                                       -96.7273206 :LONGITUDE 
ELEV        .FT                                              73 :ELEVATION VALUE
ELEV_TYPE   .                                                KB :ELEVATION REFERENCE TYPE
~Curve Information Section
#MNEM       .UNIT                                      API CODE :CURVE DESCRIPTION
#------------------------------------------------------------------------------
DEPT        .FT                                                 :DEPTH     
ASN         .OHMM                                               :          
CILD        .MMHO                                               :          
ILD         .OHMM                                               :          
SP          .MV                                                 :          
SP_NORM     .MV                                                 :SP Normalized
VSH_SP      .V/V                                                :Volume of Shale from SP
~A        DEPTH            ASN           CILD            ILD             SP        SP_NORM         VSH_SP
# ...
      4013.0000           0.81       1419.428         0.4661       -57.6125      -1.326431      0.9906734
      4013.5000         0.7815       1651.855         0.4355       -59.3728      -3.098209      0.9400511
      4014.0000         0.7539       1816.793         0.4368       -63.3726      -7.109486      0.8254433
      4014.5000         0.7263       1981.828          0.438       -69.8916      -13.63996      0.6388583
      4015.0000         0.7062       2403.754         0.4393       -71.9879      -15.74774      0.5786361
      4015.5000         0.6909       2466.203         0.4478       -78.0276      -21.79892      0.4057453
      4016.0000         0.6777       2467.652         0.4585       -81.3716      -25.15438      0.3098747
      4016.5000         0.6928        2392.52         0.4693       -83.5868      -27.38107      0.2462553
      4017.0000         0.7122       2351.961           0.48       -81.1664      -24.97214      0.3150818
      4017.5000         0.7279       2303.465         0.4908       -78.0914      -21.90862       0.402611
      4018.0000         0.7431       2200.078         0.5015       -76.2292       -20.0579      0.4554887
      4018.5000         0.7579       2147.887         0.5122       -74.7574      -18.59757      0.4972123
      4019.0000         0.7716       2080.422         0.5294       -71.8302      -15.68184      0.5805188
      4019.5000         0.7852       1997.225         0.5509       -71.6136      -15.47672      0.5863793
      4020.0000         0.7991       1976.736         0.5724       -73.8151       -17.6897      0.5231515
      4020.5000          0.813       1791.582         0.5895       -75.9038      -19.78988      0.4631464
      4021.0000         0.8216       1626.396         0.6006       -81.1313      -25.02885      0.3134614
      4021.5000         0.8301       1488.617         0.6153       -74.2631      -18.17212      0.5093679
      4022.0000         0.8399       1450.979         0.6426       -70.7351       -14.6556        0.60984
      4022.5000         0.8502       1422.111         0.6798       -67.8641      -11.79607      0.6915407
      4023.0000         0.8579       1410.475         0.7397       -65.6478      -9.591248      0.7545358
      4023.5000         0.8497       1413.875         0.7184       -64.0822      -8.037128      0.7989392
      4024.0000         0.8382       1438.984         0.6824       -62.7412      -6.707603      0.8369256
      4024.5000         0.8164       1494.807         0.6464         -62.77      -6.747879      0.8357749
      4025.0000         0.7986       1738.219         0.5927       -63.6147      -7.604057      0.8113127
      4025.5000         0.7672       1809.055         0.5392       -65.6879      -9.688728      0.7517506
      4026.0000         0.7444       1882.787         0.4971       -67.7666      -11.77891      0.6920312
      4026.5000         0.7244       2004.268         0.4638       -69.0869      -13.11068      0.6539805
      4027.0000         0.7064       2151.957          0.432       -71.6725      -15.70776      0.5797783
      4027.5000          0.689       2241.711         0.4105       -76.2079      -20.25463      0.4498676
      4028.0000         0.6718        2324.98         0.4033       -79.7296      -23.78781      0.3489197
      4028.5000         0.6434       2494.047         0.4322        -81.687      -25.75668      0.2926662
      4029.0000         0.6254        2424.32         0.5394       -83.7695      -27.85066      0.2328382
      4029.5000          0.633       2371.578         0.6529       -85.6129      -29.70554      0.1798417
      4030.0000         0.7073       2276.355         0.7425       -87.0823      -31.18641      0.1375311
      4030.5000         0.7535        1830.67          0.791       -73.1367      -17.25229      0.5356488
      4031.0000         0.7787       1448.881         0.8355       -63.7956      -7.922668      0.8022095
      4031.5000         0.8096       1311.602         0.8718       -60.3239       -4.46244      0.9010732
      4032.0000         0.8513       1193.689         0.9015       -56.7071     -0.8571167              1
      4032.5000         0.8788       1109.313         0.9131       -54.3205       1.518005              1
      4033.0000         0.8935       1083.342         0.8952       -52.6848       3.142231              1
      4033.5000         0.9015       1076.539         0.8773       -53.1948       2.620754              1
      4034.0000         0.8973       1107.527         0.8594        -53.705       2.099075              1
      4034.5000          0.893        1143.07         0.8414       -54.9675      0.8251038              1
      4035.0000         0.8881       1170.377         0.8427       -59.6105      -3.829372      0.9191608
      4035.5000         0.8777       1197.584         0.8448       -61.0742       -5.30455      0.8770128
      4036.0000         0.8673       1224.016          0.847       -62.7819      -7.023724      0.8278936
      4036.5000         0.8544       1255.217         0.8491       -65.8392       -10.0925      0.7402142
      4037.0000         0.8381       1290.186         0.8512        -61.832      -6.096779      0.8543777
      4037.5000         0.8413        1283.08         0.8533       -59.6919      -3.968151      0.9151957
      4038.0000         0.8315       1277.637         0.8555       -57.6144      -1.902126       0.974225
      4038.5000          0.818       1272.195         0.8576       -56.1439     -0.4431076              1
      4039.0000         0.8012       1264.627         0.8597       -54.6421       1.047218              1
      4039.5000         0.7736       1242.387         0.8618       -53.4935       2.184345              1
      4040.0000         0.9921       1190.395         0.8932       -53.1797       2.486668              1
      4040.5000         1.0172       1141.623         0.9319       -53.4654       2.189491              1
      4041.0000         1.0117       1094.998         0.9628       -53.8364       1.807018              1
      4041.5000         1.0023       1045.713         0.9831       -54.3301       1.301838              1
      4042.0000         0.9877       1032.191         1.0002       -54.8239       0.796566              1
      4042.5000          0.973       1023.138          1.007       -55.4625      0.1464882              1
      4043.0000         0.9581       1014.084         1.0093       -56.2059      -0.608387              1
      4043.5000         0.9627       996.4053         1.0058        -56.908      -1.321964       0.990801
      4044.0000         0.9797        978.915         1.0024       -57.6151      -2.040539      0.9702703
      4044.5000         0.9966       968.5068         0.9989       -56.4843     -0.9212151              1
      4045.0000         1.0135       970.9219         0.9951       -55.6652     -0.1135902              1
      4045.5000         1.0348       982.3965         0.9861       -54.9143      0.6258354              1
      4046.0000         1.0169       993.8789         0.9771       -54.2394       1.289257              1
      4046.5000         0.9937       1005.554         0.9681       -53.5868       1.930382              1
      4047.0000         0.9827       1019.481         0.9591       -53.2933       2.212406              1
      4047.5000         0.9735       1033.408         0.9502       -53.2927       2.201527              1
      4048.0000         0.9648        1046.35         0.9412       -53.4902       1.992554              1
      4048.5000         0.9571       1056.641         0.9326       -53.8518        1.61948              1
      4049.0000         0.9495       1066.936         0.9291       -54.2163         1.2435              1
      4049.5000         0.9397       1071.385         0.9257       -54.5804      0.8679276              1
      4050.0000           0.93       1075.061         0.9222       -54.9393       0.497551              1
      4050.5000         0.9279       1080.545         0.9187       -55.2691      0.1562729              1
