#------------------------------------------------------------------------------
# Created by    : vladimir.rabinovich
# Created on    : 09/19/2023 17:20:54
#------------------------------------------------------------------------------
~Version Information Section
VERS.           2.0     :   CWLS log ASCII Standard - VERSION 2.0
WRAP.           NO      :   One line per depth step
~Well Information Section
#MNEM       .UNIT                                         VALUE :DESCRIPTION
#------------------------------------------------------------------------------
STRT        .FT                                            2835 :START DEPTH
STOP        .FT                                            6351 :STOP DEPTH
STEP        .FT                                             0.5 :STEP      
NULL        .                                           -999.25 :NULL      
COMP        .                                   PENNZOIL CO INC :COMPANY   
WELL        .                                     ST TR 00659-L :WELL      
FLD         .                                           WILDCAT :FIELD     
LOC         .                                                   :LOCATION  
CNTY        .                      MATAGORDA ISLAND LARGE BLOCK :LOCATION  
STAT        .                                             TEXAS :STATE     
CTRY        .                                     UNITED STATES :COUNTRY   
SRVC        .                                                   :SERVICE COMPANY
DATE        .                             9/13/2023 11:19:13 AM :LOG DATE  
API         .                                    42703300020000 :API NUMBER
UWI         .                                    42703300020000 :UNIQUE WELL ID
XCOORD      .                                  437819.375414617 :SURFACE X 
YCOORD      .                                  10187782.3810297 :SURFACE Y 
LAT         .                                        28.0235144 :LATITUDE  
LON         .                                       -96.7273206 :LONGITUDE 
ELEV        .FT                                              73 :ELEVATION VALUE
ELEV_TYPE   .                                                KB :ELEVATION REFERENCE TYPE
~Curve Information Section
#MNEM       .UNIT                                      API CODE :CURVE DESCRIPTION
#------------------------------------------------------------------------------
DEPT        .FT                                                 :DEPTH     
ASN         .OHMM                                               :          
CILD        .MMHO                                               :          
ILD         .OHMM                                               :          
SP          .MV                                                 :          
SP_NORM     .MV                                                 :SP Normalized
VSH_SP      .V/V                                                :Volume of Shale from SP
~A        DEPTH            ASN           CILD            ILD             SP        SP_NORM         VSH_SP
# ...
      3785.0000         0.9853       1879.082         0.6431       -82.2679      -22.59302      0.3830566
      3785.5000          0.932       2002.453         0.5953        -86.896       -27.2172      0.2509372
      3786.0000         0.8874        2045.24         0.5474       -89.4633      -29.78057       0.177698
      3786.5000         0.8637       2122.543         0.5135       -90.3859      -30.69924      0.1514502
      3787.0000         0.8497       2047.945         0.5104       -90.8412      -31.15062      0.1385538
      3787.5000         0.8356       1999.725         0.5073         -90.87      -31.17549      0.1378431
      3788.0000          0.822       2000.611         0.5254       -90.4952      -30.79676      0.1486639
      3788.5000         0.8123       2001.498         0.5516       -90.1204      -30.41803      0.1594848
      3789.0000         0.8025       1923.848         0.5778       -89.7456      -30.03931      0.1703055
      3789.5000         0.7971        1640.48          0.616       -88.4855      -28.77528      0.2064206
      3790.0000         0.8007       1312.223         0.6651       -86.6278      -26.91366      0.2596098
      3790.5000         0.8078       1254.119         0.7142       -80.0242      -20.30613      0.4483963
      3791.0000         0.8399       1286.598         0.7709       -77.0408      -17.31881      0.5337484
      3791.5000         0.8794       1324.598          0.807       -66.9987      -7.272781      0.8207777
      3792.0000          0.928       1370.064         0.7975       -65.5721      -5.842251        0.86165
      3792.5000         0.9136       1407.477         0.7879        -64.276      -4.542229      0.8987935
      3793.0000         0.8833       1425.137         0.7784       -63.0375      -3.299797      0.9342915
      3793.5000          0.846       1426.258         0.7688       -62.1363      -2.394672      0.9601522
      3794.0000         0.8208       1425.439         0.7569       -61.3297      -1.584148        0.98331
      3794.5000         0.7966       1422.592         0.7442       -60.7888      -1.039322      0.9988765
      3795.0000         0.7762       1419.549         0.7315       -61.7828      -2.029392      0.9705888
      3795.5000           0.79       1416.504         0.7188       -63.3309      -3.573566      0.9264695
      3796.0000         0.8056       1413.461         0.7151       -65.7089      -5.947643      0.8586388
      3796.5000         0.8314       1409.822         0.7288       -68.0854      -8.320221      0.7908508
      3797.0000         0.8659       1402.996         0.7426       -70.5837      -10.81459       0.719583
      3797.5000         0.8965        1396.17         0.7571       -72.7261      -12.95306       0.658484
      3798.0000         0.9221       1389.344         0.7763       -75.8048      -16.02784      0.5706332
      3798.5000         0.9357       1382.518         0.7955       -80.7061      -20.92521      0.4307082
      3799.0000         0.9497       1342.584         0.8146       -85.4357      -25.65089       0.295689
      3799.5000         0.9676       1182.314         0.8338       -85.8782      -26.08945      0.2831585
      3800.0000         0.9768       1147.945         0.8543        -82.975      -23.18233      0.3662191
      3800.5000         0.9851       1095.189         0.8773       -79.7333      -19.93671      0.4589512
      3801.0000         0.9948        1035.42         0.9003       -67.4888      -7.688282      0.8089063
      3801.5000         1.0098       981.8135         0.9287       -65.6097      -5.805256       0.862707
      3802.0000         1.0249       940.4053         0.9775       -64.3362      -4.527824       0.899205
      3802.5000         1.0433       907.2891         1.0263       -63.2751      -3.462803      0.9296342
      3803.0000         1.0625       838.0254          1.076       -62.5377      -2.721478      0.9508149
      3803.5000         1.0929       782.8154         1.1269       -62.8918      -3.071651        0.94081
      3804.0000          1.171       758.5537         1.1778       -63.5546      -3.730522      0.9219851
      3804.5000         1.3218       787.0986         1.2261       -64.7229      -4.894897      0.8887172
      3805.0000         1.3833       829.6084         1.2713       -66.9097       -7.07777      0.8263494
      3805.5000         1.4291       866.4072         1.1803       -70.1312      -10.29535      0.7344186
      3806.0000         1.5503        912.875         1.0622       -73.8442      -14.00442      0.6284452
      3806.5000         1.5831       1031.061         0.9441       -77.3241      -17.48039      0.5291318
      3807.0000         1.4124       1111.723          0.826        -88.226      -28.37836       0.217761
      3807.5000         1.3429       1214.027         0.7577       -89.8092      -29.95764      0.1726389
      3808.0000         1.2809       1465.104         0.7333       -91.9452      -32.08971      0.1117225
      3808.5000         1.2505       1505.561         0.7183       -94.2855      -34.42609     0.04496896
      3809.0000          1.223       1383.467           0.71       -96.2737      -36.41036              0
      3809.5000         1.2141        1215.18         0.7181       -98.0186      -38.15134              0
      3810.0000         1.2828       1151.877         0.7457        -99.682      -39.81081              0
      3810.5000         1.6827       1109.619         0.8194       -100.788      -40.91288              0
      3811.0000         1.7309       1065.529          0.893      -101.0718      -41.19276              0
      3811.5000         1.7858       1012.524         0.9698      -101.0878      -41.20483              0
      3812.0000          1.941       926.9531          1.047      -101.0084      -41.12151              0
      3812.5000         2.0439       901.8906         1.1144       -100.698      -40.80718              0
      3813.0000         2.1198        883.542         1.1613      -100.3876      -40.49286              0
      3813.5000          2.175       869.8516         1.1886      -100.0337      -40.13503              0
      3814.0000         2.2403       856.7441         1.1987       -99.4592       -39.5566              0
      3814.5000         2.3137       845.7471         1.2088       -98.8848      -38.97828              0
      3815.0000         2.3855       842.9258         1.2137       -98.3101      -38.39964              0
      3815.5000         2.3717       847.7168         1.2088        -97.719      -37.80462              0
      3816.0000         2.3536       852.5078          1.204       -96.9757       -37.0574              0
      3816.5000         2.2764       854.6211         1.1992       -96.2329      -36.31067              0
      3817.0000         2.1806        850.873         1.1944       -95.4902      -35.56404     0.01245608
      3817.5000         2.0804       847.1279         1.1896       -94.8218      -34.89172     0.03166526
      3818.0000         2.0798       853.0684         1.1847       -94.1971      -34.26309     0.04962605
      3818.5000          2.108       867.8105         1.1799       -93.5726      -33.63467     0.06758096
      3819.0000         2.1361        916.457          1.136       -93.1255      -33.18364     0.08046734
      3819.5000         2.0865       1574.549         1.0584       -93.9553      -34.00951     0.05687114
      3820.0000         1.8073       1829.057         0.8367       -94.7858      -34.83608     0.03325479
      3820.5000         1.4249       2000.664         0.6977       -95.9164      -35.96276    0.001064083
      3821.0000         1.1419       2001.775         0.6194        -96.786      -36.82844              0
      3821.5000         1.0123       2002.885         0.5547       -96.5791      -36.61761              0
      3822.0000         0.9722       2003.996         0.5093       -96.1637      -36.19828              0
      3822.5000         0.9326       2004.551         0.4639       -95.6592      -35.68986    0.008861215
