#------------------------------------------------------------------------------
# Created by    : vladimir.rabinovich
# Created on    : 09/19/2023 17:20:49
#------------------------------------------------------------------------------
~Version Information Section
VERS.           2.0     :   CWLS log ASCII Standard - VERSION 2.0
WRAP.           NO      :   One line per depth step
~Well Information Section
#MNEM       .UNIT                                         VALUE :DESCRIPTION
#------------------------------------------------------------------------------
STRT        .FT                                            2010 :START DEPTH
STOP        .FT                                            6610 :STOP DEPTH
STEP        .FT                                             0.5 :STEP      
NULL        .                                           -999.25 :NULL      
COMP        .                                      SHELL OIL CO :COMPANY   
WELL        .                                ST TR 00691-L SE/4 :WELL      
FLD         .                                           WILDCAT :FIELD     
LOC         .                                                   :LOCATION  
CNTY        .                      MATAGORDA ISLAND LARGE BLOCK :LOCATION  
STAT        .                                             TEXAS :STATE     
CTRY        .                                     UNITED STATES :COUNTRY   
SRVC        .                                                   :SERVICE COMPANY
DATE        .                             9/13/2023 11:12:05 AM :LOG DATE  
API         .                                    42703000190000 :API NUMBER
UWI         .                                    42703000190000 :UNIQUE WELL ID
XCOORD      .                                  412077.623085271 :SURFACE X 
YCOORD      .                                  10154908.2726125 :SURFACE Y 
LAT         .                                        27.9310704 :LATITUDE  
LON         .                                         -96.80379 :LONGITUDE 
ELEV        .FT                                              82 :ELEVATION VALUE
ELEV_TYPE   .                                                DF :ELEVATION REFERENCE TYPE
~Curve Information Section
#MNEM       .UNIT                                      API CODE :CURVE DESCRIPTION
#------------------------------------------------------------------------------
DEPT        .FT                                                 :DEPTH     
ASN         .OHMM                                               :          
CILD        .MMHO                                               :          
ILD         .OHMM                                               :          
SP          .MV                                                 :          
SP_NORM     .MV                                                 :SP Normalized
VSH_SP      .V/V                                                :Volume of Shale from SP
~A        DEPTH            ASN           CILD            ILD             SP        SP_NORM         VSH_SP
# ...
      4746.0000         0.3608       3697.582         0.2739       -97.0753       -41.6411      0.1565723
      4746.5000         0.3524        3735.02         0.2703       -97.4717       -42.0409      0.1480659
      4747.0000         0.3441       3766.824         0.2667       -97.8682       -42.4408      0.1395575
      4747.5000         0.3357       3855.348         0.2637       -98.2274       -42.8034      0.1318426
      4748.0000         0.3281         3919.5          0.262        -98.582       -43.1614      0.1242255
      4748.5000          0.323       3980.156         0.2603       -98.9368       -43.5196      0.1166043
      4749.0000         0.3178       3975.984         0.2586       -99.2914       -43.8776      0.1089872
      4749.5000         0.3126       3961.449         0.2569        -99.646       -44.2356      0.1013702
      4750.0000         0.3074       3941.363         0.2552       -99.9006       -44.4936     0.09588087
      4750.5000         0.3022       3915.465         0.2535      -100.0166        -44.613     0.09334045
      4751.0000         0.2985       3878.789         0.2518      -100.1327       -44.7325     0.09079791
      4751.5000         0.2957       3841.156           0.25      -100.2485       -44.8517     0.08826171
      4752.0000          0.293       3817.621         0.2483      -100.3646       -44.9712     0.08571917
      4752.5000         0.2902       3787.477         0.2466      -100.4805       -45.0905     0.08318085
      4753.0000         0.2875       3752.805         0.2449      -100.5966         -45.21     0.08063832
      4753.5000         0.2851       3706.711         0.2432      -100.7125       -45.3293         0.0781
      4754.0000         0.2853       3676.348         0.2415      -100.8127       -45.4329     0.07589576
      4754.5000         0.2854       3683.688         0.2398      -100.8069       -45.4305     0.07594681
      4755.0000         0.2856       3691.523         0.2381       -100.801        -45.428     0.07599997
      4755.5000         0.2832       3699.355         0.2364       -100.795       -45.4254     0.07605533
      4756.0000           0.28       3707.191         0.2347      -100.7892        -45.423     0.07610638
      4756.5000         0.2767       3715.027          0.233      -100.7833       -45.4205     0.07615954
      4757.0000         0.2735       3721.793         0.2317      -100.7775       -45.4181     0.07621067
      4757.5000         0.2703       3726.723         0.2326      -100.7716       -45.4156     0.07626383
      4758.0000          0.267       3731.652         0.2336      -100.7657       -45.4131       0.076317
      4758.5000         0.2638       3737.457         0.2345      -100.7599       -45.4107     0.07636805
      4759.0000         0.2608       3743.754         0.2355      -100.7329       -45.3871     0.07687021
      4759.5000         0.2577       3739.984         0.2364      -100.6268       -45.2843     0.07905741
      4760.0000         0.2547        3726.48         0.2374      -100.5208       -45.1817     0.08124039
      4760.5000         0.2516       3707.836         0.2383      -100.4148       -45.0791     0.08342337
      4761.0000         0.2486        3682.34         0.2393      -100.3086       -44.9763     0.08561065
      4761.5000         0.2455       3656.746         0.2402      -100.2026       -44.8737     0.08779363
      4762.0000         0.2425       3631.105         0.2412      -100.0966       -44.7711     0.08997662
      4762.5000         0.2394        3616.73         0.2421       -99.9905       -44.6684     0.09216171
      4763.0000         0.2364       3606.492         0.2431       -99.8845       -44.5658     0.09434469
      4763.5000         0.2372       3598.852          0.244       -99.7084       -44.3931     0.09801913
      4764.0000         0.2396       3592.465          0.245       -99.5193       -44.2074      0.1019702
      4764.5000         0.2419       3582.758         0.2459         -99.33       -44.0215      0.1059255
      4765.0000         0.2443       3562.844         0.2472       -99.1407       -43.8356      0.1098808
      4765.5000         0.2478       3548.797         0.2494       -98.9517         -43.65      0.1138298
      4766.0000         0.2523       3536.648         0.2515       -98.7625       -43.4642       0.117783
      4766.5000         0.2568       3526.871         0.2536       -98.5734       -43.2785      0.1217341
      4767.0000         0.2614       3518.789         0.2558       -98.3662       -43.0747      0.1260702
      4767.5000         0.2659       3514.941         0.2579        -98.149       -42.8609      0.1306191
      4768.0000         0.2704       3512.184         0.2601       -97.9321       -42.6474      0.1351617
      4768.5000          0.275       3527.391         0.2622        -97.715       -42.4337      0.1397085
      4769.0000         0.2795       3552.188         0.2644        -97.498       -42.2201      0.1442532
      4769.5000          0.284       3572.102         0.2665       -97.2719       -41.9974      0.1489915
      4770.0000         0.2885       3593.254         0.2687       -97.0339       -41.7628       0.153983
      4770.5000         0.2924       3621.051         0.2708       -97.0818       -41.8141      0.1528915
      4771.0000          0.296        3657.41         0.2729       -97.2946       -42.0303      0.1482915
      4771.5000         0.2995       3823.688         0.2751       -97.5073       -42.2464      0.1436936
      4772.0000         0.3031       3879.961         0.2772       -97.7202       -42.4627      0.1390915
      4772.5000         0.3066       3927.258         0.2774       -97.9447       -42.6906      0.1342425
      4773.0000         0.3102        4053.75         0.2771       -98.1708       -42.9201      0.1293595
      4773.5000         0.3137       4130.406         0.2768       -98.3967       -43.1494      0.1244809
      4774.0000         0.3173       4188.883         0.2766       -98.7628       -43.5189      0.1166191
      4774.5000         0.3208       4247.406         0.2763       -99.2373       -43.9968      0.1064511
      4775.0000         0.3244       4305.938          0.276       -99.7114       -44.4743     0.09629148
      4775.5000         0.3279       4341.867         0.2757      -100.1859       -44.9522     0.08612336
      4776.0000         0.3302       4321.703         0.2754      -100.6604       -45.4301     0.07595533
      4776.5000         0.3316       4301.547         0.2751      -101.1387       -45.9118     0.06570637
      4777.0000         0.3329       4281.398         0.2749      -101.6172       -46.3937      0.0554532
      4777.5000         0.3343       4261.234         0.2746      -102.0956       -46.8755     0.04520213
      4778.0000         0.3357        4241.07         0.2743      -102.1144       -46.8977     0.04472976
      4778.5000          0.337       4220.922          0.274      -101.8228       -46.6095     0.05086168
      4779.0000         0.3384       4202.484         0.2724      -101.5314       -46.3215     0.05698939
      4779.5000         0.3387       4224.016         0.2706      -101.2397       -46.0332     0.06312342
      4780.0000         0.3375       4245.523         0.2689      -100.9438       -45.7407     0.06934682
      4780.5000         0.3363       4267.055         0.2671      -100.6294       -45.4296     0.07596596
      4781.0000         0.3351       4288.563         0.2654      -100.3151       -45.1187     0.08258089
      4781.5000          0.334       4310.094         0.2636      -100.0006       -44.8076     0.08920004
      4782.0000         0.3328       4331.602         0.2619       -99.6863       -44.4967     0.09581489
      4782.5000         0.3316       4353.133         0.2601       -99.3718       -44.1856       0.102434
      4783.0000         0.3304       4374.641         0.2584       -99.0575       -43.8747       0.109049
      4783.5000         0.3292       4396.172         0.2566       -98.9475       -43.7681       0.111317
