#------------------------------------------------------------------------------
# Created by    : vladimir.rabinovich
# Created on    : 09/19/2023 17:20:09
#------------------------------------------------------------------------------
~Version Information Section
VERS.           2.0     :   CWLS log ASCII Standard - VERSION 2.0
WRAP.           NO      :   One line per depth step
~Well Information Section
#MNEM       .UNIT                                         VALUE :DESCRIPTION
#------------------------------------------------------------------------------
STRT        .FT                                            1853 :START DEPTH
STOP        .FT                                            6238 :STOP DEPTH
STEP        .FT                                             0.5 :STEP      
NULL        .                                           -999.25 :NULL      
COMP        .               LOUISIANA LAND & EXPLORATION CO THE :COMPANY   
WELL        .                                          SL 79258 :WELL      
FLD         .                                           WILDCAT :FIELD     
LOC         .                                                   :LOCATION  
CNTY        .                      MATAGORDA ISLAND LARGE BLOCK :LOCATION  
STAT        .                                             TEXAS :STATE     
CTRY        .                                     UNITED STATES :COUNTRY   
SRVC        .                                                   :SERVICE COMPANY
DATE        .                             9/13/2023 11:12:01 AM :LOG DATE  
API         .                                    42703301870000 :API NUMBER
UWI         .                                    42703301870000 :UNIQUE WELL ID
XCOORD      .                                  470651.272343367 :SURFACE X 
YCOORD      .                                  10209272.4173218 :SURFACE Y 
LAT         .                                        28.0852496 :LATITUDE  
LON         .                                       -96.6277134 :LONGITUDE 
ELEV        .FT                                              82 :ELEVATION VALUE
ELEV_TYPE   .                                                KB :ELEVATION REFERENCE TYPE
~Curve Information Section
#MNEM       .UNIT                                      API CODE :CURVE DESCRIPTION
#------------------------------------------------------------------------------
DEPT        .FT                                                 :DEPTH     
ASFL        .OHMM                                               :          
CILD        .MMHO                                               :          
ILD         .OHMM                                               :          
SP          .MV                                                 :          
SP_NORM     .MV                                                 :SP Normalized
VSH_SP      .V/V                                                :Volume of Shale from SP
~A        DEPTH           ASFL           CILD            ILD             SP        SP_NORM         VSH_SP
# ...
      5881.0000         1.2055       1023.219         0.9849       -51.0556      -5.303532       0.920305
      5881.5000         1.2034       948.8711         1.0368       -51.6675      -5.923088      0.9088317
      5882.0000         1.1756       910.3223          1.088       -52.7996      -7.062847      0.8877251
      5882.5000         1.1492       890.1885         1.1335       -53.9317      -8.202606      0.8666184
      5883.0000         1.1204       867.5752         1.1964       -52.2905      -6.569065      0.8968692
      5883.5000         1.2674       863.8545         1.2577       -48.3677      -2.653919      0.9693719
      5884.0000          1.359       878.8203         1.3176       -47.4127      -1.706581      0.9869152
      5884.5000         1.6763       837.3496         1.3739       -49.5153      -3.816837      0.9478363
      5885.0000         1.8586       793.8408         1.4201       -50.3966      -4.705795      0.9313741
      5885.5000         2.0536       764.4512         1.4663       -51.5077      -5.824554      0.9106564
      5886.0000         2.1159       737.2207         1.5125       -53.6208      -7.945313      0.8713831
      5886.5000         2.1956       712.1035         1.5594       -55.1617       -9.49387      0.8427061
      5887.0000         2.1924       688.3105         1.6074       -56.7868      -11.12663      0.8124698
      5887.5000         2.1254       665.0342         1.6554       -58.7438      -13.09129      0.7760873
      5888.0000         1.6649       670.4854         1.5083       -60.9462      -15.30135      0.7351603
      5888.5000         1.6145       697.0273         1.3403       -62.7187       -17.0815      0.7021945
      5889.0000         1.3517       723.5937         1.2074       -63.1398      -17.51026      0.6942544
      5889.5000         1.1405       867.9922         1.1438       -62.8339      -17.21202      0.6997775
      5890.0000         1.0276       929.5723         1.0801       -61.1852      -15.57098      0.7301671
      5890.5000         0.9672       999.3525         1.0164       -59.8066      -14.20003       0.755555
      5891.0000         0.8896       1080.279         0.9395       -58.4293      -12.83039      0.7809187
      5891.5000         0.8568       1147.703         0.8517       -59.0931      -13.50185      0.7684842
      5892.0000         0.8215       1214.145         0.7639       -77.3805      -31.79691      0.4296869
      5892.5000         0.7273       1665.631         0.7012       -83.7744      -38.19846      0.3111396
      5893.0000         0.7026       2018.807         0.6545        -86.222      -40.65372      0.2656718
      5893.5000         0.6803       2703.156         0.6078       -88.5085      -42.94788      0.2231874
      5894.0000         0.6428        3133.43          0.561        -91.028      -45.47504      0.1763882
      5894.5000         0.5909       3248.242         0.4965       -92.2388       -46.6935      0.1538241
      5895.0000         0.5767       3439.168          0.429       -92.3585      -46.82085      0.1514657
      5895.5000         0.5792       3645.711         0.3919       -92.4784      -46.94841      0.1491034
      5896.0000         0.5826       3752.469         0.3586       -94.0354      -48.51307      0.1201283
      5896.5000         0.5912        3826.57         0.3343       -95.3917      -49.87703     0.09486982
      5897.0000         0.5999       3713.379           0.33       -96.5164      -51.00939     0.07390022
      5897.5000         0.6085       3655.531         0.3257       -97.2349      -51.73555     0.06045285
      5898.0000         0.6171       3597.684         0.3213       -96.2563       -50.7646     0.07843328
      5898.5000         0.6263       3544.941          0.317       -95.2765      -49.79246     0.09643597
      5899.0000         0.6366       3497.211          0.314        -94.298      -48.82161      0.1144146
      5899.5000          0.647       3419.523         0.3206       -93.0148      -47.54608      0.1380356
      5900.0000         0.6574       3378.715         0.3273       -94.5631      -49.10204      0.1092216
      5900.5000         0.6703       3242.543          0.334       -98.9652       -53.5118     0.02755935
      5901.0000         0.6563       2987.582         0.3406       -99.8248      -54.37905     0.01149912
      5901.5000         0.6658       2742.441         0.3698       -99.0482      -53.61011     0.02573868
      5902.0000         0.7053       2556.031         0.4006       -98.2146      -52.78416     0.04103399
      5902.5000         0.7607       2442.598         0.4337        -97.381      -51.95822     0.05632923
      5903.0000         0.9131       2336.918         0.4825       -95.1155      -49.70038     0.09814107
      5903.5000         0.9524       2209.535         0.5312       -91.9843      -46.57684      0.1559845
      5904.0000         0.9648       2041.002         0.5634       -88.6746       -43.2748      0.2171334
      5904.5000         0.7932       1894.664          0.589       -85.0608      -39.66866      0.2839138
      5905.0000         0.7327       1787.023         0.6084       -85.8783      -40.49382       0.268633
      5905.5000         0.7128       1704.818         0.5827       -86.6952      -41.31837      0.2533635
      5906.0000         0.6921       1611.811          0.557       -87.5127      -42.14353      0.2380828
      5906.5000         0.6686       1841.041         0.5313       -88.0664      -42.70489      0.2276873
      5907.0000         0.6423       2713.566         0.4622       -88.2125      -42.85865      0.2248399
      5907.5000         0.6132       2842.617         0.3799       -89.4995       -44.1533      0.2008648
      5908.0000         0.5846       3168.246         0.3413       -92.6553      -47.31676      0.1422823
      5908.5000         0.6338       3074.012         0.3293       -91.6498      -46.31892      0.1607607
      5909.0000         0.6682       2544.445         0.3172       -84.3739      -39.05068      0.2953578
      5909.5000         0.7025       2244.695         0.3079       -81.6316      -36.31604      0.3459993
      5910.0000         0.7686       1980.307         0.3431       -79.1617      -33.85379      0.3915965
      5910.5000         0.8665       1838.879         0.3783       -76.9148      -31.61456      0.4330638
      5911.0000         0.9843       1719.746         0.4168       -73.5345      -28.24191      0.4955202
      5911.5000         1.1339       1624.283         0.5113       -71.6729      -26.38797      0.5298524
      5912.0000         1.2451       1532.355         0.6044       -68.9999      -23.72263      0.5792106
      5912.5000         1.2748        1466.75         0.6323       -63.9016      -18.63198      0.6734818
      5913.0000         1.2989       1410.719         0.6604       -62.0114      -16.74944      0.7083437
      5913.5000         1.2666       1360.605         0.6884       -64.0675       -18.8132       0.670126
      5914.0000         1.2108       1329.766         0.7164       -66.0662      -20.81956      0.6329712
      5914.5000         1.1551       1298.951         0.7362         -65.71      -20.47102      0.6394256
      5915.0000         1.0235       1269.168         0.7542       -64.2881      -19.05677      0.6656153
      5915.5000         0.9855        1241.08         0.7722       -62.8673      -17.64363      0.6917846
      5916.0000         0.9474       1213.039         0.7902       -61.3153      -16.09929      0.7203835
      5916.5000         0.9092       1185.441         0.8078       -59.7175      -14.50915      0.7498306
      5917.0000          0.888       1184.594         0.8149       -57.8545       -12.6538      0.7841888
      5917.5000         0.8686       1194.648         0.8219       -57.7814      -12.58836      0.7854007
      5918.0000          0.852       1217.754         0.8227       -58.7773      -13.59192      0.7668163
      5918.5000         0.8369       1252.424         0.8051       -59.4387      -14.26098      0.7544262
