#------------------------------------------------------------------------------
# Created by    : vladimir.rabinovich
# Created on    : 09/19/2023 17:22:56
#------------------------------------------------------------------------------
~Version Information Section
VERS.           2.0     :   CWLS log ASCII Standard - VERSION 2.0
WRAP.           NO      :   One line per depth step
~Well Information Section
#MNEM       .UNIT                                         VALUE :DESCRIPTION
#------------------------------------------------------------------------------
STRT        .FT                                             513 :START DEPTH
STOP        .FT                                           16000 :STOP DEPTH
STEP        .FT                                             0.5 :STEP      
NULL        .                                           -999.25 :NULL      
COMP        .              PENNZOIL EXPLORATION & PRODUCTION CO :COMPANY   
WELL        .                                ST TR 00486-L SE/4 :WELL      
FLD         .                                           WILDCAT :FIELD     
LOC         .                                                   :LOCATION  
CNTY        .                      MATAGORDA ISLAND LARGE BLOCK :LOCATION  
STAT        .                                             TEXAS :STATE     
CTRY        .                                     UNITED STATES :COUNTRY   
SRVC        .                                                   :SERVICE COMPANY
DATE        .                             9/13/2023 11:19:05 AM :LOG DATE  
API         .                                    42703302080000 :API NUMBER
UWI         .                                    42703302080000 :UNIQUE WELL ID
XCOORD      .                                  648049.134083277 :SURFACE X 
YCOORD      .                                  10318924.3450998 :SURFACE Y 
LAT         .                                        28.3999658 :LATITUDE  
LON         .                                       -96.0869402 :LONGITUDE 
ELEV        .FT                                              47 :ELEVATION VALUE
ELEV_TYPE   .                                                KB :ELEVATION REFERENCE TYPE
~Curve Information Section
#MNEM       .UNIT                                      API CODE :CURVE DESCRIPTION
#------------------------------------------------------------------------------
DEPT        .FT                                                 :DEPTH     
SFL         .OHMM                                               :          
SP          .MV                                                 :          
SP_NORM     .MV                                                 :SP Normalized
VSH_SP      .V/V                                                :Volume of Shale from SP
~A        DEPTH            SFL             SP        SP_NORM         VSH_SP
# ...
     14929.0000         0.7521       -43.7918      -4.370213      0.9511563
     14929.5000         0.7882       -44.1631       -4.74062      0.9457881
     14930.0000         0.8114       -44.3604      -4.937023      0.9429417
     14930.5000          0.812       -43.9521      -4.527824      0.9488721
     14931.0000         0.7778       -43.9283      -4.503132        0.94923
     14931.5000         0.7332       -44.2997      -4.873638      0.9438603
     14932.0000          0.708       -44.5552      -5.128242      0.9401704
     14932.5000         0.7119       -44.6431      -5.215248      0.9389095
     14933.0000         0.7354       -44.4681      -5.039352      0.9414586
     14933.5000         0.7661       -44.2477      -4.818058      0.9446658
     14934.0000         0.7935       -43.2057      -3.775162      0.9597803
     14934.5000         0.8016        -42.676      -3.244564      0.9674701
     14935.0000         0.7891       -42.4029      -2.970573       0.971441
     14935.5000         0.7571       -42.2069      -2.773678      0.9742945
     14936.0000          0.708        -42.019      -2.584885      0.9770306
     14936.5000         0.6647       -41.7723      -2.337288       0.980619
     14937.0000         0.6309       -41.4648      -2.028893      0.9850885
     14937.5000         0.6073       -41.6365      -2.199699       0.982613
     14938.0000         0.5995       -42.0272        -2.5895      0.9769638
     14938.5000         0.6089       -42.3011      -2.862511      0.9730071
     14939.0000         0.6191       -42.4233      -2.983814       0.971249
     14939.5000         0.6495       -42.5209      -3.080517      0.9698476
     14940.0000         0.6908       -42.8717      -3.430424      0.9647765
     14940.5000         0.6993        -42.855      -3.412827      0.9650315
     14941.0000         0.7022       -42.8262      -3.383133      0.9654619
     14941.5000          0.711       -42.4881      -3.044136      0.9703748
     14942.0000         0.7307       -42.0385      -2.593643      0.9769037
     14942.5000         0.7306       -41.6221       -2.17635      0.9829515
     14943.0000          0.708       -41.4085      -1.961853      0.9860601
     14943.5000         0.6804         -41.22      -1.772461      0.9888049
     14944.0000         0.6559       -40.9733      -1.524864      0.9923933
     14944.5000         0.6526       -40.8205      -1.371166      0.9946208
     14945.0000         0.6655       -40.9426      -1.492374      0.9928641
     14945.5000         0.6705       -41.1374      -1.686279       0.990054
     14946.0000         0.6571       -41.4035      -1.951485      0.9862103
     14946.5000         0.6244       -41.6753      -2.222389      0.9822842
     14947.0000         0.6148       -42.1913      -2.737492      0.9748189
     14947.5000          0.622        -42.726      -3.271301      0.9670826
     14948.0000         0.6542       -43.2646      -3.809002      0.9592898
     14948.5000         0.6867       -43.6315      -4.175011      0.9539853
     14949.0000         0.6898       -43.7518      -4.294415      0.9522549
     14949.5000          0.685       -43.8632      -4.404919      0.9506534
     14950.0000          0.683       -43.9089      -4.449726       0.950004
     14950.5000         0.6994       -43.2733      -3.813229      0.9592286
     14951.0000         0.7374       -42.5494      -3.088432      0.9697329
     14951.5000         0.7377       -42.3146      -2.852741      0.9731487
     14952.0000         0.7245       -42.1362      -2.673443      0.9757472
     14952.5000           0.71        -41.654       -2.19035      0.9827486
     14953.0000         0.6969       -41.2955      -1.830956      0.9879572
     14953.5000         0.6965        -41.458      -1.992558      0.9856151
     14954.0000         0.7281       -41.8281      -2.361763      0.9802643
     14954.5000          0.779       -42.2251       -2.75787      0.9745236
     14955.0000         0.8007       -42.8011      -3.332977      0.9661887
     14955.5000          0.805       -43.4787      -4.009678      0.9563815
     14956.0000         0.8229       -44.0874      -4.617481      0.9475727
     14956.5000         1.0524       -44.1871       -4.71629      0.9461407
     14957.0000         1.1421       -44.1675      -4.695793      0.9464378
     14957.5000         1.0952       -44.4694      -4.996799      0.9420754
     14958.0000         0.7305       -44.8288      -5.355305      0.9368796
     14958.5000         0.7007       -44.5283      -5.053909      0.9412477
     14959.0000          0.733       -43.9785      -4.503216      0.9492288
     14959.5000         0.7242       -43.2545       -3.77832      0.9597345
     14960.0000         0.6975       -42.7699      -3.292828      0.9667706
     14960.5000         0.6581       -42.4217      -2.943729        0.97183
     14961.0000         0.6526       -42.0497      -2.570835      0.9772342
     14961.5000         0.6627       -41.8653       -2.38554      0.9799197
     14962.0000         0.6771        -42.076      -2.595345      0.9768791
     14962.5000         0.6946       -42.7473      -3.265751       0.967163
     14963.0000         0.7204       -43.2045      -3.722054        0.96055
     14963.5000         0.7394       -43.6271      -4.143761      0.9544383
     14964.0000         0.7313       -43.6647      -4.180466      0.9539063
     14964.5000         0.7137       -43.5266       -4.04147      0.9559208
     14965.0000         0.7051       -43.3782      -3.892174      0.9580845
     14965.5000         0.7293       -43.5232      -4.036282      0.9559959
     14966.0000         0.7483       -43.7637      -4.275883      0.9525234
     14966.5000         0.7541       -43.8641      -4.375393      0.9510813
     14967.0000          0.766       -43.7931      -4.303493      0.9521233
     14967.5000         0.8069       -43.9036      -4.413097      0.9505348
     14968.0000         0.9866       -44.0285      -4.537106      0.9487376
     14968.5000          1.035       -43.9026      -4.410309      0.9505752
     14969.0000         1.0012       -43.2358      -3.742619      0.9602519
     14969.5000         0.7846       -43.1423       -3.64822        0.96162
     14970.0000         0.7461       -43.5351      -4.040123      0.9559402
     14970.5000         0.7216       -43.9283       -4.43243      0.9502546
     14971.0000         0.6764       -44.2474      -4.750633       0.945643
     14971.5000         0.6538       -44.0893       -4.59164      0.9479473
     14972.0000          0.661       -43.6227      -4.124146      0.9547225
     14972.5000         0.7303       -43.6484      -4.148949       0.954363
     14973.0000         0.7226       -43.9446      -4.444256      0.9500833
     14973.5000         0.7179       -44.5696      -5.068359      0.9410383
     14974.0000         0.7237       -45.0893      -5.587166      0.9335194
     14974.5000          0.738       -45.8783      -6.375271      0.9220975
     14975.0000          0.759       -46.5321      -7.028175      0.9126351
     14975.5000         0.7875       -45.6952      -6.190384       0.924777
     14976.0000         0.8257       -45.7199      -6.214184      0.9244321
     14976.5000         0.8442       -45.8525      -6.345894      0.9225233
     14977.0000         0.8523       -45.8956      -6.388096      0.9219117
     14977.5000          0.857       -45.7681      -6.259701      0.9237725
     14978.0000         0.8592       -45.5615      -6.052208      0.9267796
     14978.5000         0.8596       -45.6322      -6.122009       0.925768
     14979.0000         0.8539       -45.7448      -6.233715       0.924149
     14979.5000         0.8224       -45.6607      -6.148724      0.9253808
     14980.0000           0.77       -45.4719      -5.959026        0.92813
     14980.5000          0.745       -45.2766      -5.762833      0.9309734
     14981.0000         0.7355       -45.1306      -5.615936      0.9331024
     14981.5000         0.7279       -45.0831      -5.567539      0.9338038
