#------------------------------------------------------------------------------
# Created by    : vladimir.rabinovich
# Created on    : 09/19/2023 17:19:49
#------------------------------------------------------------------------------
~Version Information Section
VERS.           2.0     :   CWLS log ASCII Standard - VERSION 2.0
WRAP.           NO      :   One line per depth step
~Well Information Section
#MNEM       .UNIT                                         VALUE :DESCRIPTION
#------------------------------------------------------------------------------
STRT        .FT                                            1295 :START DEPTH
STOP        .FT                                            4592 :STOP DEPTH
STEP        .FT                                             0.5 :STEP      
NULL        .                                           -999.25 :NULL      
COMP        .                     FREEPORT-MCMORAN OIL & GAS CO :COMPANY   
WELL        .                                     ST TR 00662-L :WELL      
FLD         .                                         SIX-SIXTY :FIELD     
LOC         .                                                   :LOCATION  
CNTY        .                      MATAGORDA ISLAND LARGE BLOCK :LOCATION  
STAT        .                                             TEXAS :STATE     
CTRY        .                                     UNITED STATES :COUNTRY   
SRVC        .                                                   :SERVICE COMPANY
DATE        .                             9/13/2023 11:19:13 AM :LOG DATE  
API         .                                    42703300650000 :API NUMBER
UWI         .                                    42703300650000 :UNIQUE WELL ID
XCOORD      .                                  434889.841251994 :SURFACE X 
YCOORD      .                                  10179416.4588751 :SURFACE Y 
LAT         .                                        28.0002971 :LATITUDE  
LON         .                                       -96.7355909 :LONGITUDE 
ELEV        .FT                                              77 :ELEVATION VALUE
ELEV_TYPE   .                                                KB :ELEVATION REFERENCE TYPE
~Curve Information Section
#MNEM       .UNIT                                      API CODE :CURVE DESCRIPTION
#------------------------------------------------------------------------------
DEPT        .FT                                                 :DEPTH     
ASFL        .OHMM                                               :          
CILD        .MMHO                                               :          
ILD         .OHMM                                               :          
SFL         .OHMM                                               :          
SP          .MV                                                 :          
SP_NORM     .MV                                                 :SP Normalized
VSH_SP      .V/V                                                :Volume of Shale from SP
~A        DEPTH           ASFL           CILD            ILD            SFL             SP        SP_NORM         VSH_SP
# ...
      4343.5000         0.6114       1258.535         0.6936         0.6507       -41.1931      -9.867798      0.8496984
      4344.0000         0.6233       1385.887          0.633         0.6314       -47.2161       -15.8908      0.7476136
      4344.5000           0.64        1519.82         0.5457         0.6256       -53.5526       -22.2273      0.6402153
      4345.0000         0.6594       1653.654         0.4879         0.6343       -56.8293        -25.504       0.584678
      4345.5000         0.6818       2207.996         0.4399         0.6557       -56.1532       -24.8279      0.5961373
      4346.0000         0.6974       2271.547          0.396         0.6771       -54.0423        -22.717      0.6319153
      4346.5000         0.7108       2549.711          0.368         0.6928       -51.9314       -20.6061      0.6676933
      4347.0000         0.7207       2359.055         0.3522         0.6981       -49.8205       -18.4952      0.7034712
      4347.5000         0.7272       1987.547         0.3744         0.7033       -47.7084       -16.3831      0.7392695
      4348.0000         0.7316       1860.443         0.3981         0.7085       -68.6349       -37.3096       0.384583
      4348.5000         0.7221        1768.73         0.4265         0.7138       -70.5237      -39.19839      0.3525696
      4349.0000         0.6931       1708.842         0.4548         0.6906       -71.7124       -40.3871       0.332422
      4349.5000         0.6599       1696.486         0.4831         0.6489       -72.9973        -41.672      0.3106441
      4350.0000         0.5836       1727.254          0.513         0.6066       -74.4285       -43.1032      0.2863865
      4350.5000         0.5362       1810.455         0.4971         0.5562       -76.6799       -45.3546      0.2482271
      4351.0000         0.5074       2100.988          0.459          0.509       -78.1753         -46.85      0.2228814
      4351.5000         0.4827       2437.949         0.4188         0.4891       -79.0604       -47.7351      0.2078797
      4352.0000         0.4655       2631.477         0.3787         0.4693       -79.7588      -48.43349      0.1960425
      4352.5000         0.4829       2733.832         0.3427         0.4658       -79.2091       -47.8838      0.2053594
      4353.0000         0.5002       2886.027         0.3266          0.476       -77.5498      -46.22449      0.2334831
      4353.5000         0.5167       2982.199         0.3104         0.4862        -75.434       -44.1087      0.2693441
      4354.0000         0.5328       3059.508         0.2943         0.4939       -73.8153         -42.49      0.2967797
      4354.5000         0.5253       3078.008         0.2781         0.5008       -70.3312       -39.0059      0.3558322
      4355.0000         0.4924       3102.988          0.262         0.4919       -67.9921       -36.6668       0.395478
      4355.5000         0.4635       3141.523         0.2513         0.4829       -77.6842      -46.35889      0.2312052
      4356.0000         0.4284       3218.289         0.2415          0.473       -86.6381       -55.3128     0.07944411
      4356.5000          0.417        3337.57         0.2317         0.4617       -86.1538       -54.8285     0.08765256
      4357.0000         0.4384       3756.301         0.2254         0.4505       -85.0669       -53.7416      0.1060746
      4357.5000         0.4591       3869.641         0.2207         0.4631       -83.8986       -52.5733      0.1258764
      4358.0000         0.4907       3923.543         0.2159         0.4877       -82.7135       -51.3882      0.1459627
      4358.5000         0.5364       3742.637         0.2353         0.5123       -81.3003        -49.975      0.1699153
      4359.0000         0.5861       3446.262         0.2753         0.5382       -79.3818       -48.0565      0.2024323
      4359.5000         0.6274       3150.281         0.3152         0.5782       -74.5826       -43.2573      0.2837746
      4360.0000         0.6648       2743.531         0.3576         0.6181       -72.5779       -41.2526      0.3177525
      4360.5000          0.702       2529.219         0.4044         0.6512       -68.5349      -37.20959      0.3862781
      4361.0000         0.7341       2033.281         0.4513         0.6681       -63.1534       -31.8281      0.4774899
      4361.5000         0.7191       1737.104         0.4981         0.6849       -61.2152       -29.8899      0.5103408
      4362.0000         0.7047       1650.486         0.5396         0.6829       -61.1933        -29.868      0.5107119
      4362.5000         0.6904       1597.725         0.5717         0.6791       -60.9447       -29.6194      0.5149255
      4363.0000         0.6767       1574.635         0.6038         0.6728       -60.5015       -29.1762      0.5224373
      4363.5000         0.6666       1631.729         0.6149         0.6663       -59.8982       -28.5729      0.5326627
      4364.0000         0.6833       1701.268          0.591         0.6599       -59.0377       -27.7124      0.5472475
      4364.5000         0.7028       1769.225         0.5647         0.6534       -57.9415       -26.6162      0.5658271
      4365.0000         0.7121        1925.48         0.5352         0.6484       -57.2037       -25.8784      0.5783322
      4365.5000         0.6924       2025.164         0.5056         0.6486       -56.6146       -25.2893       0.588317
      4366.0000         0.6743       2133.555         0.4761         0.6488       -57.6855       -26.3602      0.5701661
      4366.5000         0.6578       2217.945         0.4465         0.6491       -60.4096       -29.0843       0.523995
      4367.0000         0.6407        2278.18         0.4211         0.6379       -65.9194       -34.5941      0.4306085
      4367.5000         0.6232       2317.258         0.3961         0.6244       -69.0062       -37.6809      0.3782898
      4368.0000          0.617       2361.801         0.3773         0.6586       -70.4558       -39.1305      0.3537203
      4368.5000         0.6579       2400.902         0.3637         0.6928       -70.5607       -39.2354      0.3519424
      4369.0000         0.7364       2427.754         0.3501         0.7269       -68.7977       -37.4724      0.3818238
      4369.5000         0.9252        2254.82         0.3585         0.7611       -65.9318       -34.6065      0.4303983
      4370.0000         0.9787       2144.941          0.403         0.8028       -63.3286       -32.0033      0.4745204
      4370.5000         1.0175       2034.369         0.4475         0.8623       -62.0665       -30.7412      0.4959119
      4371.0000         1.0427       1917.857         0.4944         0.9218       -61.9021       -30.5768      0.4986984
      4371.5000         1.0649       1795.902         0.5419          0.971       -60.7242       -29.3989      0.5186628
      4372.0000         1.0895       1660.584         0.5935         1.0155       -54.8232       -23.4979      0.6186797
      4372.5000         1.1141       1478.541         0.6627         1.0611       -48.2648       -16.9395       0.729839
      4373.0000         1.1386       1361.238          0.732         1.1171       -45.8096       -14.4843      0.7714525
      4373.5000         1.2718       1283.629         0.8021         1.1731       -43.8443        -12.519      0.8047628
      4374.0000         1.3528       1201.566         0.8724         1.2358       -41.1683      -9.842999      0.8501187
      4374.5000         1.4327       1093.271         0.9279         1.2993       -39.6978      -8.372498      0.8750424
      4375.0000         1.5421       995.0742         0.9829         1.3578       -37.2994      -5.974098      0.9156932
      4375.5000         1.5495       910.7842         1.0309         1.4159        -36.139      -4.813698       0.935361
      4376.0000          1.481       844.5605         1.0669         1.4478       -35.3118      -3.986496      0.9493814
      4376.5000         1.3529       836.7275         1.1029         1.4157       -35.5691      -4.243797      0.9450204
