#------------------------------------------------------------------------------
# Created by    : vladimir.rabinovich
# Created on    : 09/19/2023 17:20:46
#------------------------------------------------------------------------------
~Version Information Section
VERS.           2.0     :   CWLS log ASCII Standard - VERSION 2.0
WRAP.           NO      :   One line per depth step
~Well Information Section
#MNEM       .UNIT                                         VALUE :DESCRIPTION
#------------------------------------------------------------------------------
STRT        .FT                                            1957 :START DEPTH
STOP        .FT                                            6608 :STOP DEPTH
STEP        .FT                                             0.5 :STEP      
NULL        .                                           -999.25 :NULL      
COMP        .                            HIGHLAND RESOURCES INC :COMPANY   
WELL        .                                     ST TR 00691-L :WELL      
FLD         .                                           WILDCAT :FIELD     
LOC         .                                                   :LOCATION  
CNTY        .                      MATAGORDA ISLAND LARGE BLOCK :LOCATION  
STAT        .                                             TEXAS :STATE     
CTRY        .                                     UNITED STATES :COUNTRY   
SRVC        .                                                   :SERVICE COMPANY
DATE        .                             9/13/2023 11:12:01 AM :LOG DATE  
API         .                                    42703000470000 :API NUMBER
UWI         .                                    42703000470000 :UNIQUE WELL ID
XCOORD      .                                  404407.912506245 :SURFACE X 
YCOORD      .                                  10154689.9311845 :SURFACE Y 
LAT         .                                        27.9298131 :LATITUDE  
LON         .                                       -96.8274765 :LONGITUDE 
ELEV        .FT                                              63 :ELEVATION VALUE
ELEV_TYPE   .                                                KB :ELEVATION REFERENCE TYPE
~Curve Information Section
#MNEM       .UNIT                                      API CODE :CURVE DESCRIPTION
#------------------------------------------------------------------------------
DEPT        .FT                                                 :DEPTH     
ASN         .OHMM                                               :          
CILD        .MMHO                                               :          
ILD         .OHMM                                               :          
SP          .MV                                                 :          
SP_NORM     .MV                                                 :SP Normalized
VSH_SP      .V/V                                                :Volume of Shale from SP
~A        DEPTH            ASN           CILD            ILD             SP        SP_NORM         VSH_SP
# ...
      2869.0000         1.0757       971.8936         1.1219         -74.13       -11.1878      0.8679387
      2869.5000         1.0633       981.3145         1.1059       -76.1718       -13.2225       0.835121
      2870.0000         1.0508       989.0713           1.09       -78.2125       -15.2562      0.8023193
      2870.5000         1.0469       980.1348         1.0741       -79.4489       -16.4856      0.7824903
      2871.0000         1.0482        966.708         1.0582        -79.509       -16.5386      0.7816355
      2871.5000         1.0452       953.2812         1.0422       -78.8756       -15.8982      0.7919645
      2872.0000         1.0422       939.8545         1.0316       -78.2422       -15.2577      0.8022951
      2872.5000         1.0391       926.4219         1.0229       -77.6088       -14.6173      0.8126242
      2873.0000         1.0361         931.75         1.0141       -76.9753       -13.9768      0.8229548
      2873.5000         1.0331        947.748         1.0053       -76.3419       -13.3363      0.8332855
      2874.0000         1.0301        963.752         0.9966       -75.7085       -12.6959      0.8436145
      2874.5000         1.0155       982.0029         0.9878       -75.0753       -12.0556      0.8539419
      2875.0000         1.0004       1002.557          0.979       -74.4419       -11.4152       0.864271
      2875.5000         0.9852       1023.123         0.9703       -73.8086       -10.7748         0.8746
      2876.0000           0.97       1043.678         0.9615       -73.1765       -10.1357      0.8849081
      2876.5000         0.9561       1064.244         0.9527       -72.6412        -9.5934      0.8936548
      2877.0000         0.9449       1084.797          0.944       -72.1058        -9.0509      0.9024048
      2877.5000         0.9338       1105.365         0.9362       -71.5707        -8.5088      0.9111484
      2878.0000         0.9239       1123.982         0.9288       -71.0883        -8.0193      0.9190435
      2878.5000         0.9189       1136.383         0.9214        -71.826          -8.75      0.9072581
      2879.0000          0.914       1148.781          0.914        -72.564         -9.481      0.8954678
      2879.5000         0.9095       1161.182         0.9067       -73.3018       -10.2117      0.8836823
      2880.0000         0.9055       1159.943         0.8993       -74.0397       -10.9426      0.8718935
      2880.5000         0.9093       1145.084         0.8919       -74.7776       -11.6734      0.8601065
      2881.0000         0.9139       1130.232         0.8845       -75.3096       -12.1984      0.8516387
      2881.5000         0.9186       1115.381         0.8771        -75.533       -12.4148      0.8481484
      2882.0000         0.9232       1100.521         0.8697       -75.7563        -12.631      0.8446613
      2882.5000         0.9248        1085.67         0.8646       -75.9797       -12.8474       0.841171
      2883.0000         0.9238       1070.811         0.8598       -76.2031       -13.0637      0.8376822
      2883.5000         0.9228       1059.262          0.855       -76.4266       -13.2802      0.8341903
      2884.0000         0.9218       1064.188         0.8501         -76.65       -13.4966         0.8307
      2884.5000         0.9208       1069.111         0.8453       -76.8733       -13.7128      0.8272129
      2885.0000         0.9198       1074.035         0.8405       -76.9519       -13.7844      0.8260581
      2885.5000         0.9188       1083.746         0.8356       -76.7698       -13.5952      0.8291097
      2886.0000         0.9177       1099.998         0.8308       -76.5878       -13.4062       0.832158
      2886.5000         0.9146       1116.258         0.8279       -76.4058       -13.2172      0.8352064
      2887.0000         0.9091       1132.518         0.8274       -76.2238       -13.0281      0.8382565
      2887.5000         0.9036        1148.77         0.8268       -76.0416       -12.8389      0.8413081
      2888.0000         0.8981       1165.029         0.8263       -75.8595       -12.6497      0.8443597
      2888.5000         0.8926       1181.281         0.8257       -75.6775       -12.4607      0.8474081
      2889.0000         0.8871       1194.449         0.8252       -75.4955       -12.2716      0.8504581
      2889.5000         0.8816        1190.83         0.8247       -75.3601       -12.1292      0.8527548
      2890.0000         0.8761       1187.211         0.8241       -75.2478       -12.0099       0.854679
      2890.5000         0.8706       1183.592         0.8236       -75.1355       -11.8905      0.8566048
      2891.0000         0.8724       1179.893          0.823       -75.0232       -11.7712       0.858529
      2891.5000         0.8776       1165.402         0.8225       -74.9109       -11.6518      0.8604549
      2892.0000         0.8828       1150.904          0.824       -74.7986       -11.5325       0.862379
      2892.5000          0.888       1136.408         0.8268       -74.6863       -11.4132      0.8643032
      2893.0000         0.8932       1121.916         0.8296        -74.574       -11.2938       0.866229
      2893.5000         0.9042       1107.418         0.8323        -74.538       -11.2508      0.8669226
      2894.0000         0.9174       1092.922         0.8351       -74.6224       -11.3281      0.8656758
      2894.5000         0.9307       1091.123         0.8379       -74.7069       -11.4056      0.8644258
      2895.0000         0.9439        1091.33         0.8406       -74.7914       -11.4831       0.858615
      2895.5000         0.9572       1091.535         0.8434       -74.8759       -11.5605       0.857325
      2896.0000         0.9623        1091.74         0.8462       -74.9603       -11.6379       0.856035
      2896.5000         0.9667       1092.689          0.849       -75.0448       -11.7153       0.854745
      2897.0000         0.9712       1095.182         0.8517       -74.8392       -11.5027      0.8582883
      2897.5000         0.9681       1097.676         0.8545       -74.6014       -11.2579      0.8623683
      2898.0000         0.9589        1100.17          0.856       -74.3635       -11.0129      0.8664517
      2898.5000         0.9497       1102.662         0.8566       -74.1259       -10.7683      0.8705283
      2899.0000         0.9405       1105.156         0.8571       -73.8879       -10.5232      0.8746133
      2899.5000         0.9313       1107.648         0.8577       -73.6501       -10.2784      0.8786933
      2900.0000         0.9221       1110.143         0.8583       -73.4124       -10.0336      0.8827733
      2900.5000         0.9159       1112.801         0.8589       -73.1746        -9.7888      0.8868533
      2901.0000          0.911       1115.973         0.8595       -72.9365        -9.5437      0.8909383
      2901.5000          0.906       1119.146         0.8601       -72.6776        -9.2777      0.8953717
      2902.0000         0.9011       1122.318         0.8607       -72.4186        -9.0117       0.899805
      2902.5000         0.8958       1125.492         0.8613       -72.1597        -8.7457      0.9042383
      2903.0000         0.8893       1128.666         0.8583       -71.9006        -8.4796      0.9086733
      2903.5000         0.8828        1150.42         0.8489       -71.6417        -8.2137       0.913105
      2904.0000         0.8763       1173.861         0.8395       -71.3827        -7.9476        0.91754
      2904.5000         0.8697       1197.316           0.83        -71.447        -8.0049       0.916585
      2905.0000         0.8632        1220.76         0.8206       -71.5558        -8.1066        0.91489
      2905.5000         0.8567       1244.189         0.8112       -71.6646        -8.2084      0.9131933
      2906.0000         0.8501       1266.947         0.8017       -71.9675        -8.5043      0.9082617
      2906.5000         0.8423       1289.691         0.7923       -72.4365        -8.9662      0.9005634
