#------------------------------------------------------------------------------
# Created by    : vladimir.rabinovich
# Created on    : 09/19/2023 17:20:54
#------------------------------------------------------------------------------
~Version Information Section
VERS.           2.0     :   CWLS log ASCII Standard - VERSION 2.0
WRAP.           NO      :   One line per depth step
~Well Information Section
#MNEM       .UNIT                                         VALUE :DESCRIPTION
#------------------------------------------------------------------------------
STRT        .FT                                            2835 :START DEPTH
STOP        .FT                                            6351 :STOP DEPTH
STEP        .FT                                             0.5 :STEP      
NULL        .                                           -999.25 :NULL      
COMP        .                                   PENNZOIL CO INC :COMPANY   
WELL        .                                     ST TR 00659-L :WELL      
FLD         .                                           WILDCAT :FIELD     
LOC         .                                                   :LOCATION  
CNTY        .                      MATAGORDA ISLAND LARGE BLOCK :LOCATION  
STAT        .                                             TEXAS :STATE     
CTRY        .                                     UNITED STATES :COUNTRY   
SRVC        .                                                   :SERVICE COMPANY
DATE        .                             9/13/2023 11:19:13 AM :LOG DATE  
API         .                                    42703300020000 :API NUMBER
UWI         .                                    42703300020000 :UNIQUE WELL ID
XCOORD      .                                  437819.375414617 :SURFACE X 
YCOORD      .                                  10187782.3810297 :SURFACE Y 
LAT         .                                        28.0235144 :LATITUDE  
LON         .                                       -96.7273206 :LONGITUDE 
ELEV        .FT                                              73 :ELEVATION VALUE
ELEV_TYPE   .                                                KB :ELEVATION REFERENCE TYPE
~Curve Information Section
#MNEM       .UNIT                                      API CODE :CURVE DESCRIPTION
#------------------------------------------------------------------------------
DEPT        .FT                                                 :DEPTH     
ASN         .OHMM                                               :          
CILD        .MMHO                                               :          
ILD         .OHMM                                               :          
SP          .MV                                                 :          
SP_NORM     .MV                                                 :SP Normalized
VSH_SP      .V/V                                                :Volume of Shale from SP
~A        DEPTH            ASN           CILD            ILD             SP        SP_NORM         VSH_SP
# ...
      3063.0000         1.0665       1021.417         0.9957       -60.0867      -2.255375      0.9619583
      3063.5000         1.0419       1038.814         0.9689       -58.1855     -0.3541756              1
      3064.0000         1.0174       1056.211         0.9546       -57.5439       0.287426              1
      3064.5000         1.0031       1069.025         0.9409       -56.9028       0.928524              1
      3065.0000         0.9888       1079.119         0.9272       -56.9268      0.9045258              1
      3065.5000         0.9814       1077.291         0.9349       -57.3271      0.5042267              1
      3066.0000         1.0067       1068.834         0.9484       -58.5424     -0.7110748              1
      3066.5000         1.0393       1059.273         0.9564       -59.7577      -1.926376       0.971928
      3067.0000         1.0931       1048.408         0.9558       -60.9128      -3.081474       0.936925
      3067.5000         1.1644       1037.543         0.9552       -62.0623      -4.230976      0.9020916
      3068.0000          1.203       1028.748         0.9546       -63.2118      -5.380474      0.8672584
      3068.5000         1.2179       1025.148         0.9541       -65.5509      -7.719578      0.7963764
      3069.0000         1.2264       1030.986         0.9535       -67.8737      -10.04238      0.7259886
      3069.5000         1.2242       1046.268         0.9452       -69.3679      -11.53657        0.68071
      3070.0000         1.2074       1061.553         0.9353       -70.4578      -12.62648      0.6476825
      3070.5000         1.1884       1089.141         0.9254       -71.3867      -13.55538       0.619534
      3071.0000         1.1694       1121.455         0.9264       -72.3011      -14.46978      0.5918249
      3071.5000         1.1421       1147.514         0.9335        -73.203      -15.37168      0.5644946
      3072.0000          1.111       1136.021         0.9405       -71.5603      -13.72898      0.6142734
      3072.5000         1.0771       1124.529         0.9475       -69.7603      -11.92897       0.668819
      3073.0000         1.0414       1113.037         0.9546       -67.8987      -10.06737      0.7252312
      3073.5000         1.0046       1097.732         0.9616       -65.9771      -8.145771      0.7834615
      3074.0000         0.9663       1076.002         0.9724       -63.0664      -5.235073      0.8716645
      3074.5000         0.9672       1054.283         0.9837        -61.334      -3.502674      0.9241614
      3075.0000         0.9804       1029.508         0.9951       -60.7446      -2.913273       0.942022
      3075.5000         1.0026       992.2344         1.0064       -60.3702      -2.538876      0.9533674
      3076.0000         1.0247       953.6816         1.0177       -60.2115      -2.380173      0.9581766
      3076.5000         1.0468       913.8018         1.0317       -60.0527      -2.221375      0.9629887
      3077.0000         1.1294       924.4863         1.0373       -60.5527      -2.721375      0.9478371
      3077.5000         1.1798       945.6787          1.033       -61.3024      -3.471073       0.925119
      3078.0000         1.2052       985.8213         0.9976        -62.052      -4.220673      0.9024038
      3078.5000         1.2246        1045.74         0.9478       -64.6495      -6.818172      0.8236917
      3079.0000         1.2624       1111.873          0.889       -67.9388      -10.10747       0.724016
      3079.5000         1.2576       1264.828          0.822       -73.7715      -15.94017      0.5472674
      3080.0000         1.2113       1367.334          0.755        -81.215      -23.38367       0.321707
      3080.5000          1.168       1526.076         0.6963       -82.5519      -24.72058      0.2811946
      3081.0000         1.1175       1566.482         0.6409       -83.8568      -26.02547      0.2416524
      3081.5000         1.0651       1604.459         0.6232         -84.99      -27.15867       0.207313
      3082.0000         1.0342       1643.963         0.6056       -85.9086      -28.07727      0.1794765
      3082.5000         1.0173       1647.803          0.588       -86.4315      -28.60018       0.163631
      3083.0000         1.0169       1651.641         0.5754        -87.106      -29.27468      0.1431916
      3083.5000         1.0346       1655.482         0.5655       -88.0499      -30.21857      0.1145888
      3084.0000          1.059       1660.051         0.5556       -88.4388      -30.60747      0.1028039
      3084.5000         1.0856       1669.025         0.5457       -88.8016      -30.97027     0.09180994
      3085.0000         1.1044       1680.986         0.5357       -88.8881      -31.05677     0.08918867
      3085.5000         1.0917       1698.346         0.5258       -88.7416      -30.91027     0.09362805
      3086.0000         1.0737       1727.053         0.5171       -88.2247      -30.39338      0.1092917
      3086.5000         1.0537       1779.158         0.5112        -87.765      -29.93367       0.123222
      3087.0000         1.0298       1889.328         0.5053       -87.5289      -29.69757      0.1303765
      3087.5000         0.9907       1934.355         0.4993       -87.2926      -29.46128      0.1375371
      3088.0000         0.9571       1962.123         0.4934       -87.3873      -29.55597      0.1346675
      3088.5000         0.9267       1993.912         0.4875       -87.5505      -29.71917       0.129722
      3089.0000         0.9019       2076.727         0.4815       -87.7135      -29.88218      0.1247826
      3089.5000         0.8759       2130.836         0.4756       -87.8767      -30.04538      0.1198371
      3090.0000         0.8311       2178.328         0.4697       -88.0397      -30.20838      0.1148976
      3090.5000         0.7885       2226.277         0.4657       -88.2028      -30.37147      0.1099554
      3091.0000         0.7468       2262.473         0.4623       -88.4631      -30.63177      0.1020675
      3091.5000         0.7325       2292.371          0.459       -88.7716      -30.94027     0.09271899
      3092.0000         0.7385       2313.105         0.4556       -89.0801      -31.24878     0.08337044
      3092.5000         0.7444       2329.258         0.4538       -89.3887      -31.55738     0.07401888
      3093.0000           0.75        2341.48         0.4583       -89.6974      -31.86608     0.06466432
      3093.5000         0.7557       2312.523         0.4628       -90.0059      -32.17457       0.055316
      3094.0000         0.7614        2194.18         0.4674       -90.3143      -32.48298     0.04597045
      3094.5000          0.767       2179.477         0.4719       -90.6563      -32.82498     0.03560673
      3095.0000         0.7727       2164.777         0.4764        -91.002      -33.17067     0.02513111
      3095.5000         0.7781       2151.914         0.4809       -91.3477      -33.51638     0.01465526
      3096.0000         0.7833        2178.18         0.4819       -91.6932      -33.86187    0.004185648
      3096.5000         0.7885       2237.801          0.482       -91.9355      -34.10418              0
      3097.0000         0.7934       2298.145         0.4822       -92.1377      -34.30638              0
      3097.5000         0.7944       2359.895         0.4823       -92.2833      -34.45198              0
      3098.0000         0.7912       2400.727         0.4711       -92.0684      -34.23707              0
      3098.5000         0.7765       2445.539         0.4535       -91.8534      -34.02208              0
      3099.0000         0.7588        2507.34         0.4358       -91.6384      -33.80707    0.005846313
      3099.5000         0.7343       2541.957         0.4238       -90.9296      -33.09828     0.02732491
      3100.0000         0.7097       2588.477         0.4268       -90.2047      -32.37337     0.04929179
      3100.5000         0.6789       2629.469         0.4298       -89.4795      -31.64817     0.07126745
