#------------------------------------------------------------------------------
# Created by    : vladimir.rabinovich
# Created on    : 09/19/2023 17:20:49
#------------------------------------------------------------------------------
~Version Information Section
VERS.           2.0     :   CWLS log ASCII Standard - VERSION 2.0
WRAP.           NO      :   One line per depth step
~Well Information Section
#MNEM       .UNIT                                         VALUE :DESCRIPTION
#------------------------------------------------------------------------------
STRT        .FT                                             556 :START DEPTH
STOP        .FT                                            7001 :STOP DEPTH
STEP        .FT                                             0.5 :STEP      
NULL        .                                           -999.25 :NULL      
COMP        .                          HUMBLE OIL & REFINING CO :COMPANY   
WELL        .                                     ST TR 00598-L :WELL      
FLD         .                                           WILDCAT :FIELD     
LOC         .                                                   :LOCATION  
CNTY        .                      MATAGORDA ISLAND LARGE BLOCK :LOCATION  
STAT        .                                             TEXAS :STATE     
CTRY        .                                     UNITED STATES :COUNTRY   
SRVC        .                                                   :SERVICE COMPANY
DATE        .                             9/13/2023 11:12:05 AM :LOG DATE  
API         .                                    42703000080000 :API NUMBER
UWI         .                                    42703000080000 :UNIQUE WELL ID
XCOORD      .                                  502144.869554487 :SURFACE X 
YCOORD      .                                  10234432.9570627 :SURFACE Y 
LAT         .                                        28.1568958 :LATITUDE  
LON         .                                       -96.5324651 :LONGITUDE 
ELEV        .FT                                              15 :ELEVATION VALUE
ELEV_TYPE   .                                                KB :ELEVATION REFERENCE TYPE
~Curve Information Section
#MNEM       .UNIT                                      API CODE :CURVE DESCRIPTION
#------------------------------------------------------------------------------
DEPT        .FT                                                 :DEPTH     
ASN         .OHMM                                               :          
CALI        .IN                                                 :          
CILD        .MMHO                                               :          
DT          .US/F                                               :          
ILD         .OHMM                                               :          
SP          .MV                                                 :          
SP_NORM     .MV                                                 :SP Normalized
VSH_SP      .V/V                                                :Volume of Shale from SP
~A        DEPTH            ASN           CALI           CILD             DT            ILD             SP        SP_NORM         VSH_SP
# ...
       969.0000         0.7114        14.9838        1490.57       169.4795          0.713       -70.2769        -5.8859      0.5877286
       969.5000         0.6914        14.9958       1520.164       170.7063         0.7035       -70.1945        -5.8094      0.5986571
       970.0000         0.6809        14.9949       1536.543       173.1296         0.6941       -70.0701        -5.6908         0.6156
       970.5000         0.6731        14.9984       1543.418       177.4958         0.6847        -69.894        -5.5205      0.6399285
       971.0000         0.6653        14.9981       1540.414       185.7861         0.6753       -69.7181        -5.3504      0.6642286
       971.5000         0.6576        14.9877       1517.041       188.8655         0.6658       -69.5422        -5.1803      0.6885285
       972.0000         0.6498        14.9787       1478.771       191.6533         0.6564       -69.3663        -5.0102      0.7128286
       972.5000          0.642        14.9842       1449.057       192.9888         0.6584       -69.1903          -4.84      0.7371429
       973.0000          0.639        14.9968        1421.24        194.574         0.6639       -69.0596        -4.7151      0.7549857
       973.5000         0.6361        15.0225       1393.916       195.1292         0.6694       -69.0332        -4.6945      0.7579286
       974.0000         0.6333        15.0501       1372.201       195.5393         0.6749       -69.0068        -4.6739      0.7608714
       974.5000         0.6305        15.0685       1366.164       196.4089         0.6805       -68.9805        -4.6535      0.7637857
       975.0000         0.6277        15.0818       1389.074        -999.25          0.686       -68.9829        -4.6617      0.7626143
       975.5000          0.627        15.0929       1417.861        -999.25         0.6915       -69.2001        -4.8847      0.7307572
       976.0000         0.6304        15.1051       1436.572       195.7322          0.697       -69.4172        -5.1076      0.6989142
       976.5000         0.6339        15.1213         1254.4       193.7322         0.7026       -69.6344        -5.3306      0.6670572
       977.0000         0.6374        15.1298       1209.896       191.5249         0.7204       -69.7347        -5.4367         0.6519
       977.5000         0.6408        15.1295       1203.096       187.3286          0.749       -69.7201        -5.4279      0.6531572
       978.0000         0.6523        15.1258       1195.707       182.6155         0.7776       -69.6921        -5.4057      0.6563286
       978.5000         0.6709        15.1116       1187.918       177.3831         0.8062       -69.5599        -5.2793      0.6743857
       979.0000          0.689        15.0939       1156.713       172.8879         0.8347       -69.4277        -5.1529      0.6924428
       979.5000         0.7037        15.0768       1094.676       170.0413         0.8778       -69.2954        -5.0265      0.7104999
       980.0000         0.7184        15.0812       1045.107       167.6289         0.9266       -69.1632        -4.9001      0.7285571
       980.5000         0.7177        15.0917       1028.414       165.5398         0.9361       -69.1956        -4.9383         0.7231
       981.0000         0.7108        15.0893       1083.354        167.342         0.9056       -69.2849        -5.0334      0.7095143
       981.5000         0.6977        15.0824        1295.42       170.0876         0.8531       -69.3741        -5.1284      0.6959429
       982.0000         0.6841         15.075       1441.322       172.6372         0.8007       -69.4634        -5.2235      0.6823572
       982.5000         0.6704        15.0638         1477.1       174.9268         0.7482       -69.5839        -5.3498      0.6643143
       983.0000         0.6567        15.0515       1498.344       177.6807         0.6996       -69.7151        -5.4868      0.6447428
       983.5000         0.6507        15.0422       1508.664       181.1548         0.6876       -69.8464        -5.6239      0.6251572
       984.0000         0.6481        15.0448       1515.805       185.7649         0.6755       -69.9662        -5.7496         0.6072
       984.5000          0.648        15.0631       1516.043       186.9321         0.6634       -70.0142        -5.8034      0.5995143
       985.0000         0.6541          15.11       1510.883       185.0574         0.6513       -70.0621        -5.8571      0.5918428
       985.5000         0.6603        15.1272        1485.82       186.5686         0.6512       -70.1101        -5.9109      0.5841571
       986.0000         0.6664        15.1151       1454.674       187.0386         0.6641       -70.1582        -5.9648      0.5764571
       986.5000         0.6726        15.1038       1410.939       186.1665          0.677       -70.2977        -6.1101         0.5557
       987.0000         0.6787        15.0978       1359.174       185.2922         0.6899       -70.4426        -6.2608      0.5341715
       987.5000         0.6846        15.0974       1303.979       182.7339         0.7027       -70.5875        -6.4115      0.5126429
       988.0000         0.6857        15.1005        1247.15       181.9365         0.7156       -70.6644        -6.4942      0.5008286
       988.5000         0.6868        15.1025       1196.025       181.1714         0.7285       -70.3202        -6.1559      0.5491571
       989.0000         0.6879        15.1037       1165.992       180.3689         0.7407        -69.976        -5.8175         0.5975
       989.5000          0.689        15.1082        1173.15       179.8218          0.752       -69.6533        -5.5006      0.6427714
       990.0000         0.6901        15.1096       1195.447       182.3394         0.7634       -69.3368        -5.1899      0.6871572
       990.5000         0.6911        15.1134       1211.875       182.5513         0.7747       -69.0204        -4.8793      0.7315286
       991.0000         0.6906        15.1196       1226.555        180.271          0.786         -68.83        -4.6947      0.7579001
       991.5000         0.6879         15.135       1201.736       178.2852         0.7974         -69.09        -4.9605      0.7199286
       992.0000         0.6853        15.1362       1159.977       178.2158         0.8087       -69.3499        -5.2262      0.6819714
       992.5000         0.6826        15.1135       1118.119       180.9197         0.8184       -69.6637        -5.5458      0.6363143
       993.0000           0.68        15.0995       1087.146       183.2156         0.8277       -70.1892        -6.0771      0.5604143
       993.5000         0.6774        15.1336       1070.416       185.5933          0.837       -70.7148        -6.6086      0.4844857
       994.0000         0.6732        15.1656       1082.426       185.2571         0.8463       -70.6742        -6.5738      0.4894571
       994.5000         0.6669        15.1631       1152.359       181.0444         0.8549       -70.6169        -6.5223      0.4968143
       995.0000         0.6606        15.1415       1194.697       182.3372         0.8391       -70.5051        -6.4163      0.5119572
       995.5000         0.6543        15.1278       1186.189       184.7859         0.8234       -70.3923        -6.3093      0.5272428
       996.0000          0.648        15.1223       1187.596       186.5229         0.8076       -70.4307        -6.3535      0.5209286
       996.5000         0.6417        15.1268       1196.404       190.0244         0.7918       -70.5713        -6.4999      0.5000143
       997.0000         0.6349        15.1329        1236.91       187.6255          0.776       -70.7118        -6.6462      0.4791143
       997.5000         0.6261        15.1272       1295.762       188.4756         0.7562       -70.7983        -6.7385      0.4659286
       998.0000         0.6174        15.1165       1362.572       192.0034         0.7365       -70.8707        -6.8167      0.4547572
