#------------------------------------------------------------------------------
# Created by    : vladimir.rabinovich
# Created on    : 09/19/2023 17:20:46
#------------------------------------------------------------------------------
~Version Information Section
VERS.           2.0     :   CWLS log ASCII Standard - VERSION 2.0
WRAP.           NO      :   One line per depth step
~Well Information Section
#MNEM       .UNIT                                         VALUE :DESCRIPTION
#------------------------------------------------------------------------------
STRT        .FT                                            1957 :START DEPTH
STOP        .FT                                            6608 :STOP DEPTH
STEP        .FT                                             0.5 :STEP      
NULL        .                                           -999.25 :NULL      
COMP        .                            HIGHLAND RESOURCES INC :COMPANY   
WELL        .                                     ST TR 00691-L :WELL      
FLD         .                                           WILDCAT :FIELD     
LOC         .                                                   :LOCATION  
CNTY        .                      MATAGORDA ISLAND LARGE BLOCK :LOCATION  
STAT        .                                             TEXAS :STATE     
CTRY        .                                     UNITED STATES :COUNTRY   
SRVC        .                                                   :SERVICE COMPANY
DATE        .                             9/13/2023 11:12:01 AM :LOG DATE  
API         .                                    42703000470000 :API NUMBER
UWI         .                                    42703000470000 :UNIQUE WELL ID
XCOORD      .                                  404407.912506245 :SURFACE X 
YCOORD      .                                  10154689.9311845 :SURFACE Y 
LAT         .                                        27.9298131 :LATITUDE  
LON         .                                       -96.8274765 :LONGITUDE 
ELEV        .FT                                              63 :ELEVATION VALUE
ELEV_TYPE   .                                                KB :ELEVATION REFERENCE TYPE
~Curve Information Section
#MNEM       .UNIT                                      API CODE :CURVE DESCRIPTION
#------------------------------------------------------------------------------
DEPT        .FT                                                 :DEPTH     
ASN         .OHMM                                               :          
CILD        .MMHO                                               :          
ILD         .OHMM                                               :          
SP          .MV                                                 :          
SP_NORM     .MV                                                 :SP Normalized
VSH_SP      .V/V                                                :Volume of Shale from SP
~A        DEPTH            ASN           CILD            ILD             SP        SP_NORM         VSH_SP
# ...
      4427.0000         1.3136       771.2568         1.4679        -77.036       -15.9291      0.7914661
      4427.5000         1.2617       809.9258         1.3762       -78.6221       -17.5269      0.7656952
      4428.0000         1.2158       848.5937         1.2845       -80.3497       -19.2661      0.7376435
      4428.5000         1.1699       889.5029         1.1928       -82.0765       -21.0045      0.7096049
      4429.0000         1.1054       932.5029         1.1011       -83.4966       -22.4362      0.6865129
      4429.5000         0.9932       975.5039         1.0094       -81.7679       -20.7192      0.7142065
      4430.0000         0.9622       1018.654         0.9309       -80.0643       -19.0272      0.7414967
      4430.5000         0.9588       1061.979         0.8653       -78.3793       -17.3538      0.7684871
      4431.0000         0.9778       1139.041         0.8512       -76.6932       -15.6794      0.7954935
      4431.5000         0.9968       1171.434         0.8747       -75.0073       -14.0051      0.8224984
      4432.0000          1.017       1195.461         0.8983        -74.489       -13.4984       0.830671
      4432.5000         1.0418       1218.594         0.9218         -74.52        -13.541      0.8299839
      4433.0000         1.0667       1186.523         0.9454       -75.6158       -14.6485       0.812121
      4433.5000         1.0916       1154.453         0.9703       -76.7109       -15.7552      0.7942709
      4434.0000         1.1116       1122.408         0.9953       -77.8068       -16.8627      0.7764081
      4434.5000         1.1317       1088.297         1.0202       -78.9017       -17.9693      0.7585597
      4435.0000         1.1517       1053.811         1.0452       -79.9977       -19.0769      0.7406952
      4435.5000         1.1718       1019.302         1.0676       -80.2568       -19.3476       0.736329
      4436.0000         1.1878       984.8164         1.0641       -79.8286        -18.931      0.7430484
      4436.5000         1.1973       952.2861         1.0606       -79.4004       -18.5145      0.7497661
      4437.0000         1.2068       930.5117         1.0571       -78.9722       -18.0979      0.7564855
      4437.5000         1.2163       908.7373         1.0536       -78.5439       -17.6812      0.7632064
      4438.0000         1.2006       886.9629           1.05       -78.1157       -17.2647      0.7699242
      4438.5000         1.1825       865.7119         1.0454       -77.7587       -16.9193      0.7754952
      4439.0000         1.1643       846.4521         1.0329       -77.4413       -16.6135      0.7804274
      4439.5000         1.1461       827.2051         1.0203        -77.124       -16.3078      0.7853581
      4440.0000         1.1225       812.0049         1.0078       -76.8068       -16.0023      0.7902855
      4440.5000         1.0984       829.6699         0.9952       -76.4895       -15.6966      0.7952161
      4441.0000         1.0742       847.3242         0.9827       -76.1722       -15.3909      0.8001468
      4441.5000         1.0501       864.9893         0.9701       -75.5076        -14.738      0.8106774
      4442.0000         1.0327       888.5811         0.9576       -74.2124       -13.4544      0.8313807
      4442.5000         1.0198       919.4561          0.945       -72.9174        -12.171      0.8520806
      4443.0000          1.007       950.3564         0.9325       -71.6223       -10.8875      0.8727823
      4443.5000         0.9941       981.2305         0.9216       -70.3271         -9.604      0.8934839
      4444.0000         0.9832       1012.106         0.9164       -69.1108        -8.3993      0.9129145
      4444.5000         0.9759       1039.668         0.9112       -68.0918        -7.3919      0.9291629
      4445.0000         0.9685       1051.994          0.906       -67.0719        -6.3837      0.9454242
      4445.5000         0.9612       1064.307         0.9009       -66.1233        -5.4467      0.9605371
      4446.0000         0.9538       1076.631         0.8957       -65.5591        -4.8941        0.96945
      4446.5000         0.9465       1088.955         0.8905       -64.9945        -4.3412      0.9783677
      4447.0000         0.9392       1093.289         0.8854       -64.4303        -3.7886      0.9872807
      4447.5000         0.9324       1096.719         0.8804       -63.8662        -3.2361      0.9961919
      4448.0000         0.9304       1100.145         0.8758       -63.3016        -2.6831              1
      4448.5000         0.9284       1102.717         0.8713       -63.1876        -2.5808              1
      4449.0000         0.9263       1099.967         0.8667       -63.1647        -2.5695              1
      4449.5000         0.9243       1097.215         0.8622       -63.1418        -2.5582              1
      4450.0000         0.9223       1094.465         0.8577        -63.119        -2.5471              1
      4450.5000         0.9203       1092.787         0.8531       -63.0961        -2.5358              1
      4451.0000         0.9178       1097.967         0.8486       -63.0732        -2.5245              1
      4451.5000         0.9144       1103.145          0.844       -63.0503        -2.5132              1
      4452.0000         0.9111       1108.324         0.8395       -63.0274         -2.502              1
      4452.5000         0.9078       1113.504          0.835       -63.0045        -2.4907              1
      4453.0000         0.9045       1118.682         0.8322       -63.1266        -2.6244              1
      4453.5000         0.9012       1123.861         0.8329       -63.2819        -2.7914              1
      4454.0000         0.8979       1132.623         0.8336       -63.4371        -2.9582              1
      4454.5000         0.8946       1143.484         0.8343       -63.5924        -3.1251      0.9979823
      4455.0000         0.8913       1154.354          0.835       -63.7479        -3.2922      0.9952871
      4455.5000         0.8876       1165.215         0.8357       -63.9031        -3.4591      0.9925951
      4456.0000         0.8838       1176.084         0.8364       -64.0583        -3.6259      0.9899048
      4456.5000         0.8799       1186.945         0.8371       -64.2137        -3.7929      0.9892851
      4457.0000          0.876       1197.814         0.8378        -64.369        -3.9599      0.9870284
      4457.5000         0.8722       1208.676         0.8407       -64.5243        -4.1268       0.984773
      4458.0000         0.8683       1219.545         0.8444       -64.5018        -4.1159      0.9849203
      4458.5000         0.8645       1207.016         0.8481       -64.3896        -4.0221      0.9861878
      4459.0000         0.8606       1182.016         0.8517       -64.2775        -3.9471      0.9872013
      4459.5000         0.8567       1157.018         0.8554       -64.1652        -3.8719      0.9882176
      4460.0000         0.8625       1132.441         0.8591        -64.053        -3.7968      0.9892324
      4460.5000         0.8748       1108.813         0.8627       -63.9408        -3.7217      0.9902473
      4461.0000          0.891       1085.209         0.8664       -63.8286        -3.6466      0.9912621
      4461.5000         0.9085        1061.58         0.8701       -63.7164        -3.5714      0.9922784
      4462.0000          0.926       1062.768         0.8737       -63.6042        -3.4963      0.9932932
      4462.5000         0.9447        1064.57         0.8774        -63.492        -3.4212      0.9943081
      4463.0000         0.9434       1066.375          0.881       -63.4384        -3.4047      0.9945311
      4463.5000         0.9363       1068.176         0.8813       -63.4697        -3.4731      0.9936067
      4464.0000         0.9298       1070.045         0.8791       -63.5011        -3.5416      0.9926811
      4464.5000         0.9232       1076.244         0.8769       -63.5325          -3.61      0.9917567
