#------------------------------------------------------------------------------
# Created by    : vladimir.rabinovich
# Created on    : 09/19/2023 17:20:46
#------------------------------------------------------------------------------
~Version Information Section
VERS.           2.0     :   CWLS log ASCII Standard - VERSION 2.0
WRAP.           NO      :   One line per depth step
~Well Information Section
#MNEM       .UNIT                                         VALUE :DESCRIPTION
#------------------------------------------------------------------------------
STRT        .FT                                            1957 :START DEPTH
STOP        .FT                                            6608 :STOP DEPTH
STEP        .FT                                             0.5 :STEP      
NULL        .                                           -999.25 :NULL      
COMP        .                            HIGHLAND RESOURCES INC :COMPANY   
WELL        .                                     ST TR 00691-L :WELL      
FLD         .                                           WILDCAT :FIELD     
LOC         .                                                   :LOCATION  
CNTY        .                      MATAGORDA ISLAND LARGE BLOCK :LOCATION  
STAT        .                                             TEXAS :STATE     
CTRY        .                                     UNITED STATES :COUNTRY   
SRVC        .                                                   :SERVICE COMPANY
DATE        .                             9/13/2023 11:12:01 AM :LOG DATE  
API         .                                    42703000470000 :API NUMBER
UWI         .                                    42703000470000 :UNIQUE WELL ID
XCOORD      .                                  404407.912506245 :SURFACE X 
YCOORD      .                                  10154689.9311845 :SURFACE Y 
LAT         .                                        27.9298131 :LATITUDE  
LON         .                                       -96.8274765 :LONGITUDE 
ELEV        .FT                                              63 :ELEVATION VALUE
ELEV_TYPE   .                                                KB :ELEVATION REFERENCE TYPE
~Curve Information Section
#MNEM       .UNIT                                      API CODE :CURVE DESCRIPTION
#------------------------------------------------------------------------------
DEPT        .FT                                                 :DEPTH     
ASN         .OHMM                                               :          
CILD        .MMHO                                               :          
ILD         .OHMM                                               :          
SP          .MV                                                 :          
SP_NORM     .MV                                                 :SP Normalized
VSH_SP      .V/V                                                :Volume of Shale from SP
~A        DEPTH            ASN           CILD            ILD             SP        SP_NORM         VSH_SP
# ...
      4731.0000         1.0755       1665.355         0.6221       -123.193       -66.8521      0.1371338
      4731.5000         1.0701       1735.871         0.6028      -124.0443       -67.7078      0.1255703
      4732.0000         1.0646       1781.203         0.5835      -124.8956       -68.5636      0.1140054
      4732.5000         1.0592       1828.992         0.5641      -125.7471       -69.4196      0.1024378
      4733.0000         1.0537       1920.295         0.5448      -126.5984       -70.2754       0.090873
      4733.5000         1.0483       1990.662         0.5255      -127.4515        -71.133     0.07928374
      4734.0000          1.033       2036.916         0.5062      -128.3047       -71.9907     0.06769325
      4734.5000         1.0131       2057.887         0.4869      -129.1587       -72.8492     0.05609193
      4735.0000         0.9932       2093.711         0.4675       -130.012        -73.707     0.04449999
      4735.5000         0.9732       2236.855         0.4482      -130.8662       -74.5657     0.03289599
      4736.0000         0.9578       2298.969         0.4289      -131.7192       -75.4232     0.02130807
      4736.5000         0.9474       2406.191         0.4096      -132.5508       -76.2593     0.01000946
      4737.0000          0.937       2469.285         0.3903      -133.1836       -76.8966    0.001397313
      4737.5000         0.9265       2577.148          0.371      -133.8167       -77.5342              0
      4738.0000         0.9161       2654.398         0.3516      -134.4495       -78.1715              0
      4738.5000         0.9059       2705.305         0.3323      -134.7581       -78.4846              0
      4739.0000         0.8957       2731.398          0.313      -134.8616       -78.5926              0
      4739.5000         0.8855       2757.492         0.3149      -134.9653       -78.7008              0
      4740.0000          0.875       2777.395         0.3207      -135.0688       -78.8088              0
      4740.5000         0.8716       2772.898         0.3265      -134.9937       -78.7382              0
      4741.0000         0.8741       2757.602         0.3322      -134.7231       -78.4721              0
      4741.5000         0.8767       2739.973          0.338      -134.4526       -78.2061              0
      4742.0000         0.8792       2669.285         0.3438      -134.1824       -77.9404              0
      4742.5000         0.8786       2543.047         0.3496      -133.9119       -77.6744              0
      4743.0000         0.8755       2424.961         0.3553      -133.6414       -77.4084              0
      4743.5000         0.8724       2397.555         0.3611      -133.3708       -77.1423              0
      4744.0000         0.8693       2377.715         0.3669      -133.1003       -76.8763    0.001671662
      4744.5000         0.8662       2370.316         0.3727      -132.8298       -76.6103    0.005266241
      4745.0000         0.8631       2382.762         0.3784      -132.5596       -76.3446    0.008856799
      4745.5000           0.86       2395.207         0.3842      -132.3911       -76.1806     0.01107293
      4746.0000         0.8569       2407.715           0.39      -132.3196       -76.1136     0.01197836
      4746.5000         0.8534       2424.238         0.3958       -132.248       -76.0465     0.01288512
      4747.0000         0.8498       2439.746         0.4015      -132.1763       -75.9792     0.01379456
      4747.5000         0.8464       2450.184         0.4073      -132.1047       -75.9122     0.01469999
      4748.0000         0.8428           2460         0.4131      -132.0332       -75.8452     0.01560541
      4748.5000         0.8393       2466.066         0.4189      -131.9617       -75.7781     0.01651217
      4749.0000         0.8358       2472.137         0.4247      -131.8901        -75.711     0.01741894
      4749.5000         0.8323       2478.207         0.4304      -131.8184       -75.6438     0.01832704
      4750.0000         0.8288       2484.273         0.4293       -131.752       -75.5819     0.01916349
      4750.5000         0.8254       2490.012         0.4266       -132.144       -75.9784     0.01380539
      4751.0000         0.8222       2493.598         0.4238      -132.5364       -76.3753    0.008441925
      4751.5000          0.819       2497.188         0.4211      -132.9287       -76.7721    0.003079698
      4752.0000         0.8157       2501.996         0.4183       -133.321       -77.1689              0
      4752.5000         0.8138       2507.832         0.4156      -133.7134       -77.5658              0
      4753.0000         0.8134       2513.672         0.4129      -134.1057       -77.9626              0
      4753.5000         0.8137       2519.508         0.4101       -134.498       -78.3594              0
      4754.0000         0.8153       2525.344         0.4074      -134.8904       -78.7563              0
      4754.5000         0.7951       2531.633         0.4046      -135.2827       -79.1531              0
      4755.0000         0.7814        2538.82         0.4019      -135.4939       -79.3688              0
      4755.5000         0.7677       2546.008         0.3992      -135.1826        -79.062              0
      4756.0000         0.7541       2553.191         0.3964      -134.8711        -78.755              0
      4756.5000         0.7404       2564.152         0.3937      -134.5598       -78.4482              0
      4757.0000         0.7267       2583.242         0.3864      -134.2485       -78.1414              0
      4757.5000          0.713       2603.758         0.3776       -133.937       -77.8344              0
      4758.0000         0.7001       2640.785         0.3689      -133.6257       -77.5276              0
      4758.5000         0.6882       2687.617         0.3602      -133.2363       -77.1427              0
      4759.0000         0.6764       2731.105         0.3515      -132.7583       -76.6692     0.00447031
      4759.5000         0.6646       2763.145         0.3428      -132.2803       -76.1957      0.0108689
      4760.0000         0.6527       2782.801         0.3341      -131.8022       -75.7221     0.01726893
      4760.5000         0.6409       2801.313         0.3253      -131.3242       -75.2486     0.02366762
      4761.0000         0.6354       2819.828         0.3166      -130.8462       -74.7751     0.03006621
      4761.5000         0.6343       2857.664         0.3079      -130.3682       -74.3016      0.0364649
      4762.0000         0.6332       2836.695         0.3005      -130.3887       -74.3266     0.03612704
      4762.5000         0.6321       2821.633         0.3041      -131.0181       -74.9604     0.02756212
      4763.0000         0.6409       2803.363         0.3077       -131.647       -75.5939     0.01900132
      4763.5000         0.6517       2825.992         0.3113      -132.2766        -76.228     0.01043248
      4764.0000         0.6624       2891.398         0.3149       -132.906       -76.8619    0.001866212
      4764.5000         0.6732       2926.535         0.3185      -133.5352       -77.4955              0
      4765.0000         0.6839       2950.516         0.3221      -134.1646       -78.1294              0
      4765.5000         0.6944       2985.848         0.3257      -134.7939       -78.7632              0
      4766.0000         0.7047       2998.289         0.3293      -135.4231       -79.3969              0
      4766.5000          0.715       3010.734         0.3329       -135.739       -79.7173              0
      4767.0000         0.7255        3023.18         0.3365      -135.9438       -79.9266              0
      4767.5000         0.7371       2977.738           0.34      -136.1484       -80.1357              0
      4768.0000         0.7367       2922.063         0.3436      -134.6633       -78.6551              0
      4768.5000         0.7256       2838.031         0.3472      -132.7419       -76.7382    0.003537874
