#------------------------------------------------------------------------------
# Created by    : vladimir.rabinovich
# Created on    : 09/19/2023 17:20:45
#------------------------------------------------------------------------------
~Version Information Section
VERS.           2.0     :   CWLS log ASCII Standard - VERSION 2.0
WRAP.           NO      :   One line per depth step
~Well Information Section
#MNEM       .UNIT                                         VALUE :DESCRIPTION
#------------------------------------------------------------------------------
STRT        .FT                                            1401 :START DEPTH
STOP        .FT                                            4951 :STOP DEPTH
STEP        .FT                                             0.5 :STEP      
NULL        .                                           -999.25 :NULL      
COMP        .                      GULF ENERGY EXPLORATION CORP :COMPANY   
WELL        .                                ST TR 00596-L NE/4 :WELL      
FLD         .                        SHERMAN OFFSHORE SOUTHWEST :FIELD     
LOC         .                                                   :LOCATION  
CNTY        .                      MATAGORDA ISLAND LARGE BLOCK :LOCATION  
STAT        .                                             TEXAS :STATE     
CTRY        .                                     UNITED STATES :COUNTRY   
SRVC        .                                                   :SERVICE COMPANY
DATE        .                             9/13/2023 11:12:01 AM :LOG DATE  
API         .                                    42703301240000 :API NUMBER
UWI         .                                    42703301240000 :UNIQUE WELL ID
XCOORD      .                                    480210.3272994 :SURFACE X 
YCOORD      .                                  10243409.1849528 :SURFACE Y 
LAT         .                                        28.1797739 :LATITUDE  
LON         .                                       -96.6012532 :LONGITUDE 
ELEV        .FT                                              82 :ELEVATION VALUE
ELEV_TYPE   .                                                KB :ELEVATION REFERENCE TYPE
~Curve Information Section
#MNEM       .UNIT                                      API CODE :CURVE DESCRIPTION
#------------------------------------------------------------------------------
DEPT        .FT                                                 :DEPTH     
ASN         .OHMM                                               :          
CILD        .MMHO                                               :          
ILD         .OHMM                                               :          
SP          .MV                                                 :          
SP_NORM     .MV                                                 :SP Normalized
VSH_SP      .V/V                                                :Volume of Shale from SP
~A        DEPTH            ASN           CILD            ILD             SP        SP_NORM         VSH_SP
# ...
      3035.0000         0.9913       2960.108         0.3378       -57.3691       -45.5194     0.05512441
      3035.5000         1.0155       2659.689          0.376       -57.4668       -45.6431     0.05237554
      3036.0000         1.0397       2434.444         0.4108       -56.9705       -45.1728     0.06282671
      3036.5000         1.0639       2275.159         0.4395       -56.1781       -44.4064      0.0798578
      3037.0000         1.0881       2233.128         0.4478       -44.3551       -32.6093      0.3420156
      3037.5000         1.1123       2227.221          0.449       -32.5321       -20.8123      0.6041711
      3038.0000         1.1365       1696.578         0.5894       -24.3987       -12.7049      0.7843356
      3038.5000         1.1606       1108.416         0.9022       -21.7239       -10.0561      0.8431978
      3039.0000         1.1909       992.9178         1.0071       -20.4355        -8.7937      0.8712511
      3039.5000         1.1829       976.9146         1.0236       -18.7512        -7.1353      0.9081044
      3040.0000         1.1711       968.8711         1.0321       -17.9577        -6.3678        0.92516
      3040.5000         1.1631       960.8277         1.0293       -16.1734        -4.6095      0.9642333
      3041.0000         1.1552       960.7437         1.0095       -16.2706        -4.7327      0.9614956
      3041.5000         1.1473       972.5988              1       -16.4667        -4.9548        0.95656
      3042.0000         1.1394       996.3928         0.9703       -16.8608        -5.3748      0.9472266
      3042.5000         1.1335        1008.29         0.9607        -17.057         -5.597      0.9422889
      3043.0000         1.1276       1036.021         0.9409       -17.2531        -5.8191      0.9373533
      3043.5000         1.1177       1083.734         0.9414       -17.5483        -6.1403      0.9302155
      3044.0000         1.1118       1107.527         0.9317       -17.7444        -6.3624        0.92528
      3044.5000         1.1118       1115.401         0.9321       -17.9415        -6.5855      0.9203222
      3045.0000         1.1159       1107.358         0.9323       -18.1377        -6.8076      0.9153867
      3045.5000         1.1259       1099.314         0.9425       -18.4329        -7.1288      0.9082489
      3046.0000         1.1319       1083.269         0.9428        -18.827        -7.5489      0.8989133
      3046.5000         1.1379       1075.225         0.9531       -18.9251         -7.673      0.8961555
      3047.0000         1.1439       1067.182         0.9633       -19.7143        -8.4882        0.87804
      3047.5000           1.15       1055.159         0.9835       -20.1094        -8.9092      0.8686845
      3048.0000          1.152       1043.136         1.0037       -20.8005        -9.6263      0.8527489
      3048.5000         1.1582       976.6801         1.0338       -21.8868       -10.7386      0.8280311
      3049.0000          1.166       932.8548         1.0739       -22.7759       -11.6537      0.8076956
      3049.5000         1.1761       881.8102         1.2195         -23.27       -12.1738      0.7961378
      3050.0000          1.194       873.9197         1.1741       -23.6642       -12.5939      0.7868022
      3050.5000          1.204       878.9628         1.1377       -23.9595       -12.9152      0.7796622
      3051.0000         1.1981       906.1773         1.1035       -24.2547       -13.2364      0.7725245
      3051.5000         1.1862       933.3918         1.0714        -24.451       -13.4587      0.7675844
      3052.0000         1.1703       960.6062          1.041       -24.8452       -13.8789      0.7582467
      3052.5000         1.1505       987.8207         1.0123       -26.4275       -15.4871      0.7225089
      3053.0000         1.1426        1281.45         0.7804       -28.4067       -17.4923      0.6779489
      3053.5000         1.1347       1362.345          0.734       -30.3859       -19.4975      0.6333889
      3054.0000         1.1308        1443.24         0.6929       -32.3651       -21.5027      0.5888289
      3054.5000         1.1249       1524.135         0.6561       -34.3443       -23.5079      0.5442689
      3055.0000          1.117       1611.058         0.6207       -36.3235       -25.5131      0.4997089
      3055.5000         1.1011        1626.93         0.6147       -38.3027       -27.5182      0.4551511
      3056.0000         1.0892       1533.813          0.652       -40.2781       -29.5196      0.4106756
      3056.5000         1.0315       1440.695         0.6941       -41.0693       -30.3368      0.3925156
      3057.0000         1.0874       1347.578         0.7421        -37.716       -27.0095      0.4664555
      3057.5000         1.1433        1254.46         0.7972       -34.3627       -23.6822      0.5403956
      3058.0000         1.1992       1161.343         0.8611       -31.0094       -20.3548      0.6143378
      3058.5000         1.2447       1068.225         0.9361       -27.6561       -17.0275      0.6882778
      3059.0000          1.251        1005.47         1.0502       -24.3028       -13.7002      0.7622178
      3059.5000         1.2092       1009.365         1.0304       -20.5601        -9.9835      0.8448111
      3060.0000         1.1777        1013.26         1.0108       -18.9741        -8.4235      0.8794778
      3060.5000         1.1375       1017.154         1.0012       -18.5763        -8.0516      0.8877422
      3061.0000         1.1355       1013.091         1.0114       -18.1784        -7.6797      0.8960066
      3061.5000         1.1356       1009.028         1.0217       -17.8796        -7.4069      0.9020689
      3062.0000         1.1436       1004.965         1.0518       -18.2748        -7.8281      0.8927089
      3062.5000         1.1476       992.9442          1.072       -19.6892        -9.2685         0.8607
      3063.0000         1.1536       950.0966         1.1121       -21.1036       -10.7088      0.8286933
      3063.5000         1.1616       932.3462         1.1322       -22.1311       -11.7623      0.8052822
      3064.0000         1.1577       898.7636         1.1524       -22.0304       -11.6876      0.8069422
      3064.5000         1.1235       882.7501         1.1527       -21.6325       -11.3157      0.8152066
      3065.0000         1.0893       882.5232         1.1431       -21.3337       -11.0429      0.8212689
      3065.5000         1.0551       874.6212         1.1235       -20.9359        -10.671      0.8295333
      3066.0000         1.0209       922.5373         1.0442        -20.637       -10.3981      0.8355978
      3066.5000         0.9867       922.4133         0.9564       -20.7343       -10.5214      0.8328578
      3067.0000         0.8716       1044.796         0.8686       -24.5825       -14.3956      0.7467644
      3067.5000         0.8477        1204.62         0.7807       -28.4307       -18.2698      0.6606711
      3068.0000         0.8358       1422.173         0.6929       -32.2789       -22.1439        0.57458
      3068.5000         0.7881       1735.625         0.6051       -36.1271       -26.0181      0.4884866
      3069.0000         0.7663       2226.311         0.5173       -39.9753       -29.8923      0.4023933
      3069.5000         0.7544       3124.586         0.3898       -43.8235       -33.7665         0.3163
      3070.0000         0.7405       3160.775         0.3402       -47.6717       -37.6407      0.2302066
      3070.5000         0.7346       3197.813         0.2906       -51.5199       -41.5149      0.1441133
      3071.0000         0.7384        3217.14         0.2711       -56.3755       -46.3964     0.03563555
      3071.5000         0.7328       3092.457         0.2713        -56.771       -46.8179     0.02626885
      3072.0000         0.7368       3088.432         0.2915       -56.9677       -47.0406        0.02132
      3072.5000         0.7408       3025.777         0.2919       -56.9663       -47.0652     0.02077332
