#------------------------------------------------------------------------------
# Created by    : vladimir.rabinovich
# Created on    : 09/19/2023 17:22:51
#------------------------------------------------------------------------------
~Version Information Section
VERS.           2.0     :   CWLS log ASCII Standard - VERSION 2.0
WRAP.           NO      :   One line per depth step
~Well Information Section
#MNEM       .UNIT                                         VALUE :DESCRIPTION
#------------------------------------------------------------------------------
STRT        .FT                                             970 :START DEPTH
STOP        .FT                                           10993 :STOP DEPTH
STEP        .FT                                             0.5 :STEP      
NULL        .                                           -999.25 :NULL      
COMP        .                               AMOCO PRODUCTION CO :COMPANY   
WELL        .                                     ST TR 00558-L :WELL      
FLD         .                                           WILDCAT :FIELD     
LOC         .                                                   :LOCATION  
CNTY        .                      MATAGORDA ISLAND LARGE BLOCK :LOCATION  
STAT        .                                             TEXAS :STATE     
CTRY        .                                     UNITED STATES :COUNTRY   
SRVC        .                                                   :SERVICE COMPANY
DATE        .                             9/13/2023 11:19:13 AM :LOG DATE  
API         .                                    42703301770000 :API NUMBER
UWI         .                                    42703301770000 :UNIQUE WELL ID
XCOORD      .                                   593347.98828382 :SURFACE X 
YCOORD      .                                   10274817.073936 :SURFACE Y 
LAT         .                                        28.2748406 :LATITUDE  
LON         .                                       -96.2531821 :LONGITUDE 
ELEV        .FT                                              93 :ELEVATION VALUE
ELEV_TYPE   .                                                KB :ELEVATION REFERENCE TYPE
~Curve Information Section
#MNEM       .UNIT                                      API CODE :CURVE DESCRIPTION
#------------------------------------------------------------------------------
DEPT        .FT                                                 :DEPTH     
GR          .GAPI                                               :          
GR_NORM     .GAPI                                               :GammaRay Normalized
ILD         .OHMM                                               :          
SP          .MV                                                 :          
SP_NORM     .MV                                                 :SP Normalized
VSH_GR      .V/V                                                :Volume of Shale from GR
VSH_SP      .V/V                                                :Volume of Shale from SP
~A        DEPTH             GR        GR_NORM            ILD             SP        SP_NORM         VSH_GR         VSH_SP
# ...
      4956.5000        55.3936       77.53023         0.6479      -102.9227       5.244591      0.9474517              1
      4957.0000        55.7949       78.45461         0.6469        -103.03       5.131393      0.9671194              1
      4957.5000         56.638       80.40532         0.6604      -102.7816       5.373894              1              1
      4958.0000        57.5812       82.58856         0.6858      -102.2673       5.882294              1              1
      4958.5000         58.163       83.93226         0.7184      -103.0325       5.111198              1              1
      4959.0000        58.0795       83.73042         0.7717      -103.8203       4.317505              1              1
      4959.5000        57.7073       82.85791         0.8391      -104.6506       3.481308              1              1
      4960.0000        56.7599       80.64921         0.9157      -105.5291       2.596909              1              1
      4960.5000        55.6285       78.01307         0.9948      -106.4119       1.708206      0.9577249              1
      4961.0000        54.2524       74.80843          1.075      -107.3541      0.7601089       0.889541              1
      4961.5000        52.2014       70.03599         1.1395      -108.3667     -0.2583847      0.7879997              1
      4962.0000         50.781       66.72845         1.2015      -109.6473      -1.544884      0.7176265              1
      4962.5000        50.5551       66.19582          1.247      -110.9271      -2.830582      0.7062939      0.9781426
      4963.0000        50.9775       67.16922         1.2859      -112.0037      -3.913078      0.7270047      0.9496558
      4963.5000        51.5888       68.58145         1.2952      -112.9771      -4.892372      0.7570522      0.9238849
      4964.0000        51.5298        68.4365         1.2787      -113.7804      -5.701576      0.7539681      0.9025901
      4964.5000        51.4708        68.2916         1.2892      -114.3306      -6.257668       0.750885      0.8879561
      4965.0000        51.6072       68.60063         1.3151      -113.8585      -5.791466      0.7574602      0.9002246
      4965.5000        52.4596       70.57294         1.3656      -113.1067      -5.045563      0.7994242      0.9198536
      4966.0000        53.5715       73.14806         1.4383      -112.3402      -4.284966       0.854214      0.9398693
      4966.5000        53.3951       72.73042         1.5245      -111.6515      -3.602158      0.8453282      0.9578379
      4967.0000        50.0154       64.87132         1.6211      -111.2106       -3.16716      0.6781132      0.9692852
      4967.5000         47.923       60.00272         1.7095      -111.4938      -3.456253      0.5745259      0.9616776
      4968.0000        46.5173       56.72934         1.7804        -112.97      -4.938354      0.5048796      0.9226749
      4968.5000        46.6476       57.02416         1.8478      -114.6351      -6.609352      0.5111524      0.8787013
      4969.0000        49.5228       63.69557         1.8789      -115.8085      -7.788651      0.6530972      0.8476671
      4969.5000        52.5851        70.8016         1.8019      -116.7019      -8.687943      0.8042893      0.8240015
      4970.0000         54.841       76.03432         1.6458      -116.6648      -8.656746      0.9156239      0.8248225
      4970.5000        56.8268       80.63959         1.4665      -116.2231       -8.22094              1      0.8362911
      4971.0000        57.8808       83.08023         1.2945      -115.9391      -7.942841              1      0.8436095
      4971.5000        58.6162       84.78075         1.1335       -115.999      -8.008636              1       0.841878
      4972.0000        58.0845       83.53772         1.0193      -116.0543      -8.069832              1      0.8402676
      4972.5000        57.0234        81.0649         0.9245      -116.1064      -8.127831              1      0.8387413
      4973.0000        56.3319       79.45065         0.9391      -116.0845      -8.111832      0.9883118      0.8391623
      4973.5000        56.6422       80.16362         0.9905      -115.9905      -8.023727              1      0.8414809
      4974.0000        57.1614       81.36187         1.0454       -115.475      -7.514122              1      0.8548915
      4974.5000         57.046       81.08595         1.1085      -114.7346      -6.779617              1      0.8742206
      4975.0000        56.2318       79.18668         1.1753      -113.9309      -5.981819      0.9826954      0.8952153
      4975.5000        55.3964        77.2381         1.2478      -113.3242      -5.381027      0.9412361      0.9110256
      4976.0000        55.9245       78.45705         1.3256       -113.111      -5.173721      0.9671714       0.916481
      4976.5000        57.0483       81.05986          1.399      -113.3123       -5.38092              1      0.9110284
      4977.0000        56.3638       79.46188         1.4731      -113.0037      -5.078217      0.9885505      0.9189943
      4977.5000        55.0636       76.43357         1.5377      -111.5382      -3.618614      0.9241185      0.9574049
      4978.0000        55.1927       76.72561         1.5584      -110.8121      -2.898415      0.9303321      0.9763575
      4978.5000        56.7191        80.2637         1.5577         -110.4       -2.49221              1      0.9870471
      4979.0000        58.2313       83.76875         1.5006      -109.9813      -2.079407              1      0.9979103
      4979.5000        59.5789       86.89143         1.3376      -109.5616      -1.665604              1              1
      4980.0000         60.319       88.60291         1.2405      -109.2728      -1.382698              1              1
      4980.5000         60.682       89.43829         1.1835      -109.0001      -1.115898              1              1
      4981.0000        60.5008       89.00953         1.1434      -108.6639     -0.7855988              1              1
      4981.5000        59.7797       87.32649         1.1177      -108.0616     -0.1891937              1              1
      4982.0000         58.898       85.27038         1.0964      -107.8103     0.05620575              1              1
      4982.5000        58.0247       83.23382         1.1163       -108.053     -0.1923904              1              1
      4983.0000        58.8092       85.04837         1.1653      -108.3102     -0.4554901              1              1
      4983.5000        60.0721       87.97432         1.2075      -108.3085     -0.4596863              1              1
      4984.0000        58.9418        85.3407         1.2442       -108.373     -0.5300827              1              1
      4984.5000        56.5545       79.78699         1.2567      -108.4458     -0.6087799       0.995468              1
      4985.0000        54.2039       74.31857          1.261      -108.5022     -0.6710739      0.8791184              1
      4985.5000        52.6917       70.79776         1.2627       -108.809     -0.9837723      0.8042077              1
      4986.0000        51.7011       68.48871         1.2551      -109.3564      -1.537071      0.7550789              1
      4986.5000        52.5638       70.48495         1.2424      -109.9529      -2.139473       0.797552      0.9963297
      4987.0000        54.5817       75.16477         1.2108      -110.4808      -2.673264      0.8971228      0.9822825
      4987.5000        56.3425       79.24735         1.1531      -110.6166      -2.814964      0.9839862      0.9785536
      4988.0000        57.6375       82.24787          1.065      -110.6235      -2.827759              1      0.9782169
      4988.5000        57.6373       82.23954         1.0082      -110.5173      -2.727463              1      0.9808562
      4989.0000        57.4153       81.71596         1.0062      -110.3801      -2.596153              1      0.9843118
      4989.5000        57.1932       81.19215         1.0095      -110.2123      -2.434258              1      0.9885722
