#------------------------------------------------------------------------------
# Created by    : vladimir.rabinovich
# Created on    : 09/19/2023 17:20:54
#------------------------------------------------------------------------------
~Version Information Section
VERS.           2.0     :   CWLS log ASCII Standard - VERSION 2.0
WRAP.           NO      :   One line per depth step
~Well Information Section
#MNEM       .UNIT                                         VALUE :DESCRIPTION
#------------------------------------------------------------------------------
STRT        .FT                                            2835 :START DEPTH
STOP        .FT                                            6351 :STOP DEPTH
STEP        .FT                                             0.5 :STEP      
NULL        .                                           -999.25 :NULL      
COMP        .                                   PENNZOIL CO INC :COMPANY   
WELL        .                                     ST TR 00659-L :WELL      
FLD         .                                           WILDCAT :FIELD     
LOC         .                                                   :LOCATION  
CNTY        .                      MATAGORDA ISLAND LARGE BLOCK :LOCATION  
STAT        .                                             TEXAS :STATE     
CTRY        .                                     UNITED STATES :COUNTRY   
SRVC        .                                                   :SERVICE COMPANY
DATE        .                             9/13/2023 11:19:13 AM :LOG DATE  
API         .                                    42703300020000 :API NUMBER
UWI         .                                    42703300020000 :UNIQUE WELL ID
XCOORD      .                                  437819.375414617 :SURFACE X 
YCOORD      .                                  10187782.3810297 :SURFACE Y 
LAT         .                                        28.0235144 :LATITUDE  
LON         .                                       -96.7273206 :LONGITUDE 
ELEV        .FT                                              73 :ELEVATION VALUE
ELEV_TYPE   .                                                KB :ELEVATION REFERENCE TYPE
~Curve Information Section
#MNEM       .UNIT                                      API CODE :CURVE DESCRIPTION
#------------------------------------------------------------------------------
DEPT        .FT                                                 :DEPTH     
ASN         .OHMM                                               :          
CILD        .MMHO                                               :          
ILD         .OHMM                                               :          
SP          .MV                                                 :          
SP_NORM     .MV                                                 :SP Normalized
VSH_SP      .V/V                                                :Volume of Shale from SP
~A        DEPTH            ASN           CILD            ILD             SP        SP_NORM         VSH_SP
# ...
      4469.0000         0.2961       3889.277         0.3111       -97.1165      -47.30539              0
      4469.5000         0.2953       3964.754         0.3069       -96.6427      -46.83368              0
      4470.0000         0.2948        -999.25         0.3037       -96.1663      -46.35937              0
      4470.5000         0.2965        -999.25         0.3021       -95.0605      -45.25566              0
      4471.0000         0.2981        -999.25         0.3005       -93.9554      -44.15266     0.01925781
      4471.5000         0.2998        -999.25         0.2989       -93.8457      -44.04505     0.02170337
      4472.0000         0.3005        -999.25         0.2973       -94.3638      -44.56524    0.009880846
      4472.5000          0.299        -999.25         0.2957       -94.8818      -45.08533              0
      4473.0000         0.2974        -999.25         0.2941          -95.4      -45.60563              0
      4473.5000         0.2959        -999.25         0.2925       -95.9429      -46.15062              0
      4474.0000         0.2943        -999.25         0.2934       -96.4938      -46.70361              0
      4474.5000         0.2928        -999.25         0.2948       -97.0452       -47.2571              0
      4475.0000         0.2913        -999.25         0.2962       -97.5964      -47.81039              0
      4475.5000         0.2897        -999.25         0.2976       -97.0222      -47.23829              0
      4476.0000         0.2882        -999.25          0.299       -95.9247      -46.14288              0
      4476.5000         0.2866        -999.25         0.3011       -94.8922      -45.11246              0
      4477.0000         0.2851        -999.25         0.3057       -94.5061      -44.72847    0.006171227
      4477.5000         0.2836        -999.25         0.3103         -94.12      -44.34446     0.01489873
      4478.0000         0.2779        -999.25         0.3149       -93.7343      -43.96085     0.02361714
      4478.5000         0.2718        -999.25         0.3195       -93.7886      -44.01723     0.02233557
      4479.0000          0.265        -999.25         0.3242       -93.9072      -44.13794     0.01959237
      4479.5000         0.2787        -999.25         0.3312       -94.0258      -44.25863     0.01684943
      4480.0000         0.3012       3960.363         0.3381       -94.1444      -44.37931     0.01410649
      4480.5000         0.3212       3807.906         0.3451       -94.4154       -44.6524    0.007899892
      4481.0000         0.3345       3548.922         0.3518       -94.7179        -44.957   0.0009772561
      4481.5000         0.3405       3458.215         0.3532       -95.0208      -45.26199              0
      4482.0000         0.3443       3364.066         0.3546       -94.8362      -45.07948              0
      4482.5000         0.3481       3348.004         0.3559       -94.5195      -44.76487    0.005343784
      4483.0000         0.3519        3327.91         0.3573       -94.2026      -44.45007     0.01249851
      4483.5000         0.3537       3313.703         0.3586        -93.886      -44.13556     0.01964638
      4484.0000         0.3555       3310.656         0.3593        -93.162      -43.41365     0.03605331
      4484.5000         0.3573       3313.367          0.358       -92.3317      -42.58545     0.05487624
      4485.0000         0.3591       3316.082         0.3567       -92.5801      -42.83594     0.04918324
      4485.5000         0.3591       3318.949         0.3554       -92.8286      -43.08652     0.04348807
      4486.0000         0.3591       3326.883         0.3541        -93.077      -43.33702     0.03779498
      4486.5000         0.3591       3334.813         0.3528       -93.3254      -43.58751     0.03210198
      4487.0000         0.3591       3353.934         0.3515        -93.574       -43.8382     0.02640455
      4487.5000         0.3588       3382.859         0.3509       -93.8347        -44.101     0.02043187
      4488.0000         0.3575       3422.945         0.3502       -94.2289      -44.49728     0.01142536
      4488.5000         0.3562       3491.414         0.3496       -94.6234      -44.89388    0.002411842
      4489.0000         0.3548       3564.395         0.3489       -95.0295      -45.30207              0
      4489.5000         0.3515       3622.055         0.3483       -94.7339      -45.00856              0
      4490.0000         0.3469       3695.285         0.3476       -93.6223      -43.89906     0.02502147
      4490.5000         0.3424       3792.281         0.3452       -93.0372      -43.31605     0.03827164
      4491.0000         0.3373       3873.949         0.3419       -92.4528      -42.73374     0.05150596
      4491.5000         0.3323       3942.863         0.3385       -91.3737      -41.65673     0.07598331
      4492.0000         0.3273       3976.711         0.3352       -90.6305      -40.91563     0.09282667
      4492.5000         0.3235        -999.25         0.3318       -91.1659      -41.45312     0.08061097
      4493.0000         0.3198        -999.25         0.3285       -91.7015      -41.99081     0.06839076
      4493.5000         0.3161        -999.25         0.3243       -92.2368       -42.5282     0.05617722
      4494.0000         0.3133        -999.25         0.3197       -92.7722      -43.06569     0.04396152
      4494.5000         0.3108        -999.25          0.315       -93.1957      -43.49129     0.03428893
      4495.0000         0.3083        -999.25         0.3104       -93.4152      -43.71288     0.02925283
      4495.5000         0.3059        -999.25         0.3058       -93.6346      -43.93437     0.02421891
      4496.0000          0.304        -999.25         0.3022       -93.8542      -44.15606     0.01918039
      4496.5000         0.3026        -999.25         0.2999       -93.7864      -44.09035     0.02067384
      4497.0000         0.3012        -999.25         0.2975       -93.6008      -43.90685     0.02484443
      4497.5000         0.2998        -999.25         0.2951       -93.4152      -43.72334     0.02901511
      4498.0000         0.2995        -999.25         0.2928       -93.3967      -43.70693     0.02938799
      4498.5000         0.3002        -999.25         0.2904       -93.4547      -43.76702     0.02802233
      4499.0000         0.3008        -999.25          0.288       -93.5128      -43.82721     0.02665424
      4499.5000         0.3014        -999.25         0.2873       -93.6454      -43.96191     0.02359304
      4500.0000         0.3021        -999.25         0.2874       -94.0027       -44.3213     0.01542507
      4500.5000         0.3022        -999.25         0.2876         -94.36      -44.68069    0.007257028
      4501.0000         0.3018        -999.25         0.2877       -94.7227      -45.04548              0
      4501.5000         0.3014        -999.25         0.2878       -95.5396      -45.86447              0
      4502.0000         0.3011        -999.25         0.2879         -95.09      -45.41696              0
      4502.5000         0.3007        -999.25         0.2881       -94.7831      -45.11215              0
      4503.0000         0.3003        -999.25         0.2882       -94.5664      -44.89755    0.002328439
      4503.5000            0.3        -999.25         0.2892       -94.3495      -44.68274    0.007210385
      4504.0000         0.2997        -999.25         0.2923       -94.1731      -44.50844     0.01117186
      4504.5000         0.2994        -999.25         0.2954       -94.0186      -44.35603     0.01463578
      4505.0000         0.2991        -999.25         0.2985       -93.8638      -44.20332     0.01810637
      4505.5000         0.2988        -999.25         0.3016       -93.7091      -44.05071      0.0215748
      4506.0000         0.3016        -999.25         0.3048       -93.5414       -43.8851     0.02533869
      4506.5000         0.3049        -999.25         0.3079       -93.3608       -43.7066     0.02939554
