#------------------------------------------------------------------------------
# Created by    : vladimir.rabinovich
# Created on    : 09/19/2023 17:22:30
#------------------------------------------------------------------------------
~Version Information Section
VERS.           2.0     :   CWLS log ASCII Standard - VERSION 2.0
WRAP.           NO      :   One line per depth step
~Well Information Section
#MNEM       .UNIT                                         VALUE :DESCRIPTION
#------------------------------------------------------------------------------
STRT        .FT                                             328 :START DEPTH
STOP        .FT                                            8026 :STOP DEPTH
STEP        .FT                                             0.5 :STEP      
NULL        .                                           -999.25 :NULL      
COMP        .                                 MESA PETROLEUM CO :COMPANY   
WELL        .                                ST TR 00565-L NW/4 :WELL      
FLD         .                                           WILDCAT :FIELD     
LOC         .                                                   :LOCATION  
CNTY        .                      MATAGORDA ISLAND LARGE BLOCK :LOCATION  
STAT        .                                             TEXAS :STATE     
CTRY        .                                     UNITED STATES :COUNTRY   
SRVC        .                                                   :SERVICE COMPANY
DATE        .                             9/13/2023 11:12:01 AM :LOG DATE  
API         .                                    42703301780000 :API NUMBER
UWI         .                                    42703301780000 :UNIQUE WELL ID
XCOORD      .                                  585273.186473096 :SURFACE X 
YCOORD      .                                  10269188.7462706 :SURFACE Y 
LAT         .                                          28.25878 :LATITUDE  
LON         .                                       -96.2777629 :LONGITUDE 
ELEV        .FT                                              82 :ELEVATION VALUE
ELEV_TYPE   .                                                KB :ELEVATION REFERENCE TYPE
~Curve Information Section
#MNEM       .UNIT                                      API CODE :CURVE DESCRIPTION
#------------------------------------------------------------------------------
DEPT        .FT                                                 :DEPTH     
CILD        .MMHO                                               :          
DT          .US/F                                               :          
ILD         .OHMM                                               :          
SFL         .OHMM                                               :          
SP          .MV                                                 :          
SP_NORM     .MV                                                 :SP Normalized
VSH_SP      .V/V                                                :Volume of Shale from SP
~A        DEPTH           CILD             DT            ILD            SFL             SP        SP_NORM         VSH_SP
# ...
      6458.5000       1103.961       174.0132         0.8149         1.0245       -37.7896      -5.454269      0.9354454
      6459.0000       1246.656        175.915         0.7512         0.9418       -40.1668       -7.83147      0.9009932
      6459.5000       1383.906       177.1521         0.6987         0.9228       -42.1248      -9.789471      0.8726164
      6460.0000       1515.123        176.127         0.6497           0.88       -45.0257      -12.69037      0.8305744
      6460.5000       1626.547       174.6658         0.6063         0.8276       -48.4849      -16.14957       0.780441
      6461.0000       1716.893       179.5632         0.5766         0.8689       -53.0659      -20.73057      0.7140498
      6461.5000        1778.74       183.5427         0.5984         1.0999       -81.7871      -49.45177      0.2978004
      6462.0000       1800.658       184.2915         0.6472         1.3883       -87.1273      -54.79197      0.2204063
      6462.5000       1643.666       181.9375         0.7011         1.4697       -86.3755      -54.04017      0.2313018
      6463.0000       1493.154       180.4192         0.7481         1.5802       -82.7052      -50.36987      0.2844946
      6463.5000       1414.781       187.0757         0.8048         1.9728       -77.8762      -45.54087      0.3544802
      6464.0000       1311.867       191.1099         0.8627         2.5364       -75.4418      -43.10647      0.3897613
      6464.5000        1218.85       189.3682          0.921         3.1544       -77.2037      -44.86837      0.3642266
      6465.0000       1142.355       179.8015         0.9596          3.958       -80.9657      -48.63037      0.3097048
      6465.5000       1079.865       177.6975         0.9809         3.7894       -83.2239      -50.88857      0.2769773
      6466.0000       1035.682       182.6296         0.9714         2.8328       -84.7439      -52.40857      0.2549483
      6466.5000       1012.836       183.5803         0.9445         2.0638       -83.8492      -51.51387       0.267915
      6467.0000       1041.422       182.4312         0.9136         1.8593        -81.323      -48.98767      0.3045266
      6467.5000        1100.25       180.7566         0.8968         1.7966       -78.4692      -46.13387       0.345886
      6468.0000       1150.668       179.7825         0.9045         1.7842       -74.4418      -42.10647       0.404254
      6468.5000       1135.355       179.7673         0.9282          1.792        -70.516      -38.18067      0.4611498
      6469.0000       1117.072       180.3203         0.9593         1.8051       -66.2875      -33.95217      0.5224323
      6469.5000       1082.934       180.5212         0.9915         1.8207       -64.2972      -31.96187      0.5512772
      6470.0000       1049.684       180.1733         1.0248         1.8474       -64.3828      -32.04747      0.5500367
      6470.5000       1025.762       179.5918         1.0419         1.8807       -65.4338      -33.09847      0.5348048
      6471.0000       1005.822        180.062         1.0476         1.9378       -66.8197      -34.48437      0.5147192
      6471.5000       999.0283       184.0737         1.0448         2.0095       -68.0952      -35.75987      0.4962338
      6472.0000       998.3975        187.959         1.0333         2.0827       -69.2826      -36.94727      0.4790251
      6472.5000       998.5312         190.28         1.0219         2.0457       -69.6165      -37.28117      0.4741859
      6473.0000       997.1113       191.1775         1.0113         1.9627       -68.6747      -36.33937      0.4878353
      6473.5000        995.667       191.7034         1.0011         1.8464       -66.6895      -34.35417      0.5166063
      6474.0000       998.6387       192.2976         0.9922         1.7032       -63.5379      -31.20257      0.5622816
      6474.5000        1001.71       192.4885         0.9837          1.525       -58.2274      -25.89207      0.6392453
      6475.0000        1006.59       192.4102         0.9767         1.3476        -54.118      -21.78267      0.6988019
      6475.5000       1011.859       192.0571         0.9696         1.2947       -53.2979      -20.96257      0.7106874
      6476.0000       1021.729       191.9026         0.9615         1.2948       -54.5696      -22.23427       0.692257
      6476.5000       1032.268       191.8877         0.9499         1.3575       -57.3788      -25.04347      0.6515439
      6477.0000       1053.023       192.1392          0.931          1.492       -62.6495      -30.31417      0.5751569
      6477.5000       1081.152       192.3777         0.9014         1.6243       -69.3943      -37.05897      0.4774062
      6478.0000       1134.242       192.5938          0.871         1.7516       -75.0076      -42.67227      0.3960541
      6478.5000       1202.621       192.6052         0.8294         1.8294       -79.5885      -47.25317      0.3296642
      6479.0000        1291.68       192.3789          0.787         1.8531       -82.9733      -50.63797      0.2806092
      6479.5000       1376.783       192.1912         0.7407         1.8198       -87.2563      -54.92097      0.2185367
      6480.0000       1438.086       192.1309         0.6798         1.7735        -90.599      -58.26367      0.1700918
      6480.5000       1536.596       192.1023         0.6396          1.719       -92.7307      -60.39537      0.1391976
      6481.0000       1623.182       190.7922         0.6116         1.6673       -94.1327      -61.79737      0.1188787
      6481.5000       1715.607       186.4951         0.5963          1.619       -94.2162      -61.88087      0.1176685
      6482.0000        1797.84       181.2205         0.5961         1.5817       -92.6488      -60.31347      0.1403845
      6482.5000       1772.803        179.134         0.6239         1.5608       -89.6064      -57.27107      0.1844773
      6483.0000       1712.242       179.5955         0.6682          1.583       -78.6306      -46.29527      0.3435468
      6483.5000       1625.756       180.7627         0.7177         1.6995       -67.4636      -35.12827      0.5053874
      6484.0000        1519.18       181.0715         0.7645         1.7008       -56.2869      -23.95157      0.6673686
      6484.5000       1403.699       179.2605         0.8039         1.5074         -45.11      -12.77467      0.8293526
      6485.0000       1299.398       176.2336         0.8477          1.272        -42.904      -10.56867      0.8613237
      6485.5000       1215.781       176.4819         0.8877         1.0979       -40.2661      -7.930771      0.8995541
      6486.0000       1153.191       177.0989         0.9112         0.9887       -36.9607       -4.62537      0.9474584
      6486.5000        1123.48       176.9756         0.9142         0.9249       -34.0697      -1.734367       0.989357
      6487.0000        1125.41        175.033         0.9118         0.9102       -32.9586     -0.6232681              1
      6487.5000       1143.568       173.7776         0.9117         0.9003       -33.2592     -0.9238701              1
      6488.0000       1159.186       174.5881         0.9131         0.8998       -33.6267       -1.29137      0.9957772
      6488.5000       1164.684       174.5837         0.9155         0.9014       -34.0247      -1.689369      0.9900091
      6489.0000       1159.871         173.96         0.9222         0.9424       -34.3954       -2.06007      0.9846367
      6489.5000       1143.617       172.9612          0.929         1.0959       -34.3173      -1.981968      0.9857686
      6490.0000       1119.844       175.9014         0.9358         1.3136        -33.976      -1.640671      0.9907149
      6490.5000       1095.451       179.5828         0.9426         1.6212       -33.5737      -1.238369      0.9965454
      6491.0000       1074.473       180.5903         0.9495         1.7964       -33.4417      -1.106369      0.9984584
      6491.5000       1055.721        184.957         0.9586         1.5787       -33.3364      -1.001068      0.9999845
