#------------------------------------------------------------------------------
# Created by    : vladimir.rabinovich
# Created on    : 09/19/2023 17:20:45
#------------------------------------------------------------------------------
~Version Information Section
VERS.           2.0     :   CWLS log ASCII Standard - VERSION 2.0
WRAP.           NO      :   One line per depth step
~Well Information Section
#MNEM       .UNIT                                         VALUE :DESCRIPTION
#------------------------------------------------------------------------------
STRT        .FT                                            1401 :START DEPTH
STOP        .FT                                            4951 :STOP DEPTH
STEP        .FT                                             0.5 :STEP      
NULL        .                                           -999.25 :NULL      
COMP        .                      GULF ENERGY EXPLORATION CORP :COMPANY   
WELL        .                                ST TR 00596-L NE/4 :WELL      
FLD         .                        SHERMAN OFFSHORE SOUTHWEST :FIELD     
LOC         .                                                   :LOCATION  
CNTY        .                      MATAGORDA ISLAND LARGE BLOCK :LOCATION  
STAT        .                                             TEXAS :STATE     
CTRY        .                                     UNITED STATES :COUNTRY   
SRVC        .                                                   :SERVICE COMPANY
DATE        .                             9/13/2023 11:12:01 AM :LOG DATE  
API         .                                    42703301240000 :API NUMBER
UWI         .                                    42703301240000 :UNIQUE WELL ID
XCOORD      .                                    480210.3272994 :SURFACE X 
YCOORD      .                                  10243409.1849528 :SURFACE Y 
LAT         .                                        28.1797739 :LATITUDE  
LON         .                                       -96.6012532 :LONGITUDE 
ELEV        .FT                                              82 :ELEVATION VALUE
ELEV_TYPE   .                                                KB :ELEVATION REFERENCE TYPE
~Curve Information Section
#MNEM       .UNIT                                      API CODE :CURVE DESCRIPTION
#------------------------------------------------------------------------------
DEPT        .FT                                                 :DEPTH     
ASN         .OHMM                                               :          
CILD        .MMHO                                               :          
ILD         .OHMM                                               :          
SP          .MV                                                 :          
SP_NORM     .MV                                                 :SP Normalized
VSH_SP      .V/V                                                :Volume of Shale from SP
~A        DEPTH            ASN           CILD            ILD             SP        SP_NORM         VSH_SP
# ...
      2579.0000         0.9001       2169.246          0.461       -33.3188       -14.4509      0.6819195
      2579.5000         0.9219       2023.903         0.4941       -24.1445        -5.2766      0.9367611
      2580.0000         0.9437       1662.792         0.6014       -22.5576        -3.6897      0.9808417
      2580.5000         0.9655       1217.266         0.8215       -18.8889         -0.021              1
      2581.0000         0.9878       1213.271         0.8242       -17.5001         1.3678              1
      2581.5000         0.9937       1213.226         0.8242       -17.3005         1.5674              1
      2582.0000         0.9938       1213.181         0.8243       -16.6047         2.2632              1
      2582.5000         0.9998       1217.109         0.8216       -16.9005         1.9674              1
      2583.0000         1.0018       1225.009         0.8163       -17.6351         1.2328              1
      2583.5000         1.0137       1232.909         0.8111       -18.3698         0.4981              1
      2584.0000         1.0346       1232.864         0.8111       -19.1045        -0.2366              1
      2584.5000         1.0555       1224.874         0.8164       -19.8391        -0.9712              1
      2585.0000         1.0754       1195.075         0.8368       -20.5738        -1.7059              1
      2585.5000         1.0774       1165.276         0.8582       -21.3084        -2.4405              1
      2586.0000         1.0862       1135.476         0.8807       -22.0431        -3.1752      0.9951333
      2586.5000         1.0934       1105.677         0.9044       -22.8352        -3.9673      0.9731306
      2587.0000         1.2047       1075.877         0.9295        -23.032        -4.1641      0.9676639
      2587.5000         1.2067       1046.078          0.956       -23.3278        -4.4599      0.9594472
      2588.0000         1.2067       1017.959         0.9824       -23.6236        -4.7557      0.9512305
      2588.5000         1.2067       1013.921         0.9863       -24.6131        -5.7452      0.9237444
      2589.0000         1.1422       1017.893         0.9824       -25.4044        -6.5365      0.9017639
      2589.5000         1.0776       1206.519         0.8288        -29.549       -10.6811      0.7866361
      2590.0000         1.0131       1395.144         0.7168       -33.6936       -14.8257      0.6715083
      2590.5000         0.9169        1583.77         0.5425       -37.8382       -18.9703      0.5563805
      2591.0000         0.9209       1772.395         0.4532       -41.8504       -22.9825      0.4449306
      2591.5000         0.9467       1961.021         0.4137       -42.4436       -23.5757      0.4284528
      2592.0000         0.9724       2149.646         0.3841       -43.0381       -24.1702      0.4119389
      2592.5000         1.0104       2338.272         0.3645       -48.5706       -29.7027      0.2582583
      2593.0000         1.0124       2526.897         0.3448       -54.2329        -35.365      0.1009722
      2593.5000         0.9893       2715.523         0.3351       -54.3312       -35.4633      0.0982417
      2594.0000         0.9663       2951.995         0.3055        -54.528       -35.6601     0.09277502
      2594.5000         0.9432       2961.387         0.2957       -54.8238       -35.9559     0.08455838
      2595.0000         0.9201       2963.841          0.286       -55.2187       -36.3508      0.0735889
      2595.5000          0.897        3059.46         0.2763       -55.6137       -36.7458     0.06261667
      2596.0000         0.8739       3155.078         0.2665       -55.8104       -36.9425     0.05715275
      2596.5000         0.8509       3250.696         0.2666       -56.2053       -37.3374     0.04618337
      2597.0000          0.828       3346.314         0.2471       -56.4021       -37.5342      0.0407167
      2597.5000         0.8161       3441.933         0.2472        -56.797       -37.9291     0.02974722
      2598.0000         0.8082       3543.426         0.2375       -56.9938       -38.1259     0.02428055
      2598.5000         0.8043       3551.342         0.2278       -57.4878       -38.6199     0.01055834
      2599.0000         0.8043         3563.2         0.2379       -57.7836       -38.9157    0.002341694
      2599.5000         0.8063        3426.49          0.258       -58.0795       -39.2116              0
      2600.0000         0.8103       3289.779          0.278       -58.2762       -39.4083              0
      2600.5000         0.8015       3153.068         0.3034       -58.3401       -39.4722              0
      2601.0000         0.7927       3019.227         0.3193        -58.262       -39.3941              0
      2601.5000         0.7839       2885.385         0.3306       -55.4869        -36.619      0.0661389
      2602.0000         0.7751       2751.544         0.3415       -52.7117       -33.8438      0.1432278
      2602.5000         0.7663       2617.702         0.3424       -49.9365       -31.0686      0.2203167
      2603.0000         0.7575       2572.602         0.3433       -46.9311       -28.0632         0.3038
      2603.5000         0.7486       2642.627         0.3442       -46.8285       -27.9606        0.30665
      2604.0000         0.7398       2712.651         0.3352       -48.1738       -29.3059      0.2692806
      2604.5000         0.7305       2782.676         0.3262       -49.5192       -30.6513      0.2319083
      2605.0000         0.7267       3595.832         0.2879       -50.8646       -31.9967      0.1945361
      2605.5000         0.7189       3651.393          0.269         -52.21       -33.3421      0.1571639
      2606.0000         0.7131       3760.504         0.2401       -54.0237       -35.1558      0.1067833
      2606.5000         0.7134       3869.616         0.2212       -53.9211       -35.0532      0.1096333
      2607.0000         0.7075       3978.728         0.2338       -54.5975       -35.7296     0.09084447
      2607.5000         0.7076       4087.839         0.2338       -55.2738       -36.4059     0.07205836
      2608.0000         0.7977       4196.951         0.2329       -55.9501       -37.0822     0.05327225
      2608.5000          0.857       4306.063           0.23       -56.6265       -37.7586     0.03448338
      2609.0000         0.8373       4383.839         0.2296       -57.1585       -38.2906     0.01970556
      2609.5000         0.8177       4383.693         0.2374       -57.2511       -38.3832     0.01713329
      2610.0000          0.798       3624.748         0.2457       -57.1486       -38.2807     0.01998054
      2610.5000         0.7784       3632.683          0.229       -56.7255       -37.8576      0.0317333
      2611.0000         0.7588       3632.414         0.2398       -56.1337       -37.2658     0.04817221
      2611.5000         0.7391       3671.817         0.2408       -55.8329        -36.965     0.05652777
      2612.0000         0.7195       3695.351         0.2421       -55.9253       -37.0574     0.05396112
      2612.5000         0.6998       3710.949         0.2331       -56.2161       -37.3482     0.04588328
      2613.0000         0.6802       3726.547         0.2241       -56.7052       -37.8373     0.03229724
      2613.5000         0.6605       3734.207         0.2251       -57.3929        -38.525      0.0131944
      2614.0000         0.6446       3749.531          0.226       -58.1797       -39.3118              0
      2614.5000         0.6447       3765.126         0.2269       -58.5698       -39.7019              0
      2615.0000         0.6669       4808.213         0.2278       -58.8608       -39.9929              0
      2615.5000         0.6708       5276.343         0.2094       -58.5567       -39.6888              0
      2616.0000         0.6434       5250.911         0.2103       -57.6784       -38.8105    0.005263858
      2616.5000          0.616       5511.248         0.2013       -56.8001       -37.9322     0.02966107
