#------------------------------------------------------------------------------
# Created by    : vladimir.rabinovich
# Created on    : 09/19/2023 17:20:49
#------------------------------------------------------------------------------
~Version Information Section
VERS.           2.0     :   CWLS log ASCII Standard - VERSION 2.0
WRAP.           NO      :   One line per depth step
~Well Information Section
#MNEM       .UNIT                                         VALUE :DESCRIPTION
#------------------------------------------------------------------------------
STRT        .FT                                             556 :START DEPTH
STOP        .FT                                            7001 :STOP DEPTH
STEP        .FT                                             0.5 :STEP      
NULL        .                                           -999.25 :NULL      
COMP        .                          HUMBLE OIL & REFINING CO :COMPANY   
WELL        .                                     ST TR 00598-L :WELL      
FLD         .                                           WILDCAT :FIELD     
LOC         .                                                   :LOCATION  
CNTY        .                      MATAGORDA ISLAND LARGE BLOCK :LOCATION  
STAT        .                                             TEXAS :STATE     
CTRY        .                                     UNITED STATES :COUNTRY   
SRVC        .                                                   :SERVICE COMPANY
DATE        .                             9/13/2023 11:12:05 AM :LOG DATE  
API         .                                    42703000080000 :API NUMBER
UWI         .                                    42703000080000 :UNIQUE WELL ID
XCOORD      .                                  502144.869554487 :SURFACE X 
YCOORD      .                                  10234432.9570627 :SURFACE Y 
LAT         .                                        28.1568958 :LATITUDE  
LON         .                                       -96.5324651 :LONGITUDE 
ELEV        .FT                                              15 :ELEVATION VALUE
ELEV_TYPE   .                                                KB :ELEVATION REFERENCE TYPE
~Curve Information Section
#MNEM       .UNIT                                      API CODE :CURVE DESCRIPTION
#------------------------------------------------------------------------------
DEPT        .FT                                                 :DEPTH     
ASN         .OHMM                                               :          
CALI        .IN                                                 :          
CILD        .MMHO                                               :          
DT          .US/F                                               :          
ILD         .OHMM                                               :          
SP          .MV                                                 :          
SP_NORM     .MV                                                 :SP Normalized
VSH_SP      .V/V                                                :Volume of Shale from SP
~A        DEPTH            ASN           CALI           CILD             DT            ILD             SP        SP_NORM         VSH_SP
# ...
      3978.0000         0.5891         8.8497       3205.777       127.6743         0.2789       -64.3909       -15.4969     0.03593574
      3978.5000         0.5977         8.8781       3151.539       127.8494         0.3014       -64.2108        -15.312     0.04914284
      3979.0000         0.6064         9.0144       3106.105        129.094         0.3238       -64.0651       -15.1615     0.05989286
      3979.5000         0.6151         9.0627       3059.844       130.7593         0.3463       -64.0385       -15.1302     0.06212854
      3980.0000         0.6274         9.0587       2997.047       131.2014         0.3741       -64.0118       -15.0987      0.0643786
      3980.5000         0.6409          9.005       2905.594       130.6377         0.4117       -63.9852       -15.0673     0.06662144
      3981.0000         0.6545         8.9084       2786.754         127.78         0.4493        -63.934       -15.0114     0.07061427
      3981.5000         0.6705         8.8397        2372.43       122.7224          0.487       -63.7912       -14.8638     0.08115714
      3982.0000         0.6877         8.7981       2019.234       121.4551         0.5406       -63.6485       -14.7163     0.09169286
      3982.5000         0.7048         8.8056           1919       121.0439          0.596       -63.2307       -14.2938      0.1218714
      3983.0000         0.7428         8.8098       1667.248       121.8523         0.6514       -62.7435       -13.8018      0.1570143
      3983.5000         0.7854         8.8102        1523.66       122.3861         0.7035       -61.7695        -12.823      0.2269286
      3984.0000         0.8348         8.8133       1397.289       117.9492         0.7515       -60.5194       -11.5682      0.3165571
      3984.5000         0.8815         8.8319       1278.352       104.3971         0.7854       -58.7219        -9.7659      0.4452929
      3985.0000         0.8916         8.8546       1188.463        97.1288         0.7631       -56.9938         -8.033      0.5690714
      3985.5000         0.9016         8.8831       1106.596        98.7068         0.7409       -55.5287        -6.5632      0.6740571
      3986.0000         0.9071         9.1267       1144.059        116.896         0.7186       -54.6438        -5.6735      0.7376071
      3986.5000         0.9111        10.0264       1317.574       139.5625         0.6952       -54.3979        -5.4228      0.7555143
      3987.0000         0.9128        11.0481       1403.354       141.5742         0.6718       -54.2896        -5.3097      0.7635928
      3987.5000         0.9002        11.8417       1471.137       141.0076         0.6484        -54.235        -5.2504      0.7678286
      3988.0000         0.8853        12.0309       1527.721       139.4714          0.625       -54.1805        -5.1911      0.7720643
      3988.5000          0.857        11.5078       1581.051       135.2473         0.6015       -54.0984        -5.1042      0.7782714
      3989.0000         0.8288        10.4651       1630.494       145.8394         0.5864       -53.9534        -4.9545      0.7889643
      3989.5000         0.8033        10.3081       1673.996       157.6362          0.577       -53.8083        -4.8046      0.7996715
      3990.0000         0.7778        10.7965       1716.617       158.3125         0.5676       -53.6634        -4.6549      0.8103643
      3990.5000         0.7554        10.9456       1761.488       162.9971         0.5582       -53.5149        -4.5017      0.8213071
      3991.0000         0.7418        10.9176         1796.1       166.2966         0.5488        -53.324         -4.306      0.8352857
      3991.5000         0.7295        10.8708       1815.957        158.939         0.5498       -53.1957        -4.1729      0.8447928
      3992.0000         0.7303        10.8004       1796.613       155.8591         0.5684       -53.2415         -4.214      0.8418571
      3992.5000         0.7312        10.6445       1777.271       148.4624         0.5871       -53.5251        -4.4928      0.8219429
      3993.0000         0.7321         9.5542       1698.645       141.1345         0.6057       -54.0831         -5.046      0.7824286
      3993.5000         0.7452         9.5334       1556.428       144.5093         0.6234       -54.6412        -5.5994         0.7429
      3994.0000         0.7602         9.8984       1481.285       141.1199          0.639       -55.2833        -6.2367      0.6973786
      3994.5000         0.7752        10.2684        1449.35        141.936         0.6545       -55.9233        -6.8719      0.6520072
      3995.0000         0.7903        10.6578       1421.877       150.0391         0.6701       -55.3409        -6.2848      0.6939428
      3995.5000         0.7981        11.2248       1399.711       155.7095         0.6857       -54.8361        -5.7827      0.7298071
      3996.0000         0.8039        11.1842       1378.156       158.5234         0.7013       -54.3313        -5.2816         0.7656
      3996.5000         0.8096        10.8437       1358.764       157.8284         0.7156       -53.8262        -4.7801      0.8014215
      3997.0000         0.8101        10.3196       1339.361       158.6646         0.7137       -53.5041        -4.4616      0.8241714
      3997.5000         0.7999        10.3428       1330.705       163.5962         0.7118       -53.2116        -4.1727      0.8448071
      3998.0000         0.7897        10.3729       1322.367       163.5237         0.7098       -52.9192        -3.8839      0.8654357
      3998.5000         0.7795        10.2077       1332.998       158.7468         0.7079       -52.6848        -3.6531      0.8819214
      3999.0000         0.7706         9.9777       1344.795       158.7144          0.706       -52.5288        -3.5007      0.8928071
      3999.5000         0.7643         9.8303       1359.559       160.5088         0.7025       -52.3729        -3.3484      0.9036857
      4000.0000          0.758         9.9217       1395.334       157.8777         0.6981        -52.217        -3.1962      0.9145572
      4000.5000         0.7522        10.0609       1431.107        162.865         0.6938       -52.0617        -3.0445      0.9253929
      4001.0000         0.7509        10.2797       1465.268        157.217         0.6894       -51.9081        -2.8945      0.9361072
      4001.5000         0.7496        10.1896       1497.057       161.9863          0.685       -51.7546        -2.7446      0.9468143
      4002.0000         0.7483         10.102       1521.594        157.738         0.6807       -51.6011        -2.5947      0.9575214
      4002.5000         0.7479        10.2127       1522.377       156.7888         0.6749       -51.5001        -2.4973      0.9644786
      4003.0000         0.7499        10.2801       1523.129       152.7744         0.6684       -51.4005        -2.4013      0.9713357
      4003.5000         0.7519        10.3044       1521.756       144.7588         0.6618       -51.3008        -2.3052         0.9782
      4004.0000         0.7539        10.3906       1520.381        143.345         0.6553       -51.2719          -2.28           0.98
      4004.5000         0.7681        10.5891       1519.008       145.8682         0.6724       -51.3063         -2.318      0.9772857
      4005.0000         0.7899        10.5773       1506.777       145.8682         0.6961       -51.3408        -2.3561      0.9745643
      4005.5000         0.8117        10.5856       1470.061        142.313         0.7199       -51.3752        -2.3941        0.97185
      4006.0000         0.8724        10.6921       1294.783       138.6565         0.7436       -51.5951        -2.6176      0.9558857
      4006.5000         0.9253        11.1591       1179.611       136.5083         0.7849       -51.8344        -2.8605      0.9385357
      4007.0000         0.9773        11.4433       1087.133        139.832         0.8657       -52.0737        -3.1034      0.9211857
