#------------------------------------------------------------------------------
# Created by    : vladimir.rabinovich
# Created on    : 09/19/2023 17:20:46
#------------------------------------------------------------------------------
~Version Information Section
VERS.           2.0     :   CWLS log ASCII Standard - VERSION 2.0
WRAP.           NO      :   One line per depth step
~Well Information Section
#MNEM       .UNIT                                         VALUE :DESCRIPTION
#------------------------------------------------------------------------------
STRT        .FT                                            1000 :START DEPTH
STOP        .FT                                            6719 :STOP DEPTH
STEP        .FT                                             0.5 :STEP      
NULL        .                                           -999.25 :NULL      
COMP        .                                 CALIFORNIA CO THE :COMPANY   
WELL        .                                     ST TR 00695-L :WELL      
FLD         .                                           WILDCAT :FIELD     
LOC         .                                                   :LOCATION  
CNTY        .                      MATAGORDA ISLAND LARGE BLOCK :LOCATION  
STAT        .                                             TEXAS :STATE     
CTRY        .                                     UNITED STATES :COUNTRY   
SRVC        .                                                   :SERVICE COMPANY
DATE        .                             9/13/2023 11:12:01 AM :LOG DATE  
API         .                                    42703000270000 :API NUMBER
UWI         .                                    42703000270000 :UNIQUE WELL ID
XCOORD      .                                   404842.11633791 :SURFACE X 
YCOORD      .                                  10151340.1845366 :SURFACE Y 
LAT         .                                        27.9206537 :LATITUDE  
LON         .                                       -96.8258101 :LONGITUDE 
ELEV        .FT                                              11 :ELEVATION VALUE
ELEV_TYPE   .                                                KB :ELEVATION REFERENCE TYPE
~Curve Information Section
#MNEM       .UNIT                                      API CODE :CURVE DESCRIPTION
#------------------------------------------------------------------------------
DEPT        .FT                                                 :DEPTH     
ASN         .OHMM                                               :          
CILD        .MMHO                                               :          
ILD         .OHMM                                               :          
SP          .MV                                                 :          
SP_NORM     .MV                                                 :SP Normalized
VSH_SP      .V/V                                                :Volume of Shale from SP
~A        DEPTH            ASN           CILD            ILD             SP        SP_NORM         VSH_SP
# ...
      1380.0000         0.9483       1278.576         0.7936       -52.4122        -7.1292        0.86236
      1380.5000         0.9887       1213.723         0.8233       -48.7319        -3.4489      0.9850367
      1381.0000         1.0085       1148.232          0.842       -47.9982        -2.7152              1
      1381.5000         1.0142       1105.645         0.8487        -48.038         -2.755              1
      1382.0000         1.0199       1074.824         0.8555       -48.0779        -2.7949              1
      1382.5000         1.0257       1065.344         0.8622       -48.1177        -2.8347              1
      1383.0000         1.0314       1066.498          0.869       -48.1575        -2.8745              1
      1383.5000         1.0367        1067.65         0.8741       -48.1973        -2.9143              1
      1384.0000         1.0395       1068.805          0.865       -48.2372        -2.9542              1
      1384.5000         1.0424       1069.959         0.8559        -48.277         -2.994              1
      1385.0000         1.0452       1071.113         0.8467       -48.3168        -3.0338      0.9988734
      1385.5000         1.0481       1086.752         0.8359       -48.3567        -3.0737      0.9975433
      1386.0000          1.051       1118.717         0.8217       -48.3862        -3.1032        0.99656
      1386.5000         1.0538       1150.676         0.8076       -48.4043        -3.1213      0.9959567
      1387.0000         1.0459       1182.639         0.7935       -48.4223        -3.1393      0.9953567
      1387.5000         1.0343       1215.609         0.7794       -48.4403        -3.1573      0.9947566
      1388.0000         1.0227       1268.141         0.7677       -48.4584        -3.1754      0.9941533
      1388.5000         1.0111       1320.658         0.7576       -48.4764        -3.1934      0.9935533
      1389.0000         0.9995       1375.549         0.7476       -48.4944        -3.2114      0.9929534
      1389.5000          0.988       1438.004         0.7375        -48.528         -3.245      0.9918333
      1390.0000         0.9666       1500.445         0.7274       -48.5907        -3.3077      0.9897434
      1390.5000         0.9421       1557.574         0.7174       -48.6534        -3.3704      0.9876533
      1391.0000         0.9176       1609.242         0.7068        -48.716         -3.433      0.9855667
      1391.5000         0.8931       1627.254         0.6961       -48.7787        -3.4957      0.9834767
      1392.0000         0.8757       1641.939         0.6854       -48.8413        -3.5583        0.98139
      1392.5000         0.8625       1656.625         0.6765       -49.0636        -3.7806        0.97398
      1393.0000         0.8495       1670.891         0.6696       -49.3829        -4.0999      0.9633366
      1393.5000         0.8372       1678.168         0.6626       -49.7022        -4.4192      0.9526933
      1394.0000         0.8249        1674.92         0.6557       -49.9866        -4.7036      0.9432133
      1394.5000         0.8125       1671.672         0.6487       -50.1871        -4.9041        0.93653
      1395.0000         0.8036       1668.424         0.6418       -50.3878        -5.1048        0.92984
      1395.5000          0.797       1665.176         0.6367       -50.5883        -5.3053      0.9231567
      1396.0000         0.7965       1661.926         0.6405       -50.7341        -5.4511      0.9182967
      1396.5000         0.7961       1660.354         0.6443       -50.6069        -5.3239      0.9225367
      1397.0000         0.7957       1659.059         0.6481       -50.4796        -5.1966        0.92678
      1397.5000         0.7952       1657.766         0.6518       -50.3523        -5.0693      0.9310233
      1398.0000         0.7948       1656.469         0.6556       -50.2673        -4.9843      0.9338567
      1398.5000         0.7961       1655.168         0.6594       -50.2121        -4.9291      0.9356967
      1399.0000         0.7975       1653.869         0.6632       -50.1569        -4.8739      0.9375367
      1399.5000         0.7988        1652.57         0.6666       -50.1016        -4.8186        0.93938
      1400.0000         0.8002        1651.27         0.6699       -50.0464        -4.7634        0.94122
      1400.5000         0.8016       1649.971         0.6732       -50.0485        -4.7655        0.94115
      1401.0000          0.803       1643.861         0.6766       -50.1938        -4.9108      0.9363067
      1401.5000         0.8044       1636.709         0.6799       -50.3391        -5.0561      0.9314634
      1402.0000         0.8058       1629.555         0.6833       -50.4844        -5.2014        0.92662
      1402.5000          0.809       1616.088         0.6866       -50.6296        -5.3466        0.92178
      1403.0000         0.8139       1600.559         0.6899       -50.7749        -5.4919      0.9169367
      1403.5000         0.8189       1585.029         0.6933       -50.9116        -5.6286        0.91238
      1404.0000         0.8238         1569.5         0.6965       -51.0405        -5.7575      0.9080833
      1404.5000         0.8288       1544.119         0.6982       -51.1693        -5.8863        0.90379
      1405.0000         0.8337       1515.836            0.7       -51.2982        -6.0152      0.8994933
      1405.5000         0.8386       1487.547         0.7018       -51.4271        -6.1441      0.8951967
      1406.0000         0.8436       1466.945         0.7036       -52.0309        -6.7479        0.87507
      1406.5000         0.8485       1453.768         0.7054       -52.6555        -7.3725        0.85425
      1407.0000         0.8527       1440.588         0.7071       -53.1758        -7.8928      0.8369067
      1407.5000         0.8567       1435.045         0.7089       -53.6961        -8.4131      0.8195633
      1408.0000         0.8606       1441.611         0.7107       -53.9162        -8.6332      0.8122267
      1408.5000         0.8645       1448.178         0.7125       -53.9978        -8.7148      0.8095067
      1409.0000         0.8685       1454.744         0.7107       -54.0795        -8.7965      0.8067833
      1409.5000         0.8696        1467.98         0.7043       -54.1611        -8.8781      0.8040633
      1410.0000          0.869       1484.844          0.698       -54.2428        -8.9598        0.80134
      1410.5000         0.8685       1501.711         0.6916       -54.3245        -9.0415      0.7986166
      1411.0000          0.868       1518.576         0.6852       -54.7076        -9.4246      0.7858467
      1411.5000         0.8654       1530.557         0.6788       -55.7726       -10.4896      0.7503467
      1412.0000         0.8614       1539.637         0.6724       -56.7247       -11.4417        0.71861
      1412.5000         0.8575       1548.713          0.666       -57.6477       -12.3647      0.6878433
      1413.0000         0.8538       1557.791         0.6596       -58.5919       -13.3089        0.65637
      1413.5000         0.8506        1559.67         0.6533       -59.4929       -14.2099      0.6263367
      1414.0000         0.8475       1546.738         0.6469       -60.1553       -14.8723      0.6042567
      1414.5000         0.8445       1533.758         0.6405       -60.8178       -15.5348      0.5821733
      1415.0000         0.8438       1520.623         0.6341       -61.0781       -15.7951      0.5734966
      1415.5000         0.8432       1507.488         0.6277       -61.2745       -15.9915        0.56695
      1416.0000         0.8426       1523.797         0.6213        -61.471        -16.188         0.5604
      1416.5000         0.8413       1541.377         0.6149       -61.6206       -16.3376      0.5554133
      1417.0000         0.8399       1558.951         0.6086       -61.7227       -16.4397        0.55201
      1417.5000         0.8385       1576.531          0.608       -61.8248       -16.5418      0.5486067
