#------------------------------------------------------------------------------
# Created by    : vladimir.rabinovich
# Created on    : 09/19/2023 17:20:46
#------------------------------------------------------------------------------
~Version Information Section
VERS.           2.0     :   CWLS log ASCII Standard - VERSION 2.0
WRAP.           NO      :   One line per depth step
~Well Information Section
#MNEM       .UNIT                                         VALUE :DESCRIPTION
#------------------------------------------------------------------------------
STRT        .FT                                            1000 :START DEPTH
STOP        .FT                                            6719 :STOP DEPTH
STEP        .FT                                             0.5 :STEP      
NULL        .                                           -999.25 :NULL      
COMP        .                                 CALIFORNIA CO THE :COMPANY   
WELL        .                                     ST TR 00695-L :WELL      
FLD         .                                           WILDCAT :FIELD     
LOC         .                                                   :LOCATION  
CNTY        .                      MATAGORDA ISLAND LARGE BLOCK :LOCATION  
STAT        .                                             TEXAS :STATE     
CTRY        .                                     UNITED STATES :COUNTRY   
SRVC        .                                                   :SERVICE COMPANY
DATE        .                             9/13/2023 11:12:01 AM :LOG DATE  
API         .                                    42703000270000 :API NUMBER
UWI         .                                    42703000270000 :UNIQUE WELL ID
XCOORD      .                                   404842.11633791 :SURFACE X 
YCOORD      .                                  10151340.1845366 :SURFACE Y 
LAT         .                                        27.9206537 :LATITUDE  
LON         .                                       -96.8258101 :LONGITUDE 
ELEV        .FT                                              11 :ELEVATION VALUE
ELEV_TYPE   .                                                KB :ELEVATION REFERENCE TYPE
~Curve Information Section
#MNEM       .UNIT                                      API CODE :CURVE DESCRIPTION
#------------------------------------------------------------------------------
DEPT        .FT                                                 :DEPTH     
ASN         .OHMM                                               :          
CILD        .MMHO                                               :          
ILD         .OHMM                                               :          
SP          .MV                                                 :          
SP_NORM     .MV                                                 :SP Normalized
VSH_SP      .V/V                                                :Volume of Shale from SP
~A        DEPTH            ASN           CILD            ILD             SP        SP_NORM         VSH_SP
# ...
      1760.0000         0.8582       1503.557         0.6365       -55.7382       -10.4552      0.7514933
      1760.5000         0.8552       1539.434         0.6309       -55.6566       -10.3736      0.7542133
      1761.0000         0.8537       1554.543         0.6382        -55.575        -10.292      0.7569333
      1761.5000         0.8522       1569.646         0.6455       -55.4933       -10.2103      0.7596567
      1762.0000         0.8507        1583.34         0.6532       -55.4117       -10.1287      0.7623767
      1762.5000         0.8492       1587.193         0.6612       -55.2488        -9.9658      0.7678066
      1763.0000         0.8477       1591.045         0.6691        -55.076         -9.793      0.7735667
      1763.5000         0.8479       1594.898         0.6771       -54.9033        -9.6203      0.7793233
      1764.0000           0.85       1598.752         0.6851       -54.7305        -9.4475      0.7850834
      1764.5000         0.8521       1600.777          0.693       -54.5577        -9.2747      0.7908433
      1765.0000         0.8542       1602.391          0.701       -54.3849        -9.1019      0.7966033
      1765.5000         0.8563       1596.787         0.7104       -54.2938        -9.0108        0.79964
      1766.0000         0.8625        1587.17          0.723       -54.2396        -8.9566      0.8014467
      1766.5000         0.8725       1554.012         0.7356       -54.1854        -8.9024      0.8032534
      1767.0000         0.8824       1520.854         0.7483       -54.1312        -8.8482        0.80506
      1767.5000         0.8992       1487.697         0.7609        -54.077         -8.794      0.8068667
      1768.0000          0.919       1454.525         0.7735       -54.1366        -8.8536        0.80488
      1768.5000         0.9388       1421.369         0.7862       -54.2977        -9.0147        0.79951
      1769.0000         0.9586       1388.211         0.8154       -54.4589        -9.1759      0.7941366
      1769.5000         0.9784       1328.744         0.8499       -54.6824        -9.3994      0.7866867
      1770.0000         0.9989       1267.752         0.8845       -55.0001        -9.7171      0.7760966
      1770.5000         1.0196       1206.736         0.9171       -55.2847       -10.0017        0.76661
      1771.0000         1.0402       1151.943         0.9386       -55.1588        -9.8758      0.7708067
      1771.5000         1.0609       1100.164           0.96       -55.0328        -9.7498      0.7750067
      1772.0000         1.0822       1048.396         0.9815       -54.9069        -9.6239      0.7792033
      1772.5000         1.1035       1012.688          1.003        -54.781         -9.498         0.7834
      1773.0000         1.1248       991.2666         1.0244       -54.6032        -9.3202      0.7893267
      1773.5000         1.1443       969.8447         1.0083       -54.2974        -9.0144        0.79952
      1774.0000         1.1351       948.4229         0.9801       -53.9914        -8.7084        0.80972
      1774.5000         1.1013       930.0127          0.952       -53.6855        -8.4025      0.8199167
      1775.0000         1.0739       968.4951          0.922       -53.3796        -8.0966      0.8301134
      1775.5000         1.0488       1020.025         0.8917       -52.9319        -7.6489      0.8450367
      1776.0000         1.0237       1072.355         0.8613       -52.3055        -7.0225      0.8659167
      1776.5000         0.9986       1124.672          0.831       -51.6791        -6.3961      0.8867967
      1777.0000         0.9735       1177.002         0.8007       -51.0527        -5.7697      0.9076766
      1777.5000          0.957       1227.695         0.7704       -50.4263        -5.1433      0.9285567
      1778.0000         0.9412       1264.141         0.7392       -50.6505        -5.3675      0.9210833
      1778.5000         0.9266       1300.586         0.7105       -50.9681        -5.6851      0.9104967
      1779.0000         0.9151       1337.029         0.7097       -51.2404        -5.9574        0.90142
      1779.5000         0.9047         1373.9          0.709       -51.4794        -6.1964      0.8934533
      1780.0000         0.8993       1419.219         0.7082       -51.7183        -6.4353        0.88549
      1780.5000         0.8939       1464.549         0.7074       -51.8865        -6.6035      0.8798833
      1781.0000         0.8885        1504.02         0.7067       -51.9726        -6.6896      0.8770133
      1781.5000         0.8831       1542.189         0.7059       -52.0587        -6.7757      0.8741433
      1782.0000         0.8791       1545.326         0.7052       -52.1447        -6.8617      0.8712767
      1782.5000         0.8777        1534.32         0.7044       -52.2307        -6.9477        0.86841
      1783.0000         0.8764       1523.316         0.7037       -52.2679        -6.9849        0.86717
      1783.5000          0.875       1525.379         0.7029       -52.2147        -6.9317      0.8689433
      1784.0000         0.8737       1530.807         0.7021       -52.1614        -6.8784        0.87072
      1784.5000         0.8724       1519.748         0.7014       -52.1082        -6.8252      0.8724933
      1785.0000         0.8725       1512.311         0.7006       -52.0549        -6.7719        0.87427
      1785.5000         0.8726       1507.035         0.6999       -52.0016        -6.7186      0.8760467
      1786.0000         0.8727       1501.762         0.6991       -51.9483        -6.6653      0.8778234
      1786.5000         0.8728       1496.488         0.6983        -52.082         -6.799      0.8733667
      1787.0000         0.8729       1495.123         0.6976       -52.2622        -6.9792        0.86736
      1787.5000          0.873       1494.838         0.6968       -52.4424        -7.1594      0.8613533
      1788.0000         0.8729       1494.555         0.6961        -52.594         -7.311         0.8563
      1788.5000         0.8727       1494.355         0.6953       -52.4492        -7.1662      0.8611267
      1789.0000         0.8726       1505.137         0.6946       -52.3043        -7.0213      0.8659567
      1789.5000         0.8724       1515.918         0.6962       -52.1595        -6.8765      0.8707833
      1790.0000         0.8723       1514.398         0.7013       -52.0146        -6.7316      0.8756133
      1790.5000         0.8679       1511.547         0.7063       -52.1014        -6.8184        0.87272
      1791.0000         0.8701       1508.693         0.7113       -52.2156        -6.9326      0.8689134
      1791.5000         0.8723        1505.84         0.7152       -52.3297        -7.0467        0.86511
      1792.0000         0.8745       1500.926         0.7163       -52.4438        -7.1608      0.8613067
      1792.5000         0.8779       1475.049         0.7175       -52.4822        -7.1992      0.8600267
      1793.0000         0.8814       1449.164         0.7186       -52.3972        -7.1142        0.86286
      1793.5000         0.8849       1431.264         0.7197       -52.3122        -7.0292      0.8656933
      1794.0000         0.8885       1416.934         0.7208       -51.6906        -6.4076      0.8864133
      1794.5000          0.892       1413.955          0.722       -50.9304        -5.6474      0.9117534
      1795.0000         0.8955       1413.621         0.7231       -50.5048        -5.2218        0.92594
      1795.5000         0.8991       1413.287         0.7242       -50.2151        -4.9321      0.9355966
      1796.0000         0.9026       1410.227         0.7282       -49.9254        -4.6424      0.9452533
      1796.5000         0.9061       1403.576          0.733       -50.0508        -4.7678      0.9410734
      1797.0000         0.9097        1396.93         0.7377       -50.6187        -5.3357      0.9221433
      1797.5000         0.9138       1390.281         0.7424       -51.2828        -5.9998      0.9000067
