#------------------------------------------------------------------------------
# Created by    : vladimir.rabinovich
# Created on    : 09/19/2023 17:22:30
#------------------------------------------------------------------------------
~Version Information Section
VERS.           2.0     :   CWLS log ASCII Standard - VERSION 2.0
WRAP.           NO      :   One line per depth step
~Well Information Section
#MNEM       .UNIT                                         VALUE :DESCRIPTION
#------------------------------------------------------------------------------
STRT        .FT                                             328 :START DEPTH
STOP        .FT                                            8026 :STOP DEPTH
STEP        .FT                                             0.5 :STEP      
NULL        .                                           -999.25 :NULL      
COMP        .                                 MESA PETROLEUM CO :COMPANY   
WELL        .                                ST TR 00565-L NW/4 :WELL      
FLD         .                                           WILDCAT :FIELD     
LOC         .                                                   :LOCATION  
CNTY        .                      MATAGORDA ISLAND LARGE BLOCK :LOCATION  
STAT        .                                             TEXAS :STATE     
CTRY        .                                     UNITED STATES :COUNTRY   
SRVC        .                                                   :SERVICE COMPANY
DATE        .                             9/13/2023 11:12:01 AM :LOG DATE  
API         .                                    42703301780000 :API NUMBER
UWI         .                                    42703301780000 :UNIQUE WELL ID
XCOORD      .                                  585273.186473096 :SURFACE X 
YCOORD      .                                  10269188.7462706 :SURFACE Y 
LAT         .                                          28.25878 :LATITUDE  
LON         .                                       -96.2777629 :LONGITUDE 
ELEV        .FT                                              82 :ELEVATION VALUE
ELEV_TYPE   .                                                KB :ELEVATION REFERENCE TYPE
~Curve Information Section
#MNEM       .UNIT                                      API CODE :CURVE DESCRIPTION
#------------------------------------------------------------------------------
DEPT        .FT                                                 :DEPTH     
CILD        .MMHO                                               :          
DT          .US/F                                               :          
ILD         .OHMM                                               :          
SFL         .OHMM                                               :          
SP          .MV                                                 :          
SP_NORM     .MV                                                 :SP Normalized
VSH_SP      .V/V                                                :Volume of Shale from SP
~A        DEPTH           CILD             DT            ILD            SFL             SP        SP_NORM         VSH_SP
# ...
      2371.5000       1122.539       137.9045         0.9621         0.8971       -58.5981      -1.537586      0.9883133
      2372.0000        1090.85        138.092         0.9733         0.9041         -58.47      -1.413059      0.9910204
      2372.5000       1059.418       138.1389          0.994         0.9071       -58.3959      -1.342529      0.9925537
      2373.0000       1027.924       137.7993         1.0152         0.9298       -58.6077      -1.557896      0.9878718
      2373.5000       996.1357        134.072         1.0429          0.973       -59.0261      -1.979866      0.9786986
      2374.0000       967.4883          128.7         1.0769         1.0232       -59.7206      -2.677937      0.9635231
      2374.5000       944.3369       128.1357         1.1148         1.0775       -60.9118      -3.872707      0.9375498
      2375.0000       926.3105       127.4158         1.1606         1.1214       -62.3884      -5.352875      0.9053723
      2375.5000       908.8262       123.8079         1.2022         1.1073       -63.3452      -6.313244      0.8844947
      2376.0000       897.6143       125.9272         1.2415         1.0915        -63.923      -6.894615      0.8718562
      2376.5000       886.4512       129.8381         1.2616         1.0815       -64.4042      -7.379379      0.8613178
      2377.0000       886.9443       118.3318         1.2704         1.0785       -64.8635      -7.842255      0.8512554
      2377.5000       891.8789        98.3059         1.2601         1.0721        -65.226      -8.208321      0.8432974
      2378.0000       907.8896       110.7847         1.2433         1.0606       -65.5719      -8.557789      0.8357002
      2378.5000       934.9844       121.2368         1.2195         1.0282       -65.8918       -8.88126      0.8286682
      2379.0000        968.043       113.0315         1.1881          1.001       -66.1982      -9.191227      0.8219299
      2379.5000       1004.403        90.4294         1.1575         0.9873       -66.8087      -9.805298      0.8085805
      2380.0000       1046.455        80.1035         1.1113         1.0307       -67.4587      -10.45887      0.7943724
      2380.5000        1088.57       151.0916         1.0616         1.1365       -68.4944      -11.49814      0.7717796
      2381.0000       1129.625        136.658         1.0097         1.2806       -69.9144      -12.92171      0.7408324
      2381.5000       1179.008        115.449         0.9559         1.3129       -72.2993      -15.31018      0.6889092
      2382.0000       1236.154       112.7642          0.905         1.2655       -75.8036      -18.81804      0.6126512
      2382.5000       1327.504       108.9459         0.8432         1.2059       -81.7583      -24.77632      0.4831235
      2383.0000       1422.182       105.5413         0.7847         1.1533       -85.3728      -28.39439      0.4044699
      2383.5000       1530.658       104.5342         0.7217          1.104       -88.0693      -31.09445      0.3457728
      2384.0000       1634.158        112.675         0.6625          1.049       -88.1831      -31.21182      0.3432212
      2384.5000       1740.859       119.2808         0.6114         0.9907       -87.8097      -30.84199       0.351261
      2385.0000       1858.801       121.2654         0.5706          0.932       -87.3802      -30.41607      0.3605203
      2385.5000       1962.398       116.7072         0.5411         0.8766       -87.4952      -30.53463      0.3579428
      2386.0000       2068.656       115.1898         0.5189         0.8342       -88.6371       -31.6801      0.3330412
      2386.5000       2158.848         113.96         0.5011         0.8336       -90.2007      -33.24727      0.2989724
      2387.0000       2233.637        113.786         0.4882         0.8348       -91.9401      -34.99024      0.2610817
      2387.5000       2285.621       123.7756         0.4767         0.8292       -92.3766      -35.43031      0.2515149
      2388.0000       2319.039       131.9985         0.4658         0.8141        -92.651      -35.70828      0.2454722
      2388.5000       2347.609       135.1597         0.4557         0.7886       -92.6244      -35.68525      0.2459729
      2389.0000       2383.156       137.0649         0.4457         0.7761       -92.7036      -35.76802      0.2441735
      2389.5000       2429.176       134.8638         0.4332         0.7771       -93.6827      -36.75069      0.2228112
      2390.0000        2489.43       131.2908         0.4201          0.801       -95.7979      -38.86945       0.176751
      2390.5000       2560.277       128.7136          0.406         0.8417       -98.4153      -41.49043      0.1197734
      2391.0000        2639.43       128.6394         0.3895         0.8792      -100.5156       -43.5943     0.07403705
      2391.5000       2744.996       129.6118         0.3737         0.8835      -102.1571      -45.23936     0.03827477
      2392.0000       2853.867       130.3049         0.3586         0.8688      -103.3025      -46.38833     0.01329712
      2392.5000       2975.852       129.3699         0.3454         0.8646      -104.1326        -47.222              0
      2393.0000       3126.613       128.1482         0.3341         0.8577      -104.7881      -47.88107              0
      2393.5000       3236.078       131.5356         0.3239         0.8429      -105.3004      -48.39694              0
      2394.0000       3304.313       140.5229         0.3182         0.8246      -105.7452      -48.84531              0
      2394.5000       3355.148       146.4075         0.3126         0.8076      -106.1019      -49.20558              0
      2395.0000       3390.781       148.6838         0.3104         0.7914      -106.3818      -49.48905              0
      2395.5000        3417.41       146.8057         0.3083         0.7802      -106.7687      -49.87952              0
      2396.0000       3429.898       142.3196         0.3062           0.77      -107.1559      -50.27029              0
      2396.5000       3427.648       139.2288         0.3041         0.7634      -107.3936      -50.51156              0
      2397.0000       3410.844       137.7788         0.3039         0.7604      -107.4824      -50.60393              0
      2397.5000       3381.395       136.8103         0.3073         0.7699      -107.3792       -50.5043              0
      2398.0000       3328.117       135.7417          0.312         0.7859      -107.0493      -50.17797              0
      2398.5000       3274.887       134.3833          0.318         0.8131      -106.7593      -49.89154              0
      2399.0000       3233.906       133.0105         0.3233          0.838      -106.0438      -49.17961              0
      2399.5000       3214.734       133.7183         0.3266          0.844       -105.585      -48.72437              0
      2400.0000       3237.211       135.4763         0.3252         0.8223      -105.2356      -48.37855              0
      2400.5000       3274.137       137.2766          0.321         0.7968      -104.7953      -47.94182              0
      2401.0000        3349.68       136.9573         0.3125         0.7653       -104.817      -47.96708              0
      2401.5000       3449.582       135.7795         0.3014         0.7502      -104.8838      -48.03745              0
      2402.0000       3570.871       134.6697         0.2912         0.7437      -104.9562      -48.11342              0
      2402.5000       3690.781       133.6394         0.2826         0.7381      -104.9095      -48.07029              0
      2403.0000        3733.77       132.7043         0.2781          0.728      -104.2501      -47.41446              0
      2403.5000       3687.234       131.4263         0.2779         0.7147      -103.3085      -46.47643      0.0113819
      2404.0000       3565.055       132.6443          0.283         0.6903      -101.9963       -45.1678     0.03983042
      2404.5000       3439.281       137.9644         0.2934         0.6554      -100.3295      -43.50457     0.07598769
