#------------------------------------------------------------------------------
# Created by    : vladimir.rabinovich
# Created on    : 09/19/2023 17:22:51
#------------------------------------------------------------------------------
~Version Information Section
VERS.           2.0     :   CWLS log ASCII Standard - VERSION 2.0
WRAP.           NO      :   One line per depth step
~Well Information Section
#MNEM       .UNIT                                         VALUE :DESCRIPTION
#------------------------------------------------------------------------------
STRT        .FT                                             970 :START DEPTH
STOP        .FT                                           10993 :STOP DEPTH
STEP        .FT                                             0.5 :STEP      
NULL        .                                           -999.25 :NULL      
COMP        .                               AMOCO PRODUCTION CO :COMPANY   
WELL        .                                     ST TR 00558-L :WELL      
FLD         .                                           WILDCAT :FIELD     
LOC         .                                                   :LOCATION  
CNTY        .                      MATAGORDA ISLAND LARGE BLOCK :LOCATION  
STAT        .                                             TEXAS :STATE     
CTRY        .                                     UNITED STATES :COUNTRY   
SRVC        .                                                   :SERVICE COMPANY
DATE        .                             9/13/2023 11:19:13 AM :LOG DATE  
API         .                                    42703301770000 :API NUMBER
UWI         .                                    42703301770000 :UNIQUE WELL ID
XCOORD      .                                   593347.98828382 :SURFACE X 
YCOORD      .                                   10274817.073936 :SURFACE Y 
LAT         .                                        28.2748406 :LATITUDE  
LON         .                                       -96.2531821 :LONGITUDE 
ELEV        .FT                                              93 :ELEVATION VALUE
ELEV_TYPE   .                                                KB :ELEVATION REFERENCE TYPE
~Curve Information Section
#MNEM       .UNIT                                      API CODE :CURVE DESCRIPTION
#------------------------------------------------------------------------------
DEPT        .FT                                                 :DEPTH     
GR          .GAPI                                               :          
GR_NORM     .GAPI                                               :GammaRay Normalized
ILD         .OHMM                                               :          
SP          .MV                                                 :          
SP_NORM     .MV                                                 :SP Normalized
VSH_GR      .V/V                                                :Volume of Shale from GR
VSH_SP      .V/V                                                :Volume of Shale from SP
~A        DEPTH             GR        GR_NORM            ILD             SP        SP_NORM         VSH_GR         VSH_SP
# ...
      6296.5000        40.0918       44.74916         0.5012      -113.1667      -21.72829      0.2499821      0.6346612
      6297.0000        39.3663       42.49559         0.4682      -119.5383      -28.10698      0.2020338      0.5165374
      6297.5000        39.0822       41.40244         0.4603      -124.3063      -32.88206      0.1787753      0.4281099
      6298.0000        38.8365       40.41028         0.4642      -126.3556      -34.93845      0.1576656      0.3900288
      6298.5000          38.33       38.73246         0.4724      -123.9233      -32.51324      0.1219672      0.4349401
      6299.0000         38.018       37.56598         0.4887      -121.9474      -30.54443     0.09714849      0.4713995
      6299.5000          38.75       39.14426         0.5101      -121.0748       -29.6789      0.1307289      0.4874277
      6300.0000        41.3035       45.51143         0.5365      -118.0994      -26.71059      0.2662007      0.5423964
      6300.5000         44.494        53.5533          0.569       -108.814      -17.43227      0.4373041      0.7142171
      6301.0000        48.0187       62.47381         0.6133        -99.142      -7.767357      0.6271023      0.8931971
      6301.5000        51.2141       70.52857         0.6761       -95.0146      -3.647049      0.7984803      0.9694991
      6302.0000        53.1542       75.28308         0.7395       -91.6929      -0.332428        0.89964              1
      6302.5000        54.2591       77.84174         0.7805        -89.946       1.407387      0.9540796              1
      6303.0000        54.9869       79.56128         0.8016       -89.1119       2.234406      0.9906655              1
      6303.5000        55.4189       80.74866         0.8127       -88.8517       2.487518              1              1
      6304.0000        54.8342       79.26304         0.8113       -89.0131       2.319031        0.98432              1
      6304.5000        53.7275       76.40504         0.8106       -89.4122       1.912849      0.9235114              1
      6305.0000        53.3452       75.45157         0.8106       -89.3705       1.947464      0.9032249              1
      6305.5000        54.3618       78.17594         0.8109       -89.2227       2.088173      0.9611902              1
      6306.0000        55.8544        82.1517         0.8106       -88.9684       2.335396              1              1
      6306.5000        56.7684       84.60628          0.807       -88.7356       2.561104              1              1
      6307.0000        55.3664       80.97195         0.8003       -88.6943       2.595329              1              1
      6307.5000        54.3116       78.25038         0.7855       -88.6531        2.62944      0.9627741              1
      6308.0000        54.6708       79.24635         0.7709        -88.645       2.630455       0.983965              1
      6308.5000        55.8138       82.30306          0.755       -88.3594       2.908974              1              1
      6309.0000        56.5978       84.41585         0.7387       -87.7949       3.466385              1              1
      6309.5000         57.135       85.87983         0.7229       -87.7598       3.494392              1              1
      6310.0000        57.2288       86.17804         0.7087       -88.1442       3.102913              1              1
      6310.5000        56.7976       85.09602         0.6949       -88.1691        3.07093              1              1
      6311.0000        56.1861       83.53993         0.6798       -87.7379       3.495049              1              1
      6311.5000         55.353       81.40128         0.6636       -87.4811       3.744759              1              1
      6312.0000        55.2453       81.16973          0.646       -87.4723       3.746475              1              1
      6312.5000        55.5345       81.98167         0.6354       -87.8699       3.341789              1              1
      6313.0000        55.4883       81.91183         0.6342       -88.3459       2.858704              1              1
      6313.5000         55.092       80.92152          0.641       -88.4958       2.701729              1              1
      6314.0000        55.0457       80.85143         0.6578       -88.5183       2.672134              1              1
      6314.5000        55.5603       82.25596         0.6802       -88.4771       2.706253              1              1
      6315.0000        55.6169       82.45641         0.7105       -88.2728       2.903473              1              1
      6315.5000        53.8677       77.90922         0.7532       -88.0142       3.154984      0.9555153              1
      6316.0000        52.2736        73.7698         0.7915       -87.8867       3.275391      0.8674425              1
      6316.5000        50.9301       70.28924         0.8255       -87.8464       3.308617      0.7933881              1
      6317.0000        49.7823       67.32323         0.8509       -87.9543       3.193626      0.7302814              1
      6317.5000        48.6404        64.3727          0.861       -88.2662       2.874649      0.6675043              1
      6318.0000        47.5689       61.60725         0.8647       -88.8704       2.263359       0.608665              1
      6318.5000        46.3339       58.41195         0.8503       -90.4829      0.6437683      0.5406798              1
      6319.0000        45.1658       55.39254         0.8351       -92.6951      -1.575508      0.4764369              1
      6319.5000        44.2637       53.07244         0.8201       -95.4657      -4.353195      0.4270732      0.9564223
      6320.0000        43.3235       50.65221         0.8079       -98.5728      -7.467384      0.3755789      0.8987522
      6320.5000        43.7507       51.82698         0.7992       -100.588      -9.489662       0.400574      0.8613026
      6321.0000        44.2767       53.26147         0.7952        -101.33      -10.23875       0.431095      0.8474305
      6321.5000        44.3834        53.5936         0.7937      -101.0516       -9.96743      0.4381616       0.852455
      6322.0000        44.2646        53.3329         0.7904       -99.3057      -8.228622      0.4326149      0.8846551
      6322.5000        44.4599       53.89798         0.7906       -98.2031       -7.13311      0.4446379      0.9049424
      6323.0000        44.2656       53.43874         0.8008       -97.5298      -6.466888      0.4348669      0.9172798
      6323.5000        43.9225       52.58836         0.8259       -97.8497      -6.793877      0.4167736      0.9112245
      6324.0000        43.5651       51.70034         0.8651       -98.7769      -7.728157      0.3978797       0.893923
      6324.5000        43.0527       50.40481         0.9029      -100.2158      -9.174141      0.3703151      0.8671455
      6325.0000        42.5396       49.10746         0.9319       -103.083      -12.04843      0.3427118      0.8139179
      6325.5000        41.9692       47.65942         0.9232      -107.2747      -16.24721      0.3119025      0.7361628
      6326.0000         41.276       45.88856         0.9047       -112.551       -21.5306      0.2742246      0.6383222
      6326.5000        39.5352       41.36346         0.8511      -117.6196      -26.60629       0.177946       0.544328
      6327.0000        38.1081       37.66314          0.737      -121.7325      -30.72626     0.09921565      0.4680321
      6327.5000        37.3582        35.7432         0.6342      -126.7762      -35.77705       0.058366       0.374499
      6328.0000        36.6799        34.0115         0.5511      -132.9902      -41.99814      0.0215213      0.2592937
      6328.5000        36.1059       32.55403         0.4951      -141.9248      -50.93983              0     0.09370691
      6329.0000        37.9243       37.38638         0.4403      -139.0649      -48.08701     0.09332713      0.1465369
      6329.5000        39.7547       42.25026         0.3846      -135.0664       -44.0956      0.1968141      0.2204519
