#------------------------------------------------------------------------------
# Created by    : vladimir.rabinovich
# Created on    : 09/19/2023 17:20:09
#------------------------------------------------------------------------------
~Version Information Section
VERS.           2.0     :   CWLS log ASCII Standard - VERSION 2.0
WRAP.           NO      :   One line per depth step
~Well Information Section
#MNEM       .UNIT                                         VALUE :DESCRIPTION
#------------------------------------------------------------------------------
STRT        .FT                                            1853 :START DEPTH
STOP        .FT                                            6238 :STOP DEPTH
STEP        .FT                                             0.5 :STEP      
NULL        .                                           -999.25 :NULL      
COMP        .               LOUISIANA LAND & EXPLORATION CO THE :COMPANY   
WELL        .                                          SL 79258 :WELL      
FLD         .                                           WILDCAT :FIELD     
LOC         .                                                   :LOCATION  
CNTY        .                      MATAGORDA ISLAND LARGE BLOCK :LOCATION  
STAT        .                                             TEXAS :STATE     
CTRY        .                                     UNITED STATES :COUNTRY   
SRVC        .                                                   :SERVICE COMPANY
DATE        .                             9/13/2023 11:12:01 AM :LOG DATE  
API         .                                    42703301870000 :API NUMBER
UWI         .                                    42703301870000 :UNIQUE WELL ID
XCOORD      .                                  470651.272343367 :SURFACE X 
YCOORD      .                                  10209272.4173218 :SURFACE Y 
LAT         .                                        28.0852496 :LATITUDE  
LON         .                                       -96.6277134 :LONGITUDE 
ELEV        .FT                                              82 :ELEVATION VALUE
ELEV_TYPE   .                                                KB :ELEVATION REFERENCE TYPE
~Curve Information Section
#MNEM       .UNIT                                      API CODE :CURVE DESCRIPTION
#------------------------------------------------------------------------------
DEPT        .FT                                                 :DEPTH     
ASFL        .OHMM                                               :          
CILD        .MMHO                                               :          
ILD         .OHMM                                               :          
SP          .MV                                                 :          
SP_NORM     .MV                                                 :SP Normalized
VSH_SP      .V/V                                                :Volume of Shale from SP
~A        DEPTH           ASFL           CILD            ILD             SP        SP_NORM         VSH_SP
# ...
      4741.0000         0.7299       2027.701         0.4912      -105.4309      -52.91579     0.05210524
      4741.5000         0.7392       2229.977         0.4499      -104.8447      -52.33318     0.06667051
      4742.0000         0.7485       2349.539          0.442       -104.376      -51.86806     0.07829847
      4742.5000         0.7579        2422.32         0.4399      -103.6223      -51.11795     0.09705134
      4743.0000         0.7672       2446.867         0.4384      -102.7742      -50.27343      0.1181642
      4743.5000         0.7765       2461.227         0.4369      -101.9266      -49.42942      0.1392646
      4744.0000         0.7864       2458.242         0.4355      -101.1049       -48.6113      0.1597175
      4744.5000         0.7957       2454.906          0.434      -100.3325      -47.84249      0.1789378
      4745.0000         0.7764       2479.426         0.4326       -99.6766      -47.19017      0.1952457
      4745.5000         0.7572       2538.004         0.4295      -101.2954      -48.81256      0.1546859
      4746.0000          0.738       2505.766         0.4253      -102.8956      -50.41635      0.1145913
      4746.5000          0.724       2422.766         0.4211      -104.4983      -52.02263     0.07443418
      4747.0000          0.715       2339.711         0.4169      -106.1761      -53.70402     0.03239946
      4747.5000         0.7243       2256.707         0.4127       -105.937       -53.4685     0.03828745
      4748.0000         0.7426       2203.633         0.4085      -104.5686      -52.10369     0.07240763
      4748.5000          0.761       2153.016         0.4043      -103.2001      -50.73878      0.1065305
      4749.0000          0.841       2102.449         0.4112       -102.146      -49.68827      0.1327933
      4749.5000         0.8824       2023.279         0.4231      -101.3083      -48.85415      0.1536464
      4750.0000         0.9292        1929.17          0.435       -100.891      -48.44043      0.1639892
      4750.5000         0.9657         1891.6         0.4561       -100.943      -48.49602      0.1625995
      4751.0000         0.9799       1854.029         0.4799       -100.946      -48.50261      0.1624349
      4751.5000         0.9834       1829.162         0.4918       -100.752      -48.31219      0.1671952
      4752.0000         0.9853       1812.133         0.5009       -100.558      -48.12178      0.1719556
      4752.5000         0.9872       1812.188         0.5101       -100.364      -47.93136      0.1767159
      4753.0000         0.9917       1812.242         0.5192      -100.1699      -47.74085      0.1814788
      4753.5000         1.0073       1812.299         0.5284       -99.8937      -47.46824      0.1882941
      4754.0000         1.0117       1807.355         0.5295       -99.4421      -47.02022      0.1994945
      4754.5000         0.9873       1796.016         0.5284       -98.9906      -46.57231      0.2106923
      4755.0000         0.9375       1784.662         0.5273       -99.7043      -47.28959      0.1927602
      4755.5000         0.8908       1769.945         0.5262      -100.3097      -47.89857      0.1775356
      4756.0000         0.8556       1745.914          0.524      -101.0192      -48.61166      0.1597084
      4756.5000         0.8203       1747.768         0.5198      -102.9264      -50.52245      0.1119389
      4757.0000         0.7874       1758.875         0.5156      -105.2158      -52.81543     0.05461426
      4757.5000         0.7737       1773.766         0.5114      -107.1464      -54.74962    0.006259537
      4758.0000         0.7601       1788.668         0.5072      -108.2855       -55.8923              0
      4758.5000         0.7475        2137.93          0.503      -109.5369      -57.14729              0
      4759.0000         0.7387       2190.191         0.4962      -111.3281      -58.94208              0
      4759.5000         0.7299       2207.266         0.4861      -112.0931      -59.71066              0
      4760.0000         0.7211        2203.73         0.4761      -109.1362      -56.75735              0
      4760.5000         0.7426       2149.723          0.466      -106.0197      -53.64443      0.0338892
      4761.0000         0.7761       2095.664          0.457      -103.7339      -51.36222     0.09094448
      4761.5000         0.8029       2049.914         0.4642      -102.4431        -50.075      0.1231249
      4762.0000         0.8255       2025.098         0.4714      -101.5764      -49.21189      0.1447027
      4762.5000         0.8412       2000.279         0.4785      -101.0266      -48.66568       0.158358
      4763.0000         0.8504       1954.723         0.4857      -100.4768      -48.11946      0.1720135
      4763.5000         0.8597       1904.449         0.5069      -100.1915      -47.83775      0.1790564
      4764.0000         0.8824       1854.176         0.5312       -99.9294      -47.57923      0.1855192
      4764.5000         0.9699       1790.584         0.5555       -99.4559      -47.10932       0.197267
      4765.0000         1.0052       1726.207         0.5798        -98.606      -46.26301      0.2184248
      4765.5000         1.0584       1665.416         0.5979       -97.7565      -45.41709      0.2395727
      4766.0000         1.3536       1610.031         0.6096       -96.8473      -44.51147      0.2622131
      4766.5000         1.3464       1554.598         0.6212       -95.8456      -43.51336       0.287166
      4767.0000         1.2849       1510.197         0.6261        -94.495      -42.16635      0.3208412
      4767.5000         1.2296       1470.268         0.6028       -92.6606      -40.33553      0.3666117
      4768.0000         1.0792       1459.898         0.5794       -96.8695      -44.54802      0.2612995
      4768.5000         0.6703       1504.668          0.556      -100.0009      -47.68301      0.1829248
      4769.0000         0.6324       1558.529         0.5327      -102.6454      -50.33109      0.1167227
      4769.5000         0.6249       1623.398         0.5093      -104.3861      -52.07538     0.07311554
      4770.0000         0.6221       1810.684         0.4717        -105.99      -53.68286     0.03292847
      4770.5000          0.626       2223.883         0.4331      -107.0657      -54.76215     0.00594635
      4771.0000         0.6299       2567.098         0.3944      -107.6678      -55.36784              0
      4771.5000         0.6337       2626.219         0.3797      -106.9794      -54.68302    0.007924462
      4772.0000         0.6376       2652.977         0.3657      -105.7656      -53.47281     0.03817978
      4772.5000         0.6414       2679.758         0.3516      -104.7526      -52.46339     0.06341515
      4773.0000         0.6453       2724.309         0.3454      -105.0919      -52.80628     0.05484295
      4773.5000          0.647       2773.895         0.3451      -105.4143      -53.13226     0.04669342
      4774.0000         0.6448       2827.164         0.3449      -105.7363      -53.45785     0.03855381
      4774.5000          0.633       2906.285         0.3447      -106.0587      -53.78384     0.03040409
      4775.0000         0.6203       3006.832          0.337      -106.5911      -54.31982     0.01700439
      4775.5000         0.6072       3087.922         0.3265      -107.1334      -54.86571    0.003357315
      4776.0000         0.5941       3155.641         0.3162      -107.8503       -55.5862              0
      4776.5000         0.5836       3292.258         0.3096      -108.6726      -56.41208              0
      4777.0000         0.5742       3329.313         0.3031      -109.1473      -56.89037              0
      4777.5000         0.5648       3287.148         0.3113      -109.0093      -56.75595              0
      4778.0000         0.5713       3244.957           0.33      -107.5385      -55.28873              0
      4778.5000         0.5855       3159.277         0.3488      -105.9863      -53.74012       0.031497
