#------------------------------------------------------------------------------
# Created by    : vladimir.rabinovich
# Created on    : 09/19/2023 17:20:46
#------------------------------------------------------------------------------
~Version Information Section
VERS.           2.0     :   CWLS log ASCII Standard - VERSION 2.0
WRAP.           NO      :   One line per depth step
~Well Information Section
#MNEM       .UNIT                                         VALUE :DESCRIPTION
#------------------------------------------------------------------------------
STRT        .FT                                            1957 :START DEPTH
STOP        .FT                                            6608 :STOP DEPTH
STEP        .FT                                             0.5 :STEP      
NULL        .                                           -999.25 :NULL      
COMP        .                            HIGHLAND RESOURCES INC :COMPANY   
WELL        .                                     ST TR 00691-L :WELL      
FLD         .                                           WILDCAT :FIELD     
LOC         .                                                   :LOCATION  
CNTY        .                      MATAGORDA ISLAND LARGE BLOCK :LOCATION  
STAT        .                                             TEXAS :STATE     
CTRY        .                                     UNITED STATES :COUNTRY   
SRVC        .                                                   :SERVICE COMPANY
DATE        .                             9/13/2023 11:12:01 AM :LOG DATE  
API         .                                    42703000470000 :API NUMBER
UWI         .                                    42703000470000 :UNIQUE WELL ID
XCOORD      .                                  404407.912506245 :SURFACE X 
YCOORD      .                                  10154689.9311845 :SURFACE Y 
LAT         .                                        27.9298131 :LATITUDE  
LON         .                                       -96.8274765 :LONGITUDE 
ELEV        .FT                                              63 :ELEVATION VALUE
ELEV_TYPE   .                                                KB :ELEVATION REFERENCE TYPE
~Curve Information Section
#MNEM       .UNIT                                      API CODE :CURVE DESCRIPTION
#------------------------------------------------------------------------------
DEPT        .FT                                                 :DEPTH     
ASN         .OHMM                                               :          
CILD        .MMHO                                               :          
ILD         .OHMM                                               :          
SP          .MV                                                 :          
SP_NORM     .MV                                                 :SP Normalized
VSH_SP      .V/V                                                :Volume of Shale from SP
~A        DEPTH            ASN           CILD            ILD             SP        SP_NORM         VSH_SP
# ...
      5947.0000         0.5065       3590.262         0.2733      -150.7964       -95.4377     0.09194521
      5947.5000         0.5798       3577.961         0.2757      -149.4614       -94.0999      0.1048087
      5948.0000           0.64       3583.965         0.2782      -147.6919       -92.3277      0.1218491
      5948.5000         0.7001        3511.23         0.2807      -145.9246       -90.5576      0.1388692
      5949.0000         0.7182        2133.34         0.2809       -144.998       -89.6282      0.1478058
      5949.5000          0.726       2079.828         0.2762      -145.9338       -90.5612      0.1388346
      5950.0000         0.7305        2035.32         0.2715      -149.0315       -93.6561       0.109076
      5950.5000         0.7334       1997.875         0.2668      -152.1887       -96.8105     0.07874518
      5951.0000         0.7188       1955.664         0.2621      -155.3457       -99.9648      0.0484154
      5951.5000         0.7041       1811.479         0.2575      -158.4993      -103.1156     0.01811923
      5952.0000         0.6895       1726.768         0.2528      -161.8489      -106.4624              0
      5952.5000         0.6708       1615.238         0.2481      -165.3804      -109.9911              0
      5953.0000          0.639       1574.367         0.2434      -166.4678      -111.0757              0
      5953.5000         0.6081       1532.109         0.2383      -165.4905      -110.0956              0
      5954.0000         0.6039        1581.74         0.2326      -164.5122      -109.1145              0
      5954.5000         0.5997       1627.311         0.2268      -163.5349      -108.1344              0
      5955.0000         0.5955       1664.471         0.2211      -162.5576      -107.1544              0
      5955.5000         0.5912       1705.984         0.2153      -161.5793      -106.1733              0
      5956.0000           0.59       1755.119         0.2096      -160.6021      -105.1933              0
      5956.5000         0.6174       1800.691         0.2089      -159.7478      -104.3362    0.006382722
      5957.0000         0.6447       1832.186         0.2122      -158.9094       -103.495     0.01447113
      5957.5000          0.672       2030.473         0.2154       -158.072      -102.6548        0.02255
      5958.0000         0.6983       2058.676         0.2187      -157.2346      -101.8147     0.03062791
      5958.5000         0.7247       2086.879         0.2219      -156.3962      -100.9734     0.03871734
      5959.0000         0.7502       2115.082         0.2252      -156.8196      -101.3941     0.03467215
      5959.5000         0.7635       2139.797         0.2284      -157.6812      -102.2529     0.02641443
      5960.0000         0.7767       2162.855         0.2317      -158.5427      -103.1116     0.01815766
      5960.5000         0.7789       2216.914         0.2349      -159.4043      -103.9704     0.00990002
      5961.0000         0.7728       2174.461         0.2381      -160.2649      -104.8282    0.001651911
      5961.5000         0.7668       2080.051          0.238      -160.9148      -105.4753              0
      5962.0000         0.7608       2028.492          0.235      -161.4983      -106.0561              0
      5962.5000         0.7548        1966.24         0.2321      -162.0815      -106.6365              0
      5963.0000         0.7488       1966.201         0.2292       -162.665      -107.2172              0
      5963.5000         0.7428        1966.16         0.2262      -163.2483      -107.7977              0
      5964.0000         0.7277       1966.121         0.2233      -163.8313      -108.3779              0
      5964.5000         0.7086       1966.082         0.2277       -164.415      -108.9588              0
      5965.0000         0.6895       1966.043         0.2375      -164.9983      -109.5393              0
      5965.5000         0.6704       1966.002         0.2474      -165.5818      -110.1201              0
      5966.0000         0.6513       1965.963         0.2572      -164.2317      -108.7672              0
      5966.5000         0.6371       1874.813         0.2671      -162.5288      -107.0615              0
      5967.0000         0.6266       1784.758         0.2769      -160.8281       -105.358              0
      5967.5000         0.6162       1744.035         0.2906      -155.8645      -100.3916     0.04431152
      5968.0000         0.6058       1720.137         0.3055      -151.6477        -96.172     0.08488464
      5968.5000         0.5953       1771.201         0.3205      -150.1821       -94.7036     0.09900387
      5969.0000          0.601       1823.848         0.3355      -148.7166       -93.2354      0.1131212
      5969.5000         0.6134       1866.006         0.3504      -147.2493       -91.7653      0.1272568
      5970.0000         0.6312        1892.85         0.3654      -145.7837       -90.2969       0.141376
      5970.5000         0.6562       1922.314         0.3803      -146.2764       -90.7868      0.1366654
      5971.0000         0.6812       1957.496         0.3953      -147.4048       -91.9124      0.1258423
      5971.5000         0.7062       1999.078         0.4103      -148.5322        -93.037      0.1150288
      5972.0000          0.728       2012.016         0.4252      -149.6597       -94.1617      0.1042144
      5972.5000         0.7327       2024.953         0.4299      -150.7871       -95.2863     0.09340096
      5973.0000          0.738       2037.875         0.4296      -151.9153       -96.4118     0.08257888
      5973.5000         0.7432       2068.375         0.4293      -151.5894       -96.0831     0.08573943
      5974.0000         0.7573       2111.223          0.429      -151.2498       -95.7407     0.08903173
      5974.5000         0.7851       2178.715         0.4287      -150.1765       -94.6646     0.09937888
      5975.0000         0.7967       2262.484          0.439      -148.5627        -93.048      0.1149231
      5975.5000          0.934       2548.832         0.4508       -146.949       -91.4315      0.1304663
      5976.0000         1.1646       2930.027         0.4626      -145.3372       -89.8169      0.1459913
      5976.5000         1.3952       3311.625         0.4744      -143.3843       -87.8613      0.1647952
      5977.0000         1.6259       3510.637         0.4863      -140.7275       -85.2017      0.1903683
      5977.5000         1.8565       3010.582         0.4981       -138.469       -82.9404      0.2121115
      5978.0000         1.9614       2570.156         0.5108      -136.5476       -81.0162      0.2306135
      5978.5000         2.7719       2525.129         0.5444      -134.4873       -78.9531      0.2504509
      5979.0000         2.9618       2481.832         0.5779      -128.2139       -72.6769       0.310799
      5979.5000         3.0745       2446.602         0.5744      -118.0535       -62.5137      0.4085221
      5980.0000         2.4048        2417.59         0.5401      -107.8928       -52.3503      0.5062471
      5980.5000         2.1133       2411.121         0.5021      -108.5895       -53.0442       0.499575
      5981.0000         1.9573       2404.645         0.4641      -112.2024       -56.6543      0.4648625
      5981.5000         1.6455       2396.355         0.4261      -115.8115       -60.2606      0.4301865
      5982.0000         1.3337       2387.914          0.388      -119.4244       -63.8707       0.395474
      5982.5000          1.022       2380.137         0.3796      -123.0337       -67.4772      0.3607961
      5983.0000         0.8305       2373.855          0.374      -126.6465       -71.0872      0.3260846
      5983.5000         0.7892        2367.57         0.3683      -130.2556       -74.6936      0.2914076
      5984.0000         0.7504        2348.93         0.3626      -133.8687       -78.3039      0.2566932
      5984.5000         0.7351       2322.531         0.3569      -137.4778       -81.9102      0.2220173
