#------------------------------------------------------------------------------
# Created by    : vladimir.rabinovich
# Created on    : 09/19/2023 17:22:51
#------------------------------------------------------------------------------
~Version Information Section
VERS.           2.0     :   CWLS log ASCII Standard - VERSION 2.0
WRAP.           NO      :   One line per depth step
~Well Information Section
#MNEM       .UNIT                                         VALUE :DESCRIPTION
#------------------------------------------------------------------------------
STRT        .FT                                             970 :START DEPTH
STOP        .FT                                           10993 :STOP DEPTH
STEP        .FT                                             0.5 :STEP      
NULL        .                                           -999.25 :NULL      
COMP        .                               AMOCO PRODUCTION CO :COMPANY   
WELL        .                                     ST TR 00558-L :WELL      
FLD         .                                           WILDCAT :FIELD     
LOC         .                                                   :LOCATION  
CNTY        .                      MATAGORDA ISLAND LARGE BLOCK :LOCATION  
STAT        .                                             TEXAS :STATE     
CTRY        .                                     UNITED STATES :COUNTRY   
SRVC        .                                                   :SERVICE COMPANY
DATE        .                             9/13/2023 11:19:13 AM :LOG DATE  
API         .                                    42703301770000 :API NUMBER
UWI         .                                    42703301770000 :UNIQUE WELL ID
XCOORD      .                                   593347.98828382 :SURFACE X 
YCOORD      .                                   10274817.073936 :SURFACE Y 
LAT         .                                        28.2748406 :LATITUDE  
LON         .                                       -96.2531821 :LONGITUDE 
ELEV        .FT                                              93 :ELEVATION VALUE
ELEV_TYPE   .                                                KB :ELEVATION REFERENCE TYPE
~Curve Information Section
#MNEM       .UNIT                                      API CODE :CURVE DESCRIPTION
#------------------------------------------------------------------------------
DEPT        .FT                                                 :DEPTH     
GR          .GAPI                                               :          
GR_NORM     .GAPI                                               :GammaRay Normalized
ILD         .OHMM                                               :          
SP          .MV                                                 :          
SP_NORM     .MV                                                 :SP Normalized
VSH_GR      .V/V                                                :Volume of Shale from GR
VSH_SP      .V/V                                                :Volume of Shale from SP
~A        DEPTH             GR        GR_NORM            ILD             SP        SP_NORM         VSH_GR         VSH_SP
# ...
     10953.0000        54.9868       81.34338         0.9006       -41.3344      -1.293518              1              1
     10953.5000        54.2611       80.11441         0.8843       -41.1771      -1.168625              1              1
     10954.0000        53.4698       78.77431         0.8682       -41.2239      -1.247826      0.9739216              1
     10954.5000        52.5474       77.21223           0.85       -41.2932      -1.349529      0.9406857              1
     10955.0000        51.6453       75.68451         0.8322       -41.3909       -1.47963      0.9081811              1
     10955.5000         51.255       75.02353          0.817       -41.5095       -1.63063      0.8941177              1
     10956.0000        51.9134       76.13854         0.8169       -41.5482      -1.701733      0.9178413              1
     10956.5000        52.6249       77.34348         0.8312       -41.5472      -1.733135      0.9434782              1
     10957.0000        53.1921       78.30404         0.8383       -41.5576       -1.77594      0.9639157              1
     10957.5000        53.7272       79.21022         0.8445       -41.5742      -1.824944      0.9831962              1
     10958.0000        53.8653       79.44411         0.8494       -41.5691      -1.852245      0.9881725              1
     10958.5000        53.8185       79.36486         0.8589         -41.54      -1.855549      0.9864864              1
     10959.0000        53.5461       78.90355         0.8756       -41.5109      -1.858849      0.9766713              1
     10959.5000        52.7059       77.48063         0.8937       -41.4926      -1.872952      0.9463964              1
     10960.0000         51.494       75.42829         0.9132       -41.4775      -1.890255      0.9027296              1
     10960.5000         50.481       73.71275         0.9359       -41.4613       -1.90646      0.8662288              1
     10961.0000        50.8016       74.25569         0.9607       -41.4277      -1.905262      0.8777807              1
     10961.5000        51.5511         75.525          0.981        -41.394      -1.903965      0.9047872              1
     10962.0000        52.2817       76.76227         0.9619        -41.261      -1.803368      0.9311121              1
     10962.5000        53.0074       77.99124         0.9194       -41.0912       -1.66597      0.9572604              1
     10963.0000        53.9083       79.51692         0.8789       -40.9592      -1.566372      0.9897217              1
     10963.5000        54.9308       81.24854         0.8479       -40.7444      -1.383972              1              1
     10964.0000         55.889       82.87126         0.8227       -40.4435      -1.115475              1              1
     10964.5000        56.8185       84.44539         0.8138        -40.235     -0.9393806              1              1
     10965.0000        56.9448       84.65927          0.811       -40.0929     -0.8296814              1              1
     10965.5000        55.7698       82.66938         0.8172       -40.2308     -0.9999847              1              1
     10966.0000        54.5948       80.67952         0.8443       -40.3557      -1.157288              1              1
     10966.5000          53.21       78.33434         0.8841       -40.0705     -0.9044876      0.9645605              1
     10967.0000        51.7728       75.90044         0.9325       -39.7145     -0.5808907      0.9127754              1
     10967.5000        50.3475       73.48668         0.9806       -39.9436      -0.842392      0.8614187              1
     10968.0000        49.3179       71.74304         1.0285       -40.3431        -1.2743        0.82432              1
     10968.5000        50.6144       73.93868         1.0658       -40.3422      -1.305801      0.8710358              1
     10969.0000        51.8491       76.02965          1.066       -40.0169      -1.012901      0.9155244              1
     10969.5000        53.0837       78.12047         1.0465       -39.7228     -0.7512054      0.9600099              1
     10970.0000        54.3755       80.30813         1.0214       -39.5703     -0.6311073              1              1
     10970.5000        55.6387       82.44736         0.9952       -39.4215     -0.5147095              1              1
     10971.0000         55.942       82.96103         0.9689        -39.373     -0.4986115              1              1
     10971.5000        55.7284       82.59928         0.9484       -39.4508     -0.6088142              1              1
     10972.0000        56.1774       83.35966         0.9316       -39.7011     -0.8915176              1              1
     10972.5000        57.8315        86.1609         0.9163       -40.0452      -1.268021              1              1
     10973.0000        58.1818       86.75414         0.9031       -40.0744      -1.329624              1              1
     10973.5000         56.809       84.42928         0.8917       -40.2654      -1.553024              1              1
     10974.0000        55.4504       82.12849         0.8864       -40.3566      -1.676628              1              1
     10974.5000        55.1513       81.62195         0.8789       -40.1694      -1.521828              1              1
     10975.0000        55.6733       82.50597         0.8675        -39.769      -1.153831              1              1
     10975.5000        56.3168       83.59573          0.844       -39.5038     -0.9210358              1              1
     10976.0000         56.377       83.69769         0.8196       -39.3524     -0.7981834              1              1
     10976.5000         56.228       83.44537         0.7896        -39.308     -0.7537804              1              1
     10977.0000        55.5696       82.33035         0.7595       -39.3093     -0.7550812              1              1
     10977.5000        54.8856         81.172         0.7323       -39.3256     -0.7713814              1              1
     10978.0000         54.826       81.07106         0.7127       -39.3616     -0.8073807              1              1
     10978.5000        55.1859       81.68056         0.7302       -39.4144     -0.8601799              1              1
     10979.0000        55.5505         82.298         0.7577       -39.4451     -0.8908806              1              1
     10979.5000        55.1114       81.55438         0.7867       -39.4441     -0.8898811              1              1
     10980.0000        53.8988       79.50082         0.8263        -39.666      -1.111782       0.989379              1
     10980.5000        53.1277       78.19497         0.8684       -40.0741      -1.519882      0.9615951              1
     10981.0000         54.814       81.05074         0.9092       -40.3959      -1.841682              1              1
     10981.5000        57.4167       85.45842          0.953       -40.5714      -2.017181              1      0.9993864
     10982.0000        58.7455       87.70876         1.0154       -40.5673      -2.013081              1      0.9995328
     10982.5000        58.0388       86.51195         1.1117       -40.3428      -1.788582              1              1
     10983.0000        57.2023       85.09534         1.2427       -40.2856       -1.73138              1              1
     10983.5000        56.5343       83.96408         1.3476       -41.2015      -2.647282              1      0.9768828
     10984.0000        56.0856       83.20421         1.3475       -42.3145      -3.760281              1      0.9371328
     10984.5000        55.2478       81.78538         1.3437        -41.376      -2.821781              1      0.9706507
     10985.0000        54.4714       80.47054           1.35       -40.9685       -2.41428              1      0.9852043
     10985.5000        54.2301       80.06188         1.2826       -40.5508      -1.996582              1              1
     10986.0000         54.335       80.23955         1.1261       -40.0991       -1.54488              1              1
