#------------------------------------------------------------------------------
# Created by    : vladimir.rabinovich
# Created on    : 09/19/2023 17:20:54
#------------------------------------------------------------------------------
~Version Information Section
VERS.           2.0     :   CWLS log ASCII Standard - VERSION 2.0
WRAP.           NO      :   One line per depth step
~Well Information Section
#MNEM       .UNIT                                         VALUE :DESCRIPTION
#------------------------------------------------------------------------------
STRT        .FT                                            2835 :START DEPTH
STOP        .FT                                            6351 :STOP DEPTH
STEP        .FT                                             0.5 :STEP      
NULL        .                                           -999.25 :NULL      
COMP        .                                   PENNZOIL CO INC :COMPANY   
WELL        .                                     ST TR 00659-L :WELL      
FLD         .                                           WILDCAT :FIELD     
LOC         .                                                   :LOCATION  
CNTY        .                      MATAGORDA ISLAND LARGE BLOCK :LOCATION  
STAT        .                                             TEXAS :STATE     
CTRY        .                                     UNITED STATES :COUNTRY   
SRVC        .                                                   :SERVICE COMPANY
DATE        .                             9/13/2023 11:19:13 AM :LOG DATE  
API         .                                    42703300020000 :API NUMBER
UWI         .                                    42703300020000 :UNIQUE WELL ID
XCOORD      .                                  437819.375414617 :SURFACE X 
YCOORD      .                                  10187782.3810297 :SURFACE Y 
LAT         .                                        28.0235144 :LATITUDE  
LON         .                                       -96.7273206 :LONGITUDE 
ELEV        .FT                                              73 :ELEVATION VALUE
ELEV_TYPE   .                                                KB :ELEVATION REFERENCE TYPE
~Curve Information Section
#MNEM       .UNIT                                      API CODE :CURVE DESCRIPTION
#------------------------------------------------------------------------------
DEPT        .FT                                                 :DEPTH     
ASN         .OHMM                                               :          
CILD        .MMHO                                               :          
ILD         .OHMM                                               :          
SP          .MV                                                 :          
SP_NORM     .MV                                                 :SP Normalized
VSH_SP      .V/V                                                :Volume of Shale from SP
~A        DEPTH            ASN           CILD            ILD             SP        SP_NORM         VSH_SP
# ...
      5647.0000         0.4329        3173.93         0.4482       -95.4335      -42.98508      0.1067004
      5647.5000         0.4209       3396.109         0.4361       -98.1417      -45.70008     0.04893445
      5648.0000         0.4013        3545.73         0.4239      -101.4557      -49.02088              0
      5648.5000         0.3814       3683.141         0.4118      -102.6171      -50.18908              0
      5649.0000         0.3612        -999.25         0.3997      -103.5026      -51.08138              0
      5649.5000         0.3429        -999.25         0.3875      -104.4694      -52.05498              0
      5650.0000          0.331        -999.25         0.3774      -105.3367      -52.92908              0
      5650.5000         0.3193        -999.25         0.3676      -105.1401      -52.73928              0
      5651.0000         0.3114        -999.25         0.3577      -102.7297      -50.33568              0
      5651.5000         0.3034        -999.25         0.3479      -101.9769      -49.58968              0
      5652.0000         0.2974        -999.25         0.3381      -102.4301      -50.04968              0
      5652.5000         0.2925        -999.25         0.3283      -103.0526      -50.67898              0
      5653.0000         0.2877        -999.25          0.323      -103.6005      -51.23368              0
      5653.5000         0.2842        -999.25         0.3218      -103.2754      -50.91538              0
      5654.0000         0.2806        -999.25         0.3206      -102.6497      -50.29648              0
      5654.5000         0.2771        -999.25         0.3194      -102.0239      -49.67749              0
      5655.0000         0.2741        -999.25         0.3182      -101.3982      -49.05859              0
      5655.5000         0.2718        -999.25          0.317      -100.8356      -48.50279              0
      5656.0000         0.2695        -999.25         0.3158      -100.3456      -48.01958              0
      5656.5000         0.2669        -999.25         0.3146       -99.8563      -47.53709    0.009849142
      5657.0000         0.2609        -999.25         0.3134       -99.3669      -47.05449     0.02011733
      5657.5000         0.2548        -999.25         0.3129       -98.8776      -46.57199     0.03038317
      5658.0000         0.2488        -999.25         0.3124       -98.3621      -46.06329      0.0412066
      5658.5000         0.2427        -999.25         0.3119       -97.8307      -45.53869     0.05236825
      5659.0000          0.239        -999.25         0.3114          -97.3      -45.01479     0.06351504
      5659.5000         0.2356        -999.25         0.3109       -96.7332      -44.45479     0.07542995
      5660.0000         0.2327        -999.25         0.3104       -95.9591      -43.68749     0.09175548
      5660.5000          0.234       3944.902           0.31       -95.1851      -42.92029       0.108079
      5661.0000         0.2353        3854.18         0.3095       -94.3698      -42.11179      0.1252811
      5661.5000         0.2404        3730.48          0.309       -93.1646      -40.91339      0.1507789
      5662.0000         0.2489       3685.195         0.3085        -91.986      -39.74159      0.1757108
      5662.5000         0.2575       3623.492          0.308       -91.5958       -39.3582      0.1838682
      5663.0000         0.2661       3555.438         0.3086       -91.2356       -39.0048      0.1913873
      5663.5000         0.2742       3492.988         0.3103         -90.95      -38.72599      0.1973193
      5664.0000         0.2818       3441.773          0.312       -90.6643      -38.44709      0.2032533
      5664.5000         0.2895       3406.645         0.3136       -90.3787       -38.1683      0.2091852
      5665.0000         0.2928       3387.691         0.3153       -89.5289       -37.3253      0.2271213
      5665.5000         0.2913       3450.754          0.317       -88.6128        -36.416      0.2464681
      5666.0000         0.2898       3529.566         0.3187       -88.9122       -36.7222      0.2399532
      5666.5000         0.2873        3604.18         0.3203        -89.639       -37.4558      0.2243447
      5667.0000         0.2846       3743.391         0.3229       -90.4293       -38.2529      0.2073851
      5667.5000          0.282       3738.586         0.3269       -91.2197       -39.0501      0.1904234
      5668.0000         0.2839       3671.934         0.3308       -92.0094       -39.8466      0.1734766
      5668.5000         0.2863       3559.043         0.3348       -92.7228       -40.5668      0.1581531
      5669.0000         0.2887       3448.504         0.3387       -93.3779       -41.2287      0.1440702
      5669.5000         0.2917       3372.191         0.3427       -94.0137       -41.8713      0.1303978
      5670.0000         0.2983       3304.188         0.3466        -94.625       -42.4894      0.1172467
      5670.5000         0.3049       3258.848         0.3505       -91.4437      -39.31491      0.1847892
      5671.0000         0.3115       3190.242         0.3545       -91.1039       -38.9819      0.1918745
      5671.5000         0.3168       3169.316         0.3601       -91.6703      -39.55511      0.1796786
      5672.0000         0.3214        3155.68         0.3658       -92.2296       -40.1212       0.167634
      5672.5000         0.3261       3145.469         0.3716       -92.7885       -40.6869      0.1555978
      5673.0000         0.3312       3137.309         0.3773       -93.1379      -41.04311       0.148019
      5673.5000         0.3365       3126.738         0.3831       -93.3713      -41.28331      0.1429084
      5674.0000         0.3419       3128.406         0.3872       -93.6976      -41.61641      0.1358211
      5674.5000         0.3481       3143.832         0.3836       -94.3077      -42.23331      0.1226956
      5675.0000          0.355       3208.559         0.3799       -95.0618      -42.99421      0.1065063
      5675.5000         0.3619       3382.398         0.3762        -96.342      -44.28121     0.07912315
      5676.0000         0.3494       3538.824         0.3726       -97.7576      -45.70361     0.04885937
      5676.5000         0.3364       3686.797         0.3688       -99.0072      -46.96001     0.02212744
      5677.0000         0.3139       3746.492         0.3624        -99.678      -47.63761    0.007710396
      5677.5000         0.2911       3894.512         0.3559      -100.3488      -48.31521              0
      5678.0000         0.2765       3955.664         0.3494      -101.0928      -49.06601              0
      5678.5000         0.2693       3987.215         0.3429      -101.8524      -49.83241              0
      5679.0000         0.2621       3997.297         0.3364      -102.4851      -50.47191              0
      5679.5000         0.2551       3880.953         0.3299      -103.1146      -51.10822              0
      5680.0000         0.2563       3802.738         0.3255      -103.2529      -51.25331              0
      5680.5000         0.2654       3738.988         0.3235      -102.3693      -50.37651              0
      5681.0000         0.2744       3669.133         0.3214      -101.4863      -49.50031              0
      5681.5000         0.2844       3588.566         0.3194      -100.5409      -48.56172              0
      5682.0000         0.2946       3551.484         0.3174       -99.5297      -47.55732    0.009418813
      5682.5000         0.3043       3475.773         0.3153       -98.5197      -46.55412     0.03076351
      5683.0000         0.3065       3394.109         0.3133       -97.6587      -45.69992     0.04893794
      5683.5000         0.3004       3356.129         0.3113       -97.3838      -45.43181     0.05464229
      5684.0000         0.2976       3320.473         0.3092       -97.5295      -45.58432     0.05139745
      5684.5000         0.3046       3304.398         0.3108        -97.689      -45.75062     0.04785911
