#------------------------------------------------------------------------------
# Created by    : vladimir.rabinovich
# Created on    : 09/19/2023 17:22:30
#------------------------------------------------------------------------------
~Version Information Section
VERS.           2.0     :   CWLS log ASCII Standard - VERSION 2.0
WRAP.           NO      :   One line per depth step
~Well Information Section
#MNEM       .UNIT                                         VALUE :DESCRIPTION
#------------------------------------------------------------------------------
STRT        .FT                                             328 :START DEPTH
STOP        .FT                                            8026 :STOP DEPTH
STEP        .FT                                             0.5 :STEP      
NULL        .                                           -999.25 :NULL      
COMP        .                                 MESA PETROLEUM CO :COMPANY   
WELL        .                                ST TR 00565-L NW/4 :WELL      
FLD         .                                           WILDCAT :FIELD     
LOC         .                                                   :LOCATION  
CNTY        .                      MATAGORDA ISLAND LARGE BLOCK :LOCATION  
STAT        .                                             TEXAS :STATE     
CTRY        .                                     UNITED STATES :COUNTRY   
SRVC        .                                                   :SERVICE COMPANY
DATE        .                             9/13/2023 11:12:01 AM :LOG DATE  
API         .                                    42703301780000 :API NUMBER
UWI         .                                    42703301780000 :UNIQUE WELL ID
XCOORD      .                                  585273.186473096 :SURFACE X 
YCOORD      .                                  10269188.7462706 :SURFACE Y 
LAT         .                                          28.25878 :LATITUDE  
LON         .                                       -96.2777629 :LONGITUDE 
ELEV        .FT                                              82 :ELEVATION VALUE
ELEV_TYPE   .                                                KB :ELEVATION REFERENCE TYPE
~Curve Information Section
#MNEM       .UNIT                                      API CODE :CURVE DESCRIPTION
#------------------------------------------------------------------------------
DEPT        .FT                                                 :DEPTH     
CILD        .MMHO                                               :          
DT          .US/F                                               :          
ILD         .OHMM                                               :          
SFL         .OHMM                                               :          
SP          .MV                                                 :          
SP_NORM     .MV                                                 :SP Normalized
VSH_SP      .V/V                                                :Volume of Shale from SP
~A        DEPTH           CILD             DT            ILD            SFL             SP        SP_NORM         VSH_SP
       328.0000        738.124       168.4824         1.4709         2.4776       -66.4008       16.23393              1
       328.5000       1024.609        168.197         1.2515         2.2705       -71.0203       11.61443              1
       329.0000       745.4902       167.8269         1.8915         2.1654         -75.08       7.554733              1
       329.5000       632.2314       167.0896         1.7233         2.0741       -75.9854       6.649338              1
       330.0000       687.3477       165.8101         1.6996         2.0785       -78.4094       4.225334              1
       330.5000       510.2437       163.3433         2.2072         2.1603       -80.8802       2.048119              1
       331.0000        362.207       165.5332         3.0413         2.2378       -82.8124      0.5852432              1
       331.5000       436.1074       167.8442         2.6703         2.2737        -84.323     -0.4560318              1
       332.0000       472.9707       167.4856         2.3879          2.274       -85.6316      -1.295311              1
       332.5000       475.1182        165.387         2.2807         2.3102         -86.39      -1.584389              1
       333.0000       477.2656        -999.25         2.3317         2.3572       -86.8577      -1.582756              1
       333.5000       478.3574        -999.25         2.3917         2.4153       -87.0898      -1.345535              1
       334.0000       479.2832        -999.25         2.4387         2.4604       -86.8828     -0.6692123              1
       334.5000       480.5518        -999.25         2.4608         2.4615       -86.5997     0.08320618              1
       335.0000       482.7734       105.3375         2.4685         2.3441        -86.762      0.3902359              1
       335.5000       484.9941       165.6055         2.4692         2.2192       -86.9242      0.6973572              1
       336.0000       486.3125       167.9707         2.4603          2.177       -87.6077      0.4831848              1
       336.5000       487.3154       167.1184         2.4496         2.2165       -88.3315      0.2287064              1
       337.0000       488.6152       165.2822          2.446          2.253       -88.7275      0.3020248              1
       337.5000       490.6274       162.2051         2.4499         2.2596       -89.0256       0.473259              1
       338.0000       492.6392       156.7317         2.4537         2.2447       -89.3502      0.4783707              1
       338.5000       493.4019        -999.25         2.4615         2.2116       -89.7852     0.06944275              1
       339.0000       493.1064        -999.25         2.4722         2.1851       -90.3472     -0.4664841              1
       339.5000       492.8115        -999.25         2.4829         2.1818       -90.9158       -1.00901              1
       340.0000       489.6504        -999.25         2.5006         2.2172       -91.3293      -1.396439              1
       340.5000       483.4233        -999.25           2.52         2.2515       -91.7761      -1.817162              1
       341.0000       477.1963        85.6174         2.5395         2.2971       -92.2771      -2.292091      0.9756591
       341.5000        470.501       158.3892         2.5579         2.2976       -92.8242      -2.813118      0.9322402
       342.0000       462.5557       163.9609         2.5764         2.3113       -93.3418      -3.304634      0.8912805
       342.5000       454.6108       160.9487         2.5976           2.42       -93.8356      -3.772369      0.8523026
       343.0000       446.0425       158.8857         2.6317         2.5466       -94.2994      -4.210091      0.8158258
       343.5000       436.4023       160.2366         2.6662         2.6178       -94.7158      -4.600418      0.7832985
       344.0000       426.7622       162.4595         2.7124         2.5522       -94.9679      -4.826447      0.7644628
       344.5000       420.8027       164.5493         2.7678         2.4662       -95.1449      -4.977371      0.7518857
       345.0000       423.0244       165.2102         2.8073         2.4996       -95.2383      -5.044693      0.7462756
       345.5000       425.2456       164.0085         2.8179         2.5748       -95.2693      -5.049629      0.7458642
       346.0000       439.3379       162.6819         2.8046         2.6711       -95.2637      -5.017952       0.748504
       346.5000        456.645       162.1458         2.7116         2.7121       -95.1346      -4.862778      0.7614352
       347.0000       475.7939       164.7346         2.6026         2.6456       -94.8857      -4.587799      0.7843501
       347.5000       500.1274       167.8118           2.47         2.4614       -93.8843      -3.560333      0.8699722
       348.0000         524.46       171.7439         2.3399         2.2334       -92.2242      -1.874153              1
       348.5000        544.749       176.1301         2.2211          2.004       -91.0159     -0.6397858              1
       349.0000       564.1074       180.3362         2.1315         1.7992       -90.8651     -0.4629059              1
       349.5000       583.4648       182.8052         2.0452         1.6406       -91.3506     -0.9223404              1
       350.0000       598.1797       183.0334         1.9621         1.5483        -91.875      -1.420662              1
       350.5000       612.4082       182.4185         1.8905         1.5358       -92.4141      -1.933693              1
       351.0000       626.6367       181.9026         1.8242         1.5649       -92.8644      -2.357918      0.9701735
       351.5000       637.3604       181.6423         1.7736         1.6295       -93.2435      -2.710945      0.9407546
       352.0000       647.4404       181.8503         1.7257         1.7121       -93.3798      -2.821167      0.9315694
       352.5000       657.5215       182.2561         1.6994         1.7645       -93.4396      -2.854897      0.9287586
       353.0000       666.6084       182.7192         1.6749         1.7353       -93.4338      -2.823021      0.9314149
       353.5000       674.6143       183.0542         1.6721         1.6727       -93.4282      -2.791351      0.9340541
       354.0000       682.6201       183.3813         1.6705         1.5979       -93.5472      -2.884277      0.9263102
       354.5000       690.7158       183.6521         1.6685         1.5236       -93.8021      -3.113106      0.9072412
       355.0000       698.9346       183.8279         1.6576         1.4507       -94.0569      -3.341827       0.888181
       355.5000       707.1543        183.821         1.6468         1.3945       -94.2363      -3.495155      0.8754037
       356.0000       715.1934       183.5728         1.6333         1.3924        -94.314      -3.546783      0.8711014
       356.5000       722.9971        183.127         1.6152         1.4216       -94.2471      -3.453812       0.878849
       357.0000       730.8008       182.5913         1.5974         1.4683       -94.0437      -3.224335      0.8979721
       357.5000       737.9102       182.2324           1.58         1.5084       -93.7377      -2.892265      0.9256446
       358.0000       743.4072       182.6069         1.5641         1.5141        -93.416      -2.544487      0.9546261
       358.5000       748.9043         183.28         1.5485         1.5055       -93.1202       -2.22261      0.9814491
       359.0000       754.3789       184.0811         1.5335         1.4676       -93.0592      -2.135536      0.9887053
       359.5000       757.9453       184.7874         1.5198         1.4193       -93.1055      -2.155762      0.9870198
       360.0000       761.5117       185.3186         1.5062         1.3597       -93.2144      -2.238594      0.9801171
       360.5000       765.0791       185.3801         1.4975         1.3207       -93.3486      -2.346718      0.9711068
       361.0000       762.3125       184.7698         1.4907         1.3401       -93.3429      -2.314949      0.9737542
