#------------------------------------------------------------------------------
# Created by    : vladimir.rabinovich
# Created on    : 09/19/2023 17:20:49
#------------------------------------------------------------------------------
~Version Information Section
VERS.           2.0     :   CWLS log ASCII Standard - VERSION 2.0
WRAP.           NO      :   One line per depth step
~Well Information Section
#MNEM       .UNIT                                         VALUE :DESCRIPTION
#------------------------------------------------------------------------------
STRT        .FT                                             556 :START DEPTH
STOP        .FT                                            7001 :STOP DEPTH
STEP        .FT                                             0.5 :STEP      
NULL        .                                           -999.25 :NULL      
COMP        .                          HUMBLE OIL & REFINING CO :COMPANY   
WELL        .                                     ST TR 00598-L :WELL      
FLD         .                                           WILDCAT :FIELD     
LOC         .                                                   :LOCATION  
CNTY        .                      MATAGORDA ISLAND LARGE BLOCK :LOCATION  
STAT        .                                             TEXAS :STATE     
CTRY        .                                     UNITED STATES :COUNTRY   
SRVC        .                                                   :SERVICE COMPANY
DATE        .                             9/13/2023 11:12:05 AM :LOG DATE  
API         .                                    42703000080000 :API NUMBER
UWI         .                                    42703000080000 :UNIQUE WELL ID
XCOORD      .                                  502144.869554487 :SURFACE X 
YCOORD      .                                  10234432.9570627 :SURFACE Y 
LAT         .                                        28.1568958 :LATITUDE  
LON         .                                       -96.5324651 :LONGITUDE 
ELEV        .FT                                              15 :ELEVATION VALUE
ELEV_TYPE   .                                                KB :ELEVATION REFERENCE TYPE
~Curve Information Section
#MNEM       .UNIT                                      API CODE :CURVE DESCRIPTION
#------------------------------------------------------------------------------
DEPT        .FT                                                 :DEPTH     
ASN         .OHMM                                               :          
CALI        .IN                                                 :          
CILD        .MMHO                                               :          
DT          .US/F                                               :          
ILD         .OHMM                                               :          
SP          .MV                                                 :          
SP_NORM     .MV                                                 :SP Normalized
VSH_SP      .V/V                                                :Volume of Shale from SP
~A        DEPTH            ASN           CALI           CILD             DT            ILD             SP        SP_NORM         VSH_SP
# ...
      2267.0000         0.5317        13.5582       2230.207       138.0693          0.375       -63.4802       -12.5114        0.12405
      2267.5000         0.5336        14.2268       2228.102       136.1521         0.3755       -63.1249       -12.1596      0.1533666
      2268.0000         0.5355        14.8253       2247.555       134.9575          0.376       -62.8952       -11.9333       0.172225
      2268.5000         0.5374        14.9639       2267.008       136.1455         0.3765       -63.0063       -12.0479       0.162675
      2269.0000         0.5393        15.0157       2298.359       137.8176          0.377        -63.181        -12.226      0.1478333
      2269.5000         0.5413        15.0112       2356.387       135.9182         0.3775       -63.3662       -12.4147      0.1321084
      2270.0000         0.5422         14.962       2408.277        132.238          0.378       -63.5515       -12.6035       0.116375
      2270.5000         0.5426        14.8442       2454.027       135.5269         0.3785       -63.7367       -12.7921      0.1006583
      2271.0000          0.543        14.7408       2415.613       136.6445          0.379       -63.8901        -12.949      0.0875833
      2271.5000         0.5434        14.6859       2366.684        138.425         0.3796       -63.9996       -13.0619     0.07817499
      2272.0000         0.5438        14.5264       2308.852       136.7405         0.3801        -64.109       -13.1748     0.06876668
      2272.5000         0.5442        14.0689       2251.242       132.4617         0.3806        -64.183       -13.2522     0.06231666
      2273.0000         0.5434        13.8275       2211.188         129.77         0.3811       -64.1086       -13.1813     0.06822499
      2273.5000          0.538        14.3248       2262.465       129.8821         0.3816       -64.0344       -13.1106     0.07411662
      2274.0000         0.5326        14.7809       2313.719       133.0317         0.3821       -63.9601       -13.0397     0.08002504
      2274.5000         0.5272        14.8955       2375.242       135.1929         0.3826       -63.9171       -13.0002     0.08331665
      2275.0000         0.5218        14.7651       2443.684       145.6694         0.3831       -63.8985        -12.985     0.08458336
      2275.5000         0.5164        14.6572       2507.332       146.6357         0.3846         -63.88         -12.97     0.08583331
      2276.0000         0.5117        14.5933       2568.637        145.282         0.3863       -63.8615       -12.9549     0.08709168
      2276.5000         0.5079        14.5238       2625.148         142.97         0.3879       -63.8642       -12.9611     0.08657503
      2277.0000         0.5041        14.4955       2676.547       139.5029         0.3896       -63.8865       -12.9869     0.08442497
      2277.5000         0.5003         14.525       2724.133       136.5798         0.3912       -63.9087       -13.0125     0.08229169
      2278.0000         0.4965        14.5798        2775.48       141.1401         0.3928       -63.9309       -13.0382     0.08014997
      2278.5000         0.4928        14.6682       2763.133        145.115         0.3945       -63.7767       -12.8874     0.09271669
      2279.0000         0.4953        14.8003        2669.43       148.6736         0.3944       -63.6006       -12.7148         0.1071
      2279.5000         0.4982        14.9369       2544.625       147.4102         0.3898       -63.6534        -12.771      0.1024167
      2280.0000         0.5012        14.8505       2479.578       134.2322         0.3851       -63.9685       -13.0896      0.0758667
      2280.5000         0.5041        14.0482       2500.867       128.0457         0.3805       -64.3217       -13.4462     0.04614997
      2281.0000         0.5059        13.8796       2542.754       125.2279         0.3758       -64.6815       -13.8095     0.01587502
      2281.5000         0.5052         14.558       2586.645        126.472         0.3711       -65.0247       -14.1562              0
      2282.0000         0.5045        14.9687       2629.059       132.0168         0.3665       -64.8646       -13.9995  0.00004164378
      2282.5000         0.5038        15.1361       2645.734       142.1021         0.3618       -64.6064       -13.7448      0.0212667
      2283.0000         0.5031        15.0906       2662.414       144.3198         0.3571       -64.3267       -13.4685     0.04429166
      2283.5000         0.5025        15.0459       2688.699       143.8403         0.3523       -64.2501       -13.3954     0.05038333
      2284.0000         0.5022        15.0591       2747.727       143.7605         0.3476       -64.3103        -13.459     0.04508336
      2284.5000         0.5019        15.0845        2801.23       140.8386         0.3428       -64.3706       -13.5228     0.03976663
      2285.0000         0.5015        14.9862       2843.031       124.1594          0.338        -64.467       -13.6227     0.03144169
      2285.5000         0.5012        14.3115        2869.82       120.0986         0.3333       -64.5645       -13.7236      0.0230333
      2286.0000         0.5008         14.165       2847.641       116.7419         0.3285       -64.5155       -13.6781     0.02682503
      2286.5000         0.5026         14.375       2792.328       119.6339         0.3238       -64.3491       -13.5151     0.04040837
      2287.0000         0.5073        14.5532       2667.672        129.804         0.3216       -64.1826       -13.3521     0.05399163
      2287.5000          0.512        14.7411       2540.246       132.4556         0.3336       -64.0364       -13.2093     0.06589166
      2288.0000         0.5166        14.9104        2481.66       135.1182         0.3455       -63.9086        -13.085     0.07624999
      2288.5000         0.5213        15.0797       2398.887       137.6758         0.3575       -63.7807       -12.9606     0.08661667
      2289.0000          0.526        14.9797       2278.383       142.4456         0.3694       -63.6528       -12.8361      0.0969917
      2289.5000         0.5306        14.4018         2161.5       142.8936         0.3814       -63.6188       -12.8056     0.09953332
      2290.0000         0.5343        13.7594       2067.602       138.3679         0.3889       -63.5964       -12.7866      0.1011167
      2290.5000         0.5373        13.3894       2016.803       134.4417         0.3923        -63.574       -12.7677      0.1026917
      2291.0000         0.5403        13.0823       2014.209       131.7017         0.3956       -63.5516       -12.7487       0.104275
      2291.5000         0.5433        13.2444       2045.338       125.9886         0.3989       -63.5292       -12.7298        0.10585
      2292.0000         0.5463        14.0256       2100.125       125.7819         0.4023       -63.4697       -12.6737       0.110525
      2292.5000         0.5466        14.2913       2155.266       130.0518         0.4056       -63.4033       -12.6108      0.1157667
      2293.0000         0.5444        14.5005       2206.738       133.8359         0.4068        -63.337        -12.548          0.121
      2293.5000         0.5423        14.6149       2252.023       138.3816          0.402       -63.2706        -12.485        0.12625
      2294.0000         0.5402        14.5131       2301.832       137.9246         0.3972       -63.2113       -12.4292         0.1309
      2294.5000         0.5381        14.1679       2375.949       135.4758         0.3924       -63.1799       -12.4012      0.1332333
      2295.0000         0.5359        13.9209       2468.527       132.8135         0.3877       -63.1485       -12.3733      0.1355584
      2295.5000         0.5345        13.8197       2513.766       130.9116         0.3829       -63.1171       -12.3453      0.1378917
      2296.0000         0.5339        13.9988       2526.059       128.8652         0.3781       -63.1863        -12.418      0.1318333
