#------------------------------------------------------------------------------
# Created by    : vladimir.rabinovich
# Created on    : 09/19/2023 17:20:46
#------------------------------------------------------------------------------
~Version Information Section
VERS.           2.0     :   CWLS log ASCII Standard - VERSION 2.0
WRAP.           NO      :   One line per depth step
~Well Information Section
#MNEM       .UNIT                                         VALUE :DESCRIPTION
#------------------------------------------------------------------------------
STRT        .FT                                             695 :START DEPTH
STOP        .FT                                            9139 :STOP DEPTH
STEP        .FT                                             0.5 :STEP      
NULL        .                                           -999.25 :NULL      
COMP        .                   COASTAL STATES GAS TRANSMISSION :COMPANY   
WELL        .                                     ST TR 00592-L :WELL      
FLD         .                                           WILDCAT :FIELD     
LOC         .                                                   :LOCATION  
CNTY        .                      MATAGORDA ISLAND LARGE BLOCK :LOCATION  
STAT        .                                             TEXAS :STATE     
CTRY        .                                     UNITED STATES :COUNTRY   
SRVC        .                                                   :SERVICE COMPANY
DATE        .                             9/13/2023 11:12:01 AM :LOG DATE  
API         .                                    42703000420000 :API NUMBER
UWI         .                                    42703000420000 :UNIQUE WELL ID
XCOORD      .                                  562172.631053371 :SURFACE X 
YCOORD      .                                   10240692.584136 :SURFACE Y 
LAT         .                                        28.1787665 :LATITUDE  
LON         .                                       -96.3469802 :LONGITUDE 
ELEV        .FT                                              11 :ELEVATION VALUE
ELEV_TYPE   .                                                KB :ELEVATION REFERENCE TYPE
~Curve Information Section
#MNEM       .UNIT                                      API CODE :CURVE DESCRIPTION
#------------------------------------------------------------------------------
DEPT        .FT                                                 :DEPTH     
ASN         .OHMM                                               :          
CALI        .IN                                                 :          
CILD        .MMHO                                               :          
DT          .US/F                                               :          
ILD         .OHMM                                               :          
SP          .MV                                                 :          
SP_NORM     .MV                                                 :SP Normalized
VSH_SP      .V/V                                                :Volume of Shale from SP
~A        DEPTH            ASN           CALI           CILD             DT            ILD             SP        SP_NORM         VSH_SP
# ...
      8542.0000         1.0382        10.7281        1150.73        98.3881         0.8658       -40.6526     -0.9838638              1
      8542.5000         1.0372        10.7445       1142.215         95.803         0.9167       -40.6462     -0.9823952              1
      8543.0000         1.0523        10.7609           1133        96.4171         0.9629       -40.6399     -0.9810295              1
      8543.5000          1.069        10.7488       1120.807       103.9642         0.9712       -40.6335     -0.9795609              1
      8544.0000         1.1049        10.7188       1104.137       105.2444         0.9795       -40.6272     -0.9781952              1
      8544.5000         1.1415        10.6984       1085.457       103.1471         0.9878       -40.6208     -0.9767303              1
      8545.0000         1.1786        10.6798       1066.049       100.6686         0.9907       -40.6201     -0.9809608              1
      8545.5000         1.2099        10.6613        1051.24        98.2717          0.981       -40.6241     -0.9898949              1
      8546.0000         1.2149        10.6474       1040.078         95.959         0.9714       -40.6281     -0.9988289              1
      8546.5000            1.2        10.6382       1035.652         93.655         0.9602       -40.6322      -1.007858      0.9998668
      8547.0000         1.1726         10.629       1057.273        99.1161         0.9483       -40.6362      -1.016792      0.9997154
      8547.5000         1.1511        10.6198        1084.15       102.7014         0.9364       -40.6403      -1.025826      0.9995623
      8548.0000         1.1219        10.6148       1115.225       105.1912         0.9164       -40.6443      -1.034756      0.9994109
      8548.5000         1.1005        10.6111       1149.617       104.7399         0.8958       -40.6145      -1.009888      0.9998324
      8549.0000         1.0853         10.605       1177.148       104.1573         0.8751       -40.5828     -0.9831276              1
      8549.5000         1.0724        10.5729       1198.367       103.5754         0.8544        -40.551     -0.9562569              1
      8550.0000         1.0595        10.5408       1212.949       102.1542         0.8338       -40.5193     -0.9294891              1
      8550.5000         1.0465        10.5001       1224.689       100.3096         0.8203       -40.4875     -0.9026222              1
      8551.0000         1.0323        10.4744       1233.477       103.1471           0.82       -40.4558     -0.8758545              1
      8551.5000         1.0194        10.4939       1242.252       105.9402         0.8198        -40.423     -0.8479881              1
      8552.0000         1.0072        10.4958       1242.057       107.6215         0.8258       -40.3843     -0.8142204              1
      8552.5000         0.9966        10.4952       1238.135       108.9264         0.8369       -40.3456     -0.7804527              1
      8553.0000         1.0033        10.5106       1234.219       106.8811          0.848        -40.307     -0.7467842              1
      8553.5000         1.0237        10.5259       1217.752       104.2811         0.8591       -40.2683     -0.7130203              1
      8554.0000         1.0512        10.5281       1188.486       102.2408         0.8702       -40.2297     -0.6793518              1
      8554.5000         1.0813        10.5303       1153.842       103.4146         0.8834        -40.191     -0.6455879              1
      8555.0000          1.113        10.5279       1098.531       101.7184         0.8983       -40.1524     -0.6119194              1
      8555.5000         1.1776        10.5112       1026.324        99.8539         0.9133       -40.1077     -0.5721512              1
      8556.0000         1.1999        10.4945        998.167        98.3187         0.9276       -40.0583     -0.5276833              1
      8556.5000         1.2153        10.4778       992.7617        96.6523         0.9409        -40.009     -0.4833145              1
      8557.0000         1.2291        10.4611       1012.899        94.5748         0.9542       -39.9598     -0.4386902              1
      8557.5000         1.2396        10.4435       1036.959        94.9364         0.9578       -39.9105     -0.3857651              1
      8558.0000         1.2476        10.4259       1062.881        98.0712         0.9607       -39.8611     -0.3327408              1
      8558.5000         1.2092        10.4183       1099.889       101.7853         0.9573       -39.8118     -0.2798157              1
      8559.0000         1.1638         10.416       1153.641       106.8662         0.9407       -39.7625     -0.2268944              1
      8559.5000         1.0248        10.4112       1227.959       109.6271         0.9241       -39.7274     -0.1881714              1
      8560.0000         0.9811        10.3951       1277.537       111.0286          0.907       -39.6929     -0.1500473              1
      8560.5000         0.9522        10.3836         1315.5       110.7264         0.8886       -39.6583     -0.1118202              1
      8561.0000         0.9303        10.4092       1346.576       108.9189         0.8702       -39.6237    -0.07360077              1
      8561.5000         0.9234         10.442       1392.332       109.2358         0.8519       -39.5891     -0.0353775              1
      8562.0000         0.9341        10.5244       1375.588       108.7059         0.8275       -39.5545    0.002845764              1
      8562.5000         0.9451         10.607       1359.246       107.2847         0.8013       -39.5199     0.04106903              1
      8563.0000         0.9648        10.6985       1343.457        105.861         0.7872       -39.4853     0.07929611              1
      8563.5000         0.9846        10.7922       1327.693       105.0922         0.7825       -39.4387      0.1295166              1
      8564.0000          0.998        10.8129       1310.799       105.8436         0.7828       -39.3836      0.1882439              1
      8564.5000         0.9902        10.8001         1293.1       106.9926         0.7847       -39.3286      0.2468643              1
      8565.0000         0.9778        10.7634       1300.629       108.2008         0.7866       -39.2734      0.3056908              1
      8565.5000         0.9683        10.7266       1309.566       108.7159         0.7885       -39.2184       0.364315              1
      8566.0000         0.9587        10.6902        1320.09       109.1064         0.7897       -39.1632      0.4231377              1
      8566.5000         0.9533        10.6564       1331.113       109.4705          0.791       -39.1082      0.4817619              1
      8567.0000         0.9488        10.6226       1342.125       109.4166         0.7922        -39.053      0.5405846              1
      8567.5000         0.9442        10.6116       1353.137       109.1597         0.7934        -38.998      0.5992088              1
      8568.0000         0.9397        10.6299       1364.148       109.1206         0.7946       -38.9429      0.6579323              1
      8568.5000         0.9369        10.6481       1375.111       109.2004         0.7945       -38.8951      0.7093582              1
      8569.0000         0.9345        10.6658       1383.723       109.3036         0.7923       -38.8474      0.7606773              1
      8569.5000          0.932        10.6821       1392.346        109.407         0.7902       -38.7996      0.8121033              1
      8570.0000         0.9302        10.6984       1400.969       109.5103          0.788       -38.7519      0.8634262              1
      8570.5000          0.929        10.7116       1404.363       109.0923         0.7864       -38.7042      0.9147491              1
      8571.0000         0.9279        10.7129       1392.082       108.2207         0.7879       -38.6565      0.9660721              1
