#------------------------------------------------------------------------------
# Created by    : vladimir.rabinovich
# Created on    : 09/19/2023 17:20:46
#------------------------------------------------------------------------------
~Version Information Section
VERS.           2.0     :   CWLS log ASCII Standard - VERSION 2.0
WRAP.           NO      :   One line per depth step
~Well Information Section
#MNEM       .UNIT                                         VALUE :DESCRIPTION
#------------------------------------------------------------------------------
STRT        .FT                                            1957 :START DEPTH
STOP        .FT                                            6608 :STOP DEPTH
STEP        .FT                                             0.5 :STEP      
NULL        .                                           -999.25 :NULL      
COMP        .                            HIGHLAND RESOURCES INC :COMPANY   
WELL        .                                     ST TR 00691-L :WELL      
FLD         .                                           WILDCAT :FIELD     
LOC         .                                                   :LOCATION  
CNTY        .                      MATAGORDA ISLAND LARGE BLOCK :LOCATION  
STAT        .                                             TEXAS :STATE     
CTRY        .                                     UNITED STATES :COUNTRY   
SRVC        .                                                   :SERVICE COMPANY
DATE        .                             9/13/2023 11:12:01 AM :LOG DATE  
API         .                                    42703000470000 :API NUMBER
UWI         .                                    42703000470000 :UNIQUE WELL ID
XCOORD      .                                  404407.912506245 :SURFACE X 
YCOORD      .                                  10154689.9311845 :SURFACE Y 
LAT         .                                        27.9298131 :LATITUDE  
LON         .                                       -96.8274765 :LONGITUDE 
ELEV        .FT                                              63 :ELEVATION VALUE
ELEV_TYPE   .                                                KB :ELEVATION REFERENCE TYPE
~Curve Information Section
#MNEM       .UNIT                                      API CODE :CURVE DESCRIPTION
#------------------------------------------------------------------------------
DEPT        .FT                                                 :DEPTH     
ASN         .OHMM                                               :          
CILD        .MMHO                                               :          
ILD         .OHMM                                               :          
SP          .MV                                                 :          
SP_NORM     .MV                                                 :SP Normalized
VSH_SP      .V/V                                                :Volume of Shale from SP
~A        DEPTH            ASN           CILD            ILD             SP        SP_NORM         VSH_SP
      1957.0000          0.012              0         0.0143      -192.1531        -3.4738       0.990524
      1957.5000         0.0173              0         0.0145      -201.9607        -7.5904       0.908192
      1958.0000         0.0265              0         0.0148      -204.2776        -7.6164       0.907672
      1958.5000         0.0457              0         0.0424      -206.5955        -9.3068       0.873864
      1959.0000         0.0664              0         0.0733      -208.0029       -10.0866       0.858268
      1959.5000         0.0991        79.5377         0.1042      -209.1401       -10.5963       0.848074
      1960.0000         0.1466       268.6206         0.1351      -207.6016        -8.4302       0.891396
      1960.5000         0.3037         567.21         0.1706      -201.9189        -2.1199              1
      1961.0000         0.4607       865.7988         0.2347      -175.4004        -3.4914       0.990172
      1961.5000         0.6178       1164.387         0.2987      -156.3281        -5.6029       0.947942
      1962.0000         0.6982       1462.977         0.3627      -133.1094        -4.3533       0.972934
      1962.5000         0.7178       776.1621         0.4047      -109.8906        -3.1034       0.997932
      1963.0000         0.7375       788.4131         0.4415       -86.6641        -1.3944              1
      1963.5000         0.7488       931.7812         0.4847       -74.3621        -6.0363       0.939274
      1964.0000         0.7575        1075.15         0.5417       -73.7784        -8.3478       0.893044
      1964.5000         0.7661       1218.518          0.584        -73.391        -6.2623       0.934754
      1965.0000         0.7747       1361.838         0.6081       -73.0339        -4.2071       0.975858
      1965.5000         0.7834       1505.205         0.6322        -72.677        -2.1521              1
      1966.0000         0.7884       1533.023         0.6429        -72.361        -0.6966              1
      1966.5000         0.7934       1518.795         0.6532       -72.1733         -0.618              1
      1967.0000         0.7983        1504.57         0.6636       -71.9856        -0.5393              1
      1967.5000         0.8033       1490.354         0.6734        -71.798        -0.4608              1
      1968.0000         0.8082       1476.074          0.676       -71.6104        -0.3823              1
      1968.5000         0.8129       1461.787         0.6785       -71.4227        -0.3036              1
      1969.0000         0.8164       1447.496         0.6811       -71.2365        -0.2265              1
      1969.5000         0.8199       1432.998         0.6837       -71.1127        -0.2118              1
      1970.0000         0.8234       1417.617         0.6863       -70.9888         -0.197              1
      1970.5000         0.8269       1402.242         0.6888        -70.865        -0.1822              1
      1971.0000         0.8305       1398.889         0.6901       -70.7412        -0.1675              1
      1971.5000          0.834       1399.311         0.6883       -70.6174        -0.1528              1
      1972.0000         0.8389       1400.633         0.6865       -70.4937        -0.1381              1
      1972.5000         0.8447       1401.957         0.6846       -70.3705         -0.124              1
      1973.0000         0.8505       1403.279         0.6828       -70.3734         -0.236              1
      1973.5000         0.8563       1404.604          0.681       -70.3763         -0.348              1
      1974.0000         0.8621       1405.926         0.6791       -70.3794        -0.4601              1
      1974.5000         0.8679       1404.875         0.6773       -70.3823        -0.5721              1
      1975.0000         0.8737       1384.457         0.6815       -70.3853        -0.6842              1
      1975.5000         0.8795       1364.041         0.6884       -70.3883        -0.7962              1
      1976.0000         0.8854       1343.629         0.6952       -70.4066        -0.9236              1
      1976.5000         0.8912       1323.213          0.702       -70.4476        -1.0737              1
      1977.0000          0.897       1302.223         0.7088       -70.4886        -1.2238              1
      1977.5000         0.9029       1281.127         0.7156       -70.5297        -1.3739              1
      1978.0000         0.9087       1260.031         0.7224       -70.5707         -1.524              1
      1978.5000         0.9146       1236.084         0.7292       -70.6116         -1.674              1
      1979.0000         0.9216       1209.529         0.7364       -70.6526        -1.8241              1
      1979.5000         0.9296       1182.963         0.7437       -70.6936        -1.9741              1
      1980.0000         0.9376       1176.738          0.751       -70.6111        -2.0007              1
      1980.5000         0.9456       1191.316         0.7583       -70.4498        -1.9485              1
      1981.0000         0.9536       1210.582         0.7657       -70.2887        -1.8964              1
      1981.5000         0.9636       1229.848          0.773       -70.1274        -1.8442              1
      1982.0000         0.9736       1249.107         0.7803       -69.9662        -1.7921              1
      1982.5000         0.9835       1270.893         0.7858       -69.8049        -1.7398              1
      1983.0000         0.9883       1299.564         0.7724       -69.6437        -1.6877              1
      1983.5000         0.9785       1328.236         0.7589       -69.5464        -1.6219              1
      1984.0000         0.9688        1356.92         0.7455       -69.5493        -1.6248              1
      1984.5000          0.959       1378.744          0.732       -69.5522        -1.6277              1
      1985.0000         0.9493       1397.025         0.7186       -69.5553        -1.6308              1
      1985.5000           0.94       1415.314         0.7052       -69.5582        -1.6337              1
      1986.0000          0.931       1397.492         0.6917       -69.5612        -1.6367              1
      1986.5000         0.9221       1352.512         0.6835       -69.7009        -1.7764              1
      1987.0000         0.9131       1307.545         0.6868       -69.9362        -2.0117              1
      1987.5000         0.9074       1267.645           0.69       -70.1713        -2.2468              1
      1988.0000         0.9218       1231.006         0.6933       -70.4064        -2.4819              1
      1988.5000         0.9362       1194.379         0.6965       -70.6415         -2.717              1
      1989.0000         0.9507       1157.453         0.6998       -70.8767        -2.9522              1
      1989.5000         0.9651       1120.092          0.703       -71.1118        -3.1873       0.996254
      1990.0000         0.9845       1082.744         0.7369       -71.3469        -3.4224       0.991552
      1990.5000         1.0056       1042.705         0.7812       -71.5822        -3.6577       0.986846
      1991.0000         1.0267       1063.584         0.8256       -71.8173        -3.8928       0.982144
      1991.5000         1.0452       1093.898           0.87       -72.0585         -4.134        0.97732
      1992.0000         1.0597       1124.225         0.9144       -72.3033        -4.3788       0.972424
      1992.5000         1.0714       1163.279         0.9587       -72.5482        -4.6237       0.967526
      1993.0000         1.0542       1212.766         1.0031       -72.7931        -4.8686       0.962628
      1993.5000         1.0368        1262.24         0.9972       -73.0378        -5.1133       0.957734
      1994.0000          1.017       1311.729         0.9691       -73.2828        -5.3583       0.952834
      1994.5000         0.9971       1350.758          0.941       -72.9863        -5.0618       0.958764
