#------------------------------------------------------------------------------
# Created by    : vladimir.rabinovich
# Created on    : 09/19/2023 17:20:46
#------------------------------------------------------------------------------
~Version Information Section
VERS.           2.0     :   CWLS log ASCII Standard - VERSION 2.0
WRAP.           NO      :   One line per depth step
~Well Information Section
#MNEM       .UNIT                                         VALUE :DESCRIPTION
#------------------------------------------------------------------------------
STRT        .FT                                            1957 :START DEPTH
STOP        .FT                                            6608 :STOP DEPTH
STEP        .FT                                             0.5 :STEP      
NULL        .                                           -999.25 :NULL      
COMP        .                            HIGHLAND RESOURCES INC :COMPANY   
WELL        .                                     ST TR 00691-L :WELL      
FLD         .                                           WILDCAT :FIELD     
LOC         .                                                   :LOCATION  
CNTY        .                      MATAGORDA ISLAND LARGE BLOCK :LOCATION  
STAT        .                                             TEXAS :STATE     
CTRY        .                                     UNITED STATES :COUNTRY   
SRVC        .                                                   :SERVICE COMPANY
DATE        .                             9/13/2023 11:12:01 AM :LOG DATE  
API         .                                    42703000470000 :API NUMBER
UWI         .                                    42703000470000 :UNIQUE WELL ID
XCOORD      .                                  404407.912506245 :SURFACE X 
YCOORD      .                                  10154689.9311845 :SURFACE Y 
LAT         .                                        27.9298131 :LATITUDE  
LON         .                                       -96.8274765 :LONGITUDE 
ELEV        .FT                                              63 :ELEVATION VALUE
ELEV_TYPE   .                                                KB :ELEVATION REFERENCE TYPE
~Curve Information Section
#MNEM       .UNIT                                      API CODE :CURVE DESCRIPTION
#------------------------------------------------------------------------------
DEPT        .FT                                                 :DEPTH     
ASN         .OHMM                                               :          
CILD        .MMHO                                               :          
ILD         .OHMM                                               :          
SP          .MV                                                 :          
SP_NORM     .MV                                                 :SP Normalized
VSH_SP      .V/V                                                :Volume of Shale from SP
~A        DEPTH            ASN           CILD            ILD             SP        SP_NORM         VSH_SP
# ...
      5035.0000         0.5409       3278.492         0.2999      -116.6189       -63.0121      0.1890257
      5035.5000         0.5648       3143.328         0.3043       -117.147       -63.5447      0.1818284
      5036.0000         0.5925       3071.402         0.3087      -117.6746       -64.0768      0.1746379
      5036.5000         0.6202       2989.883         0.3127      -118.2021       -64.6088      0.1674486
      5037.0000         0.6439       2950.199         0.3166      -118.7228        -65.134      0.1603513
      5037.5000         0.6476       2903.777         0.3206       -118.146       -64.5617      0.1680851
      5038.0000         0.6394       2861.059         0.3245      -117.5693       -63.9895      0.1758176
      5038.5000         0.6311       2830.965         0.3284      -116.9927       -63.4174      0.1835486
      5039.0000         0.6229       2866.285         0.3324       -116.416       -62.8451      0.1912824
      5039.5000         0.6146       2892.582         0.3363      -115.8398       -62.2734      0.1990081
      5040.0000         0.6058       2912.633         0.3402      -115.2632       -61.7013      0.2067392
      5040.5000         0.5958       2933.477         0.3442      -114.6865       -61.1291      0.2144716
      5041.0000         0.5857       2955.945         0.3446      -114.1099        -60.557      0.2222027
      5041.5000         0.5757       2988.156         0.3409      -113.5331       -59.9847      0.2299365
      5042.0000         0.5657       3074.512         0.3371      -112.8027       -59.2588      0.2397459
      5042.5000         0.5556       3115.555         0.3334      -112.0565       -58.5171      0.2497689
      5043.0000         0.5456       3147.074         0.3296      -111.3098       -57.7749      0.2597987
      5043.5000         0.5372       3214.559         0.3259      -110.5636       -57.0332      0.2698216
      5044.0000         0.5294       3275.703         0.3199      -110.5333       -57.0074      0.2701703
      5044.5000         0.5217       3304.809         0.3136      -110.9182       -57.3968      0.2649081
      5045.0000         0.5139       3403.691         0.3074      -111.3033       -57.7864      0.2596433
      5045.5000         0.5071       3491.969         0.3012      -111.6882       -58.1758      0.2543811
      5046.0000         0.5039       3534.617         0.2949      -112.0736       -58.5657      0.2491122
      5046.5000         0.5007       3596.723         0.2887      -112.4585       -58.9551        0.24385
      5047.0000         0.5007        3648.52         0.2813      -112.8435       -59.3446      0.2385865
      5047.5000         0.5046       3675.848         0.2722      -113.2289       -59.7345      0.2333176
      5048.0000         0.5085       3729.125          0.263      -113.6138       -60.1239      0.2280554
      5048.5000         0.5124       3724.094         0.2538      -113.9987       -60.5133      0.2227932
      5049.0000         0.5216       3604.664         0.2458       -114.384       -60.9031      0.2175257
      5049.5000         0.5336       3535.012         0.2394      -114.7991       -61.3227      0.2118554
      5050.0000         0.5528       2469.918          0.233      -115.2493       -61.7774      0.2057108
      5050.5000         0.5761       2432.156         0.2321      -115.6995       -62.2321      0.1995662
      5051.0000           0.62       2310.137         0.2461      -116.1501       -62.6872      0.1934162
      5051.5000         0.6748       2127.613         0.5047      -115.3076       -61.8492      0.2047405
      5052.0000         0.8374       2006.459         0.7969      -112.0282       -58.5743       0.248996
      5052.5000         0.9998        1991.48         1.0889       -98.9552       -45.5058      0.4255973
      5053.0000         1.1624       1979.971         1.3809       -92.0443       -38.5994       0.518927
      5053.5000         1.3249       1782.551         1.6729       -86.6084        -33.168      0.5923243
      5054.0000         1.5749       1718.322         1.9649       -83.7513       -30.3154       0.630873
      5054.5000         1.9346       835.0127         2.2571       -80.9166       -27.4852      0.6691189
      5055.0000         1.9711       508.2485         2.3118       -78.6508       -25.2239      0.6996771
      5055.5000         2.3842       414.0273         2.1893       -76.3848       -22.9624      0.7302378
      5056.0000         2.3467       388.5977         2.0909       -74.2689       -20.8509      0.7587716
      5056.5000         2.3038       372.1709         1.9926        -72.168       -18.7545      0.7871014
      5057.0000         2.2608       369.9756         1.8942       -69.2675       -15.8585      0.8262365
      5057.5000         2.2179       388.3018         1.7959       -68.3813       -14.9768      0.8381513
      5058.0000         2.1666       410.2046         1.6975       -68.7672       -15.3672      0.8328757
      5058.5000         2.1085       435.6587         1.5992       -69.1526       -15.7571      0.8276067
      5059.0000          2.049       466.5645         1.5007       -69.5383       -16.1473      0.8223338
      5059.5000          2.011       505.4614         1.4024       -69.9237       -16.5372      0.8170649
      5060.0000         1.9293       543.7168          1.304       -70.3096       -16.9276      0.8117892
      5060.5000         1.7715       589.0518         1.2057       -70.6949       -17.3174      0.8065216
      5061.0000         1.6137       774.1396         1.1073       -70.4755       -17.1025      0.8094257
      5061.5000         1.4559        867.374          1.009       -69.8566       -16.4881      0.8177284
      5062.0000         1.2981       1371.037         0.9032       -67.3099       -13.9459      0.8520824
      5062.5000         1.1265       1427.668         0.7959       -64.7653       -11.4058      0.8864081
      5063.0000         1.0678       1534.395         0.7464       -63.3442        -9.9892      0.9055514
      5063.5000         0.9765        1605.85         0.7023       -62.1931        -8.8426       0.921046
      5064.0000         0.9141       1660.434         0.6582       -62.4673        -9.1213      0.9172797
      5064.5000         0.8969       1630.465         0.6378       -62.7416        -9.4001      0.9135122
      5065.0000         0.8808       1578.176         0.6334        -63.016         -9.679      0.9097432
      5065.5000         0.8716       1420.268          0.629       -63.2902        -9.9577       0.905977
      5066.0000         0.8625       1383.764         0.6247       -63.5646       -10.2366      0.9022081
      5066.5000          0.855       1332.607         0.6736       -63.8465        -10.523      0.8983378
      5067.0000         0.8479       1279.578         0.7328       -64.1512       -10.8322      0.8941594
      5067.5000         0.8541       1235.748         0.7921       -64.4561       -11.1416      0.8899784
      5068.0000         0.9046       1203.561         0.8513       -64.7609       -11.4509      0.8857986
      5068.5000         0.9609       1175.861         0.9248       -65.0653       -11.7598      0.8816243
      5069.0000         1.0171       1073.377         1.0021       -65.3701       -12.0691      0.8774446
      5069.5000         1.0754       998.0498         1.0794       -65.3567       -12.0602      0.8775648
      5070.0000         1.1399       939.6924         1.1566        -64.774        -11.482      0.8853784
      5070.5000         1.2053       882.5176         1.2339       -64.1908       -10.9033      0.8931987
      5071.0000          1.269       850.4043         1.2877       -63.5776       -10.2946      0.9014243
      5071.5000         1.3277        785.707         1.2875       -62.7411        -9.4626      0.9126676
      5072.0000         1.3766       793.0576         1.2873       -62.4326        -9.1585       0.916777
      5072.5000         1.3747       994.0537         1.2466       -63.4489       -10.1793      0.9029824
