#------------------------------------------------------------------------------
# Created by    : vladimir.rabinovich
# Created on    : 09/19/2023 17:20:09
#------------------------------------------------------------------------------
~Version Information Section
VERS.           2.0     :   CWLS log ASCII Standard - VERSION 2.0
WRAP.           NO      :   One line per depth step
~Well Information Section
#MNEM       .UNIT                                         VALUE :DESCRIPTION
#------------------------------------------------------------------------------
STRT        .FT                                            1853 :START DEPTH
STOP        .FT                                            6238 :STOP DEPTH
STEP        .FT                                             0.5 :STEP      
NULL        .                                           -999.25 :NULL      
COMP        .               LOUISIANA LAND & EXPLORATION CO THE :COMPANY   
WELL        .                                          SL 79258 :WELL      
FLD         .                                           WILDCAT :FIELD     
LOC         .                                                   :LOCATION  
CNTY        .                      MATAGORDA ISLAND LARGE BLOCK :LOCATION  
STAT        .                                             TEXAS :STATE     
CTRY        .                                     UNITED STATES :COUNTRY   
SRVC        .                                                   :SERVICE COMPANY
DATE        .                             9/13/2023 11:12:01 AM :LOG DATE  
API         .                                    42703301870000 :API NUMBER
UWI         .                                    42703301870000 :UNIQUE WELL ID
XCOORD      .                                  470651.272343367 :SURFACE X 
YCOORD      .                                  10209272.4173218 :SURFACE Y 
LAT         .                                        28.0852496 :LATITUDE  
LON         .                                       -96.6277134 :LONGITUDE 
ELEV        .FT                                              82 :ELEVATION VALUE
ELEV_TYPE   .                                                KB :ELEVATION REFERENCE TYPE
~Curve Information Section
#MNEM       .UNIT                                      API CODE :CURVE DESCRIPTION
#------------------------------------------------------------------------------
DEPT        .FT                                                 :DEPTH     
ASFL        .OHMM                                               :          
CILD        .MMHO                                               :          
ILD         .OHMM                                               :          
SP          .MV                                                 :          
SP_NORM     .MV                                                 :SP Normalized
VSH_SP      .V/V                                                :Volume of Shale from SP
~A        DEPTH           ASFL           CILD            ILD             SP        SP_NORM         VSH_SP
# ...
      4171.0000         0.8835       1144.877         0.7827       -59.0273      -1.939732       0.982914
      4171.5000         0.9156       1128.697         0.7975       -60.8818      -3.803326      0.9490305
      4172.0000         0.9485       1112.529          0.811       -62.5856       -5.51622      0.9178869
      4172.5000         0.9684       1096.348         0.8245       -63.3588      -6.298515      0.9036633
      4173.0000         0.9607       1090.275          0.838       -63.5597      -6.508511      0.8998452
      4173.5000         0.9454       1084.852         0.8511       -63.7607      -6.718605      0.8960254
      4174.0000         0.9236       1079.432         0.8631       -63.8852      -6.852203      0.8935963
      4174.5000         0.9356       1074.006         0.8751       -63.8906      -6.866695      0.8933328
      4175.0000         0.9563       1066.309         0.8871       -63.8959      -6.881092      0.8930711
      4175.5000          0.977       1057.434         0.8991       -63.9012      -6.895489      0.8928093
      4176.0000         1.0163       1048.557          0.949       -64.0875      -7.090885      0.8892567
      4176.5000         1.0646       1038.365          0.999       -64.6707      -7.683178      0.8784876
      4177.0000         1.0982       1025.404         1.0278       -65.5536      -8.575172      0.8622696
      4177.5000         1.1374       1012.455         0.9797         -66.58      -9.610672      0.8434423
      4178.0000         1.1848        1022.99         0.9448       -68.2184      -11.25816      0.8134879
      4178.5000         1.1813       1052.697         0.9164       -72.6689      -15.71776      0.7324044
      4179.0000         1.1583       1082.428         0.8881       -75.6278      -18.68576      0.6784408
      4179.5000         1.1314        1122.48         0.8597        -78.552      -21.61905      0.6251081
      4180.0000         1.0993       1164.473         0.8397       -77.2699      -20.34604      0.6482538
      4180.5000         1.0724       1205.803         0.8357       -70.4893      -13.57455      0.7713719
      4181.0000         1.0527       1224.908         0.8342       -67.1655      -10.25983      0.8316393
      4181.5000         1.0347           1244          0.841       -64.8405      -7.943932      0.8737467
      4182.0000         1.0207       1235.191         0.8477       -63.6582      -6.770729      0.8950776
      4182.5000         1.0067       1206.613         0.8545       -62.6923      -5.813923      0.9124742
      4183.0000         0.9679       1165.111         0.8613       -61.8231      -4.953819      0.9281124
      4183.5000         0.9313       1123.611         0.8671       -61.0649      -4.204716      0.9417325
      4184.0000         0.9136       1083.793         0.8683       -60.3597       -3.50861      0.9543889
      4184.5000          0.896       1106.645         0.8695       -60.0209      -3.178905      0.9603835
      4185.0000         0.8807       1129.508         0.8707       -59.9724      -3.139503      0.9610999
      4185.5000         0.8717       1152.359         0.8719       -59.9238      -3.099998      0.9618182
      4186.0000         0.8839       1169.947          0.873        -59.461       -2.64629      0.9700674
      4186.5000         0.9007       1178.363          0.873       -58.7534      -1.947784      0.9827676
      4187.0000         0.9248       1186.777         0.8719       -57.8306      -1.034084      0.9993803
      4187.5000         0.9488       1188.266         0.8709       -56.4165      0.3709221              1
      4188.0000         0.9705       1176.574         0.8698       -55.6873       1.091026              1
      4188.5000         0.9872       1164.885         0.8687       -55.0222       1.747028              1
      4189.0000         1.0038       1153.195         0.8774       -54.3571       2.403034              1
      4189.5000         1.0025       1141.506          0.887       -53.9163        2.83474              1
      4190.0000         0.9887       1126.277         0.8965        -53.483       3.258942              1
      4190.5000         0.9748        1110.17         0.9061       -53.7783       2.954548              1
      4191.0000         0.9609       1094.076         0.9157       -54.3518       2.371956              1
      4191.5000         0.9653       1077.711         0.9252       -54.9254       1.789257              1
      4192.0000         0.9748       1043.752         0.9343       -55.5255       1.180061              1
      4192.5000         0.9903       1014.881          0.939       -56.1326      0.5638695              1
      4193.0000         1.0106       995.3955         0.9437       -56.2821      0.4052696              1
      4193.5000          1.031       975.9102         0.9484       -55.8618      0.8164749              1
      4194.0000          1.051       971.2432         0.9531       -55.5948       1.074383              1
      4194.5000         1.0689       967.5146         0.9578       -55.5526       1.107487              1
      4195.0000         1.0868       963.7832         0.9625       -55.5103        1.14069              1
      4195.5000         1.0998        963.499         0.9604        -55.503       1.138897              1
      4196.0000         1.0944        965.125         0.9553       -55.8608      0.7719994              1
      4196.5000         1.0846        966.752         0.9501       -56.2186      0.4051018              1
      4197.0000         1.0748       969.2705          0.945       -55.5455       1.069107              1
      4197.5000         1.0651       973.3428         0.9398       -54.7707       1.834816              1
      4198.0000          1.053        994.499         0.9342       -54.1586       2.437817              1
      4198.5000         1.0406       1015.655         0.9245       -53.5464       3.040924              1
      4199.0000          1.066       1031.639         0.9148       -53.1212       3.457027              1
      4199.5000         1.0446        1044.98         0.9051       -53.4061       3.163029              1
      4200.0000         1.0153       1058.324         0.8954       -53.8602       2.699837              1
      4200.5000         0.9852       1071.666         0.8857       -54.4733       2.077641              1
      4201.0000         0.9617       1085.008         0.8902       -55.0866       1.455242              1
      4201.5000         0.9396        1099.85         0.9004        -55.441       1.091747              1
      4202.0000         0.9195       1127.443         0.9107       -55.6625      0.8611565              1
      4202.5000         0.9212       1137.352          0.921       -55.8841      0.6304588              1
      4203.0000          0.938       1124.857         0.9377       -56.3496      0.1558609              1
      4203.5000         0.9548       1112.375          0.971       -57.1057      -0.609333              1
      4204.0000         0.9815       994.0693         1.0042       -58.1906      -1.703327      0.9872122
      4204.5000         1.0085       939.4219         1.0374       -59.2699      -2.791725      0.9674232
      4205.0000         1.0355       891.1631         1.0706       -60.3264      -3.857319      0.9480488
      4205.5000         1.0625       859.7852         1.1237       -61.1691      -4.709114      0.9325616
      4206.0000         1.0966       828.4062         1.1775       -62.0123      -5.561409      0.9170653
      4206.5000         1.1321       801.7461         1.2176       -62.8975      -6.455704      0.9008054
      4207.0000         1.1676       780.0371           1.25       -63.8141      -7.381397      0.8839746
      4207.5000         1.2438       760.0479         1.2825       -64.6703        -8.2467      0.8682418
      4208.0000         1.3135       747.6025         1.3149       -65.4384      -9.023891      0.8541111
      4208.5000         1.3592       735.1572         1.3473        -66.241      -9.835583       0.839353
