#------------------------------------------------------------------------------
# Created by    : vladimir.rabinovich
# Created on    : 09/19/2023 17:19:49
#------------------------------------------------------------------------------
~Version Information Section
VERS.           2.0     :   CWLS log ASCII Standard - VERSION 2.0
WRAP.           NO      :   One line per depth step
~Well Information Section
#MNEM       .UNIT                                         VALUE :DESCRIPTION
#------------------------------------------------------------------------------
STRT        .FT                                            1295 :START DEPTH
STOP        .FT                                            4592 :STOP DEPTH
STEP        .FT                                             0.5 :STEP      
NULL        .                                           -999.25 :NULL      
COMP        .                     FREEPORT-MCMORAN OIL & GAS CO :COMPANY   
WELL        .                                     ST TR 00662-L :WELL      
FLD         .                                         SIX-SIXTY :FIELD     
LOC         .                                                   :LOCATION  
CNTY        .                      MATAGORDA ISLAND LARGE BLOCK :LOCATION  
STAT        .                                             TEXAS :STATE     
CTRY        .                                     UNITED STATES :COUNTRY   
SRVC        .                                                   :SERVICE COMPANY
DATE        .                             9/13/2023 11:19:13 AM :LOG DATE  
API         .                                    42703300650000 :API NUMBER
UWI         .                                    42703300650000 :UNIQUE WELL ID
XCOORD      .                                  434889.841251994 :SURFACE X 
YCOORD      .                                  10179416.4588751 :SURFACE Y 
LAT         .                                        28.0002971 :LATITUDE  
LON         .                                       -96.7355909 :LONGITUDE 
ELEV        .FT                                              77 :ELEVATION VALUE
ELEV_TYPE   .                                                KB :ELEVATION REFERENCE TYPE
~Curve Information Section
#MNEM       .UNIT                                      API CODE :CURVE DESCRIPTION
#------------------------------------------------------------------------------
DEPT        .FT                                                 :DEPTH     
ASFL        .OHMM                                               :          
CILD        .MMHO                                               :          
ILD         .OHMM                                               :          
SFL         .OHMM                                               :          
SP          .MV                                                 :          
SP_NORM     .MV                                                 :SP Normalized
VSH_SP      .V/V                                                :Volume of Shale from SP
~A        DEPTH           ASFL           CILD            ILD            SFL             SP        SP_NORM         VSH_SP
# ...
      1730.5000         0.6535       1504.785         0.6296         0.6525       -27.7061      -9.940718       0.758359
      1731.0000         0.6637       1474.396         0.6434         0.6724       -28.0379      -10.25557      0.7498495
      1731.5000         0.6732       1450.088         0.6572         0.6924       -27.4701       -9.67082      0.7656535
      1732.0000         0.6798       1426.002          0.664         0.7123       -26.9023      -9.086071      0.7814575
      1732.5000         0.6765       1405.994         0.6694         0.7175       -26.5447      -8.711523      0.7915804
      1733.0000         0.6655       1385.979         0.6749         0.7204       -26.5663      -8.716171      0.7914549
      1733.5000         0.6493       1367.617         0.6803         0.7233        -28.024      -10.15692      0.7525156
      1734.0000         0.6331       1360.828         0.6761         0.7262       -28.6189      -10.73487      0.7368953
      1734.5000         0.6199       1387.377         0.6568         0.7152       -29.1697      -11.26873      0.7224668
      1735.0000         0.6067       1415.881         0.6375         0.6958       -29.6742      -11.75628      0.7092898
      1735.5000         0.5963       1458.174         0.6182         0.6763       -30.5395      -12.60463      0.6863614
      1736.0000         0.6057       1495.246         0.6121         0.6569        -31.441      -13.48918      0.6624547
      1736.5000         0.6154       1520.859          0.607         0.6444       -32.1334      -14.16463      0.6441992
      1737.0000         0.6261       1539.934          0.602         0.6372       -31.5957      -13.60998      0.6591898
      1737.5000         0.6366       1554.287         0.5971         0.6299       -31.0191      -13.01643      0.6752316
      1738.0000         0.6412        1568.98         0.5947         0.6227         -30.44      -12.42038       0.691341
      1738.5000         0.6409       1584.646         0.5922         0.6155       -29.8609      -11.82434      0.7074504
      1739.0000         0.6355       1600.027         0.5897         0.6103       -29.2885      -11.23498      0.7233788
      1739.5000         0.6302       1613.693         0.5888         0.6157        -29.551      -11.48054      0.7167423
      1740.0000         0.6242       1627.359         0.5879         0.6211       -30.2852      -12.19779      0.6973571
      1740.5000         0.6173         1639.9         0.5871         0.6264        -29.873      -11.76864      0.7089558
      1741.0000         0.6119       1641.781         0.5862         0.6318         -28.98      -10.85869      0.7335489
      1741.5000         0.6223       1616.328         0.6001         0.6372        -28.318      -10.17974      0.7518989
      1742.0000         0.6525       1580.291         0.6153         0.6425       -27.7537       -9.59849      0.7676084
      1742.5000         0.6712        1543.17         0.6305         0.6541       -27.5901       -9.41794      0.7724881
      1743.0000         0.6893       1501.371         0.6455         0.6747       -28.0435      -9.854393      0.7606921
      1743.5000         0.7065       1461.305         0.6601         0.6952       -28.5438      -10.33774      0.7476286
      1744.0000         0.7235       1430.691         0.6747         0.7158       -28.0415      -9.818495      0.7616623
      1744.5000         0.7318       1400.078         0.6893         0.7303       -26.3247      -8.084743      0.8085204
      1745.0000         0.7355        1367.35          0.704         0.7425       -24.4154      -6.158495      0.8605812
      1745.5000         0.7362       1331.826         0.7133         0.7547       -23.6931      -5.419247      0.8805609
      1746.0000         0.7342        1304.43         0.7194         0.7669       -22.9812      -4.690397      0.9002596
      1746.5000         0.7321       1286.166         0.7254         0.7725       -22.3415      -4.033749      0.9180068
      1747.0000         0.7304       1268.814         0.7315          0.771       -21.7017      -3.377001      0.9357567
      1747.5000          0.729       1257.629         0.7375         0.7695       -22.0773      -3.735649      0.9260635
      1748.0000         0.7281       1255.852         0.7436          0.768       -22.4889      -4.130301      0.9153973
      1748.5000         0.7299       1261.111         0.7478         0.7666       -23.0987      -4.723152      0.8993742
      1749.0000         0.7345       1266.369          0.751         0.7686       -23.7407      -5.348204       0.882481
      1749.5000         0.7437       1267.512         0.7542         0.7747       -24.1932      -5.783754      0.8707094
      1750.0000         0.7554       1267.992         0.7574         0.7808       -24.6368      -6.210407      0.8591782
      1750.5000         0.7676       1268.473         0.7644         0.7868       -25.0654      -6.622055      0.8480526
      1751.0000         0.7792       1264.309         0.7727         0.7929       -25.4772      -7.016907      0.8373809
      1751.5000         0.7908       1256.553          0.781         0.8039       -25.8769      -7.399658      0.8270363
      1752.0000         0.8027       1248.795         0.7893          0.816       -26.2192       -7.72501       0.818243
      1752.5000          0.815       1241.039         0.7976          0.828       -26.5615      -8.050362      0.8094497
      1753.0000         0.8265       1230.178         0.8078         0.8401       -26.9503      -8.422213      0.7993997
      1753.5000         0.8354       1215.951         0.8182         0.8501       -27.3458      -8.800762      0.7891686
      1754.0000         0.8438       1201.232         0.8285         0.8512       -27.8006      -9.238613      0.7773348
      1754.5000         0.8452        1183.52         0.8389         0.8524       -28.3516      -9.772665      0.7629009
      1755.0000         0.8465       1165.801         0.8492         0.8536       -28.8719      -10.27602      0.7492968
      1755.5000         0.8232       1172.717          0.842         0.8416       -29.3762      -10.76337      0.7361252
      1756.0000         0.7908       1194.936         0.8188         0.8178       -29.8148      -11.18502      0.7247292
      1756.5000         0.7511       1225.658         0.7956         0.7934       -29.9661      -11.31937      0.7210981
      1757.0000         0.7377       1257.188         0.7737         0.7673       -29.1899      -10.52622      0.7425346
      1757.5000         0.7243        1289.42         0.7526         0.7411       -28.6221      -9.941471      0.7583386
      1758.0000         0.7144       1321.283         0.7314          0.715       -28.0697      -9.372122      0.7737265
      1758.5000         0.7075       1352.613         0.7102         0.7127       -27.7764      -9.061872      0.7821115
      1759.0000         0.7397       1376.574         0.6891         0.7186       -28.1256      -9.394123      0.7731318
      1759.5000         0.7837       1392.988         0.6767         0.7252       -28.5461      -9.797674       0.762225
      1760.0000          0.806       1348.172         0.6932         0.7466       -29.2841      -10.51872      0.7427372
      1760.5000         0.8256       1285.004         0.7097         0.7681       -29.8679      -11.08558      0.7274168
      1761.0000         0.8411       1250.963         0.7262         0.7896       -30.2795      -11.48023      0.7167506
      1761.5000         0.8534       1216.924         0.7427          0.811       -30.6911      -11.87488      0.7060844
      1762.0000         0.8661       1185.963         0.7628         0.8324       -31.1027      -12.26953      0.6954182
      1762.5000         0.8805       1159.145         0.7882         0.8537       -31.5102      -12.66008      0.6848627
      1763.0000         0.8937        1132.33         0.8137          0.875       -31.8623      -12.99523      0.6758046
      1763.5000         0.9054       1103.406         0.8391         0.8963       -31.4182      -12.53418      0.6882654
