#------------------------------------------------------------------------------
# Created by    : vladimir.rabinovich
# Created on    : 09/19/2023 17:20:46
#------------------------------------------------------------------------------
~Version Information Section
VERS.           2.0     :   CWLS log ASCII Standard - VERSION 2.0
WRAP.           NO      :   One line per depth step
~Well Information Section
#MNEM       .UNIT                                         VALUE :DESCRIPTION
#------------------------------------------------------------------------------
STRT        .FT                                            1000 :START DEPTH
STOP        .FT                                            6719 :STOP DEPTH
STEP        .FT                                             0.5 :STEP      
NULL        .                                           -999.25 :NULL      
COMP        .                                 CALIFORNIA CO THE :COMPANY   
WELL        .                                     ST TR 00695-L :WELL      
FLD         .                                           WILDCAT :FIELD     
LOC         .                                                   :LOCATION  
CNTY        .                      MATAGORDA ISLAND LARGE BLOCK :LOCATION  
STAT        .                                             TEXAS :STATE     
CTRY        .                                     UNITED STATES :COUNTRY   
SRVC        .                                                   :SERVICE COMPANY
DATE        .                             9/13/2023 11:12:01 AM :LOG DATE  
API         .                                    42703000270000 :API NUMBER
UWI         .                                    42703000270000 :UNIQUE WELL ID
XCOORD      .                                   404842.11633791 :SURFACE X 
YCOORD      .                                  10151340.1845366 :SURFACE Y 
LAT         .                                        27.9206537 :LATITUDE  
LON         .                                       -96.8258101 :LONGITUDE 
ELEV        .FT                                              11 :ELEVATION VALUE
ELEV_TYPE   .                                                KB :ELEVATION REFERENCE TYPE
~Curve Information Section
#MNEM       .UNIT                                      API CODE :CURVE DESCRIPTION
#------------------------------------------------------------------------------
DEPT        .FT                                                 :DEPTH     
ASN         .OHMM                                               :          
CILD        .MMHO                                               :          
ILD         .OHMM                                               :          
SP          .MV                                                 :          
SP_NORM     .MV                                                 :SP Normalized
VSH_SP      .V/V                                                :Volume of Shale from SP
~A        DEPTH            ASN           CILD            ILD             SP        SP_NORM         VSH_SP
# ...
      2900.0000         0.6067       2487.512         0.3488       -83.4778       -38.1948      0.3419127
      2900.5000         0.6245        2452.93         0.3615       -84.8542       -39.5712      0.3168873
      2901.0000         0.6642       2429.094         0.3778       -79.6031       -34.3201      0.4123618
      2901.5000         0.7036       2399.375         0.3942       -74.3495       -29.0665      0.5078818
      2902.0000          0.742       2328.559           0.41       -69.0984       -23.8154      0.6033564
      2902.5000         0.7715       2156.109         0.4216       -63.8474       -18.5644      0.6988291
      2903.0000          0.801        2103.59         0.4331       -61.0043       -15.7213      0.7505218
      2903.5000         0.8278       2017.779         0.4447       -63.9086       -18.6256      0.6977164
      2904.0000         0.8534       1981.891         0.4563       -65.7206       -20.4376      0.6647709
      2904.5000         0.8699       1983.701         0.4736       -67.5326       -22.2496      0.6318254
      2905.0000         0.8776        1985.51         0.4959       -69.3446       -24.0616        0.59888
      2905.5000         0.8853       1969.203         0.5182       -68.1487       -22.8657      0.6206236
      2906.0000         0.9056       1917.686         0.5406       -65.6035       -20.3205         0.6669
      2906.5000         0.9261       1765.633         0.5838       -65.8464       -20.5634      0.6624836
      2907.0000         0.9347        1499.27         0.6357       -66.0892       -20.8062      0.6580691
      2907.5000          0.955       1224.521         0.6876       -66.3319       -21.0489      0.6536564
      2908.0000         0.9801       1190.014         0.7429       -64.6383       -19.3553      0.6844491
      2908.5000         0.9965       1155.506         0.8035        -61.053         -15.77      0.7496364
      2909.0000         1.0009       1125.248         0.8259       -58.6737       -13.3907      0.7928963
      2909.5000         1.0053       1107.363         0.8482       -59.8521       -14.5691      0.7714709
      2910.0000         1.0097       1089.471         0.8706       -61.1105       -15.8275      0.7485909
      2910.5000          1.014       1174.115         0.8784       -62.6864       -17.4034      0.7199382
      2911.0000         1.0184       1256.055         0.8583       -64.3728       -19.0898      0.6892763
      2911.5000          1.022       1331.494         0.8383       -66.0586       -20.7756      0.6586254
      2912.0000         1.0249       1396.859         0.8182        -67.745        -22.462      0.6279637
      2912.5000         1.0278       1442.303         0.7982        -69.424        -24.141      0.5974364
      2913.0000         1.0227       1487.746         0.7663       -71.0673       -25.7843      0.5675582
      2913.5000         0.9983       1533.215         0.7323       -72.7112       -27.4282      0.5376691
      2914.0000          0.974       1565.186         0.6982       -73.7422       -28.4592      0.5189236
      2914.5000          0.959       1593.156         0.6641       -72.3588       -27.0758      0.5440764
      2915.0000         0.9475       1603.805           0.63       -71.0266       -25.7436      0.5682982
      2915.5000         0.9339       1583.633         0.6205       -70.0132       -24.7302      0.5867236
      2916.0000          0.919       1563.447         0.6272       -68.9996       -23.7166      0.6051527
      2916.5000         0.9104       1543.264         0.6339       -67.9862       -22.7032      0.6235782
      2917.0000         0.9134       1526.941         0.6406       -66.9734       -21.6904      0.6419927
      2917.5000         0.9163       1511.523         0.6501       -65.9598       -20.6768      0.6604218
      2918.0000         0.9102       1525.123         0.6702       -65.5022       -20.2192      0.6687418
      2918.5000         0.9011       1539.207         0.6902       -65.0709       -19.7879      0.6765836
      2919.0000         0.8874       1545.188         0.7103        -65.308        -20.025      0.6722727
      2919.5000         0.8737       1487.871         0.7303       -65.5872       -20.3042      0.6671964
      2920.0000         0.9122       1430.555         0.7589       -65.8663       -20.5833      0.6621218
      2920.5000         0.9653       1363.939         0.8249       -66.1454       -20.8624      0.6570473
      2921.0000         1.0185       1294.498         0.8909       -66.4805       -21.1975      0.6509545
      2921.5000         1.0701       1225.033          0.958       -66.8253       -21.5423      0.6446854
      2922.0000          1.108       1024.137         1.0393       -67.1698       -21.8868      0.6384218
      2922.5000          1.146       865.1973         1.1205       -67.6616       -22.3786        0.62948
      2923.0000         1.1839       829.9521         1.1822       -68.2737       -22.9907      0.6183509
      2923.5000         1.3148       799.6943         1.2066       -68.4437       -23.1607        0.61526
      2924.0000         1.3124       809.4551          1.231       -68.0514       -22.7684      0.6223927
      2924.5000         1.2842       833.2139         1.2554       -67.8878       -22.6048      0.6253673
      2925.0000         1.2559       859.6602         1.2421       -68.0292       -22.7462      0.6227964
      2925.5000         1.2276       895.1426         1.1926       -68.1707       -22.8877      0.6202236
      2926.0000         1.1967        930.625         1.1432       -68.0662       -22.7832      0.6221237
      2926.5000         1.1652       966.1074         1.0964       -67.7037       -22.4207      0.6287146
      2927.0000         1.1337       1001.591         1.0574       -67.3414       -22.0584      0.6353018
      2927.5000         1.1083       1037.072         1.0184       -66.9348       -21.6518      0.6426945
      2928.0000         1.0908        1072.93         0.9794       -66.5219       -21.2389      0.6502019
      2928.5000         1.0734       1110.199         0.9405        -66.109        -20.826      0.6577091
      2929.0000         1.0559       1147.469         0.9015        -65.743         -20.46      0.6643637
      2929.5000         1.0385       1184.738         0.8725       -66.2195       -20.9365         0.6557
      2930.0000         1.0219       1224.508         0.8493       -66.6959       -21.4129      0.6470382
      2930.5000         1.0068       1307.973          0.826       -67.1724       -21.8894      0.6383745
      2931.0000         0.9917       1330.807         0.8028       -67.6488       -22.3658      0.6297127
      2931.5000         0.9767       1353.641         0.7795       -68.2158       -22.9328      0.6194037
      2932.0000         0.9636       1360.756         0.7664       -68.8044       -23.5214      0.6087018
      2932.5000         0.9578       1367.805          0.771       -69.3933       -24.1103      0.5979946
      2933.0000         0.9521       1362.301         0.7757       -68.5735       -23.2905         0.6129
      2933.5000          0.948       1342.217         0.7803       -67.6426       -22.3596      0.6298255
      2934.0000         0.9592       1322.133          0.785       -66.6384       -21.3554      0.6480836
      2934.5000         0.9704       1302.047          0.805       -65.5449       -20.2619      0.6679655
      2935.0000         0.9817       1281.975         0.8293       -65.4734       -20.1904      0.6692654
      2935.5000         1.0029       1261.891         0.8536       -65.4084       -20.1254      0.6704473
      2936.0000          1.024       1238.807         0.8778       -65.3436       -20.0606      0.6716254
      2936.5000         1.0452       1203.762         0.9021       -65.2787       -19.9957      0.6728054
      2937.0000         1.0664       1168.703         0.9264       -64.7833       -19.5003      0.6818128
      2937.5000         1.0895       1133.658         0.9507        -63.738        -18.455      0.7008182
