#------------------------------------------------------------------------------
# Created by    : vladimir.rabinovich
# Created on    : 09/19/2023 17:22:56
#------------------------------------------------------------------------------
~Version Information Section
VERS.           2.0     :   CWLS log ASCII Standard - VERSION 2.0
WRAP.           NO      :   One line per depth step
~Well Information Section
#MNEM       .UNIT                                         VALUE :DESCRIPTION
#------------------------------------------------------------------------------
STRT        .FT                                             513 :START DEPTH
STOP        .FT                                           16000 :STOP DEPTH
STEP        .FT                                             0.5 :STEP      
NULL        .                                           -999.25 :NULL      
COMP        .              PENNZOIL EXPLORATION & PRODUCTION CO :COMPANY   
WELL        .                                ST TR 00486-L SE/4 :WELL      
FLD         .                                           WILDCAT :FIELD     
LOC         .                                                   :LOCATION  
CNTY        .                      MATAGORDA ISLAND LARGE BLOCK :LOCATION  
STAT        .                                             TEXAS :STATE     
CTRY        .                                     UNITED STATES :COUNTRY   
SRVC        .                                                   :SERVICE COMPANY
DATE        .                             9/13/2023 11:19:05 AM :LOG DATE  
API         .                                    42703302080000 :API NUMBER
UWI         .                                    42703302080000 :UNIQUE WELL ID
XCOORD      .                                  648049.134083277 :SURFACE X 
YCOORD      .                                  10318924.3450998 :SURFACE Y 
LAT         .                                        28.3999658 :LATITUDE  
LON         .                                       -96.0869402 :LONGITUDE 
ELEV        .FT                                              47 :ELEVATION VALUE
ELEV_TYPE   .                                                KB :ELEVATION REFERENCE TYPE
~Curve Information Section
#MNEM       .UNIT                                      API CODE :CURVE DESCRIPTION
#------------------------------------------------------------------------------
DEPT        .FT                                                 :DEPTH     
SFL         .OHMM                                               :          
SP          .MV                                                 :          
SP_NORM     .MV                                                 :SP Normalized
VSH_SP      .V/V                                                :Volume of Shale from SP
~A        DEPTH            SFL             SP        SP_NORM         VSH_SP
# ...
      7721.0000         1.0695       -70.3201       -10.1575      0.8672826
      7721.5000          0.938       -68.9845      -8.818527       0.886688
      7722.0000         0.9015       -67.6544      -7.485065      0.9060135
      7722.5000         0.9026       -67.2203      -7.047592      0.9123538
      7723.0000         0.9602       -68.0294      -7.853325      0.9006764
      7723.5000         1.0726       -68.7247      -8.545254      0.8906485
      7724.0000         1.1387       -69.0768      -8.893982      0.8855945
      7724.5000         1.1352       -69.5366      -9.350414      0.8789795
      7725.0000          1.132       -69.4893      -9.299751      0.8797138
      7725.5000         1.1251       -69.1057      -8.912773      0.8853222
      7726.0000         1.1167       -68.5834      -8.387104      0.8929405
      7726.5000         1.1183       -67.8745      -7.674835      0.9032633
      7727.0000         1.1234       -67.0687      -6.865673      0.9149902
      7727.5000         1.1083       -66.1285      -5.922104      0.9286652
      7728.0000         1.0403       -65.0914       -4.88163      0.9437445
      7728.5000         0.9313       -63.9349       -3.72176      0.9605542
      7729.0000         0.8773       -63.0368      -2.820293      0.9736189
      7729.5000         0.9146        -62.335      -2.115124      0.9838388
      7730.0000         0.9968       -61.8938      -1.670555      0.9902818
      7730.5000         1.0447       -61.5757      -1.349083      0.9949408
      7731.0000         1.0598       -61.3258      -1.095818      0.9986113
      7731.5000         1.0365       -61.1462     -0.9128456              1
      7732.0000         1.0155        -61.035     -0.7982788              1
      7732.5000         1.0163       -60.9661     -0.7260094              1
      7733.0000         1.0172       -61.0512     -0.8077393              1
      7733.5000         1.0401       -61.1362       -0.88937              1
      7734.0000         1.0382       -61.1724     -0.9222031              1
      7734.5000          1.035       -61.2043     -0.9507332              1
      7735.0000         1.0134        -61.181     -0.9240646              1
      7735.5000         0.9784       -61.1313     -0.8709946              1
      7736.0000         0.9476       -61.1227      -0.859024              1
      7736.5000         0.9472       -61.1537     -0.8866577              1
      7737.0000         0.9946       -61.1755     -0.9050865              1
      7737.5000         1.0473       -61.1565     -0.8827209              1
      7738.0000         1.0717       -61.1375     -0.8603477              1
      7738.5000          1.068       -61.3051      -1.024578      0.9996438
      7739.0000         1.0534       -61.5373       -1.25341      0.9963274
      7739.5000         1.0488       -61.8565      -1.569241      0.9917501
      7740.0000         1.0615       -62.3205      -2.029873      0.9850743
      7740.5000         1.1033       -62.7836      -2.489601      0.9784116
      7741.0000         1.1759       -63.2424      -2.945034      0.9718111
      7741.5000         1.2393       -63.7344      -3.433666      0.9647295
      7742.0000          1.281       -64.3715      -4.067394       0.955545
      7742.5000         1.3202       -65.0051      -4.697624      0.9464113
      7743.0000         1.3569       -65.4608      -5.149956      0.9398557
      7743.5000         1.3651       -65.8134      -5.499187      0.9347944
      7744.0000         1.3462       -65.6105      -5.292915      0.9377838
      7744.5000         1.3039       -65.3237       -5.00275      0.9419891
      7745.0000         1.2438       -64.5542      -4.229881      0.9531901
      7745.5000         1.1733       -63.7857      -3.458012      0.9643766
      7746.0000         1.1091       -62.7766      -2.445541      0.9790501
      7746.5000         1.0521       -61.8544      -1.519974      0.9924641
      7747.0000         0.9935       -61.6378      -1.300003      0.9956521
      7747.5000         0.9814        -61.752      -1.410835      0.9940459
      7748.0000         1.0227       -62.2002      -1.855663      0.9875991
      7748.5000         1.1011       -62.5571      -2.209194      0.9824755
      7749.0000         1.1739       -62.5624      -2.211128      0.9824474
      7749.5000         1.2624       -62.5678      -2.213158       0.982418
      7750.0000         1.2879       -62.4548       -2.09679      0.9841045
      7750.5000         1.2607        -62.313      -1.951618      0.9862084
      7751.0000         1.1844        -62.171      -1.806252      0.9883152
      7751.5000         1.1046       -61.9572      -1.589081      0.9914626
      7752.0000         1.0657       -61.6826      -1.311111      0.9954911
      7752.5000         1.0453       -61.4079      -1.033047      0.9995211
      7753.0000         1.0263       -61.1465     -0.7682724              1
      7753.5000         1.0315       -60.8949     -0.5133057              1
      7754.0000          1.062       -60.6436     -0.2586365              1
      7754.5000         1.0703       -60.4626    -0.07426834              1
      7755.0000          1.055        -60.305     0.08670044              1
      7755.5000          1.039       -60.2247       0.170372              1
      7756.0000         1.0386       -60.2081      0.1903419              1
      7756.5000         1.0349       -60.1916      0.2102089              1
      7757.0000         1.0056       -60.2858      0.1193771              1
      7757.5000         0.9557       -60.4169   -0.008354187              1
      7758.0000         0.9236       -60.6624     -0.2504807              1
      7758.5000         0.9139       -60.8284     -0.4131126              1
      7759.0000         0.9393       -61.2302     -0.8115463              1
      7759.5000         0.9516       -61.8159      -1.393875      0.9942917
      7760.0000         0.9756        -62.356      -1.930607       0.986513
      7760.5000         1.0589       -62.8801      -2.451336      0.9789661
      7761.0000         1.1324       -63.3893      -2.957169      0.9716352
      7761.5000         1.1358       -63.7675      -3.332001      0.9662029
      7762.0000         1.0818       -64.0249      -3.586033      0.9625213
      7762.5000         1.0406       -64.2506      -3.808365      0.9592991
      7763.0000         1.0208       -64.5785      -4.132889      0.9545958
      7763.5000         1.0072       -65.3153      -4.866322      0.9439663
      7764.0000         0.9976       -66.6808      -6.228455      0.9242253
      7764.5000         0.9989       -68.3838      -7.928082       0.899593
      7765.0000         1.0158       -71.0979      -10.63882       0.860307
      7765.5000         1.0749       -76.1567      -15.69424      0.7870399
      7766.0000          1.157       -82.6705      -22.20468      0.6926858
      7766.5000         1.2192       -90.9304       -30.4612       0.573026
      7767.0000         1.2438      -106.3383      -45.86574      0.3497719
      7767.5000         1.2614      -115.2098      -54.73387      0.2212482
      7768.0000         1.3142       -125.335       -64.8557     0.07455511
      7768.5000         1.2745      -128.1182      -67.63553      0.0342677
      7769.0000         1.1374      -127.0325      -66.54646     0.05005126
      7769.5000         0.9901      -124.8948       -64.4054     0.08108123
      7770.0000         0.9346      -123.6095      -63.11672     0.09975765
      7770.5000         1.0029       -124.615      -64.11885     0.08523405
      7771.0000         1.0478      -126.4916      -65.99208     0.05808579
      7771.5000          1.021      -126.0587      -65.55582     0.06440845
      7772.0000         0.9859      -122.4586      -61.95235      0.1166326
      7772.5000         1.0327      -121.4858      -60.97618        0.13078
      7773.0000         1.1154      -122.0295      -61.51651      0.1229491
      7773.5000         1.2536      -124.2717      -63.75534     0.09050237
