#------------------------------------------------------------------------------
# Created by    : vladimir.rabinovich
# Created on    : 09/19/2023 17:20:45
#------------------------------------------------------------------------------
~Version Information Section
VERS.           2.0     :   CWLS log ASCII Standard - VERSION 2.0
WRAP.           NO      :   One line per depth step
~Well Information Section
#MNEM       .UNIT                                         VALUE :DESCRIPTION
#------------------------------------------------------------------------------
STRT        .FT                                            1401 :START DEPTH
STOP        .FT                                            4951 :STOP DEPTH
STEP        .FT                                             0.5 :STEP      
NULL        .                                           -999.25 :NULL      
COMP        .                      GULF ENERGY EXPLORATION CORP :COMPANY   
WELL        .                                ST TR 00596-L NE/4 :WELL      
FLD         .                        SHERMAN OFFSHORE SOUTHWEST :FIELD     
LOC         .                                                   :LOCATION  
CNTY        .                      MATAGORDA ISLAND LARGE BLOCK :LOCATION  
STAT        .                                             TEXAS :STATE     
CTRY        .                                     UNITED STATES :COUNTRY   
SRVC        .                                                   :SERVICE COMPANY
DATE        .                             9/13/2023 11:12:01 AM :LOG DATE  
API         .                                    42703301240000 :API NUMBER
UWI         .                                    42703301240000 :UNIQUE WELL ID
XCOORD      .                                    480210.3272994 :SURFACE X 
YCOORD      .                                  10243409.1849528 :SURFACE Y 
LAT         .                                        28.1797739 :LATITUDE  
LON         .                                       -96.6012532 :LONGITUDE 
ELEV        .FT                                              82 :ELEVATION VALUE
ELEV_TYPE   .                                                KB :ELEVATION REFERENCE TYPE
~Curve Information Section
#MNEM       .UNIT                                      API CODE :CURVE DESCRIPTION
#------------------------------------------------------------------------------
DEPT        .FT                                                 :DEPTH     
ASN         .OHMM                                               :          
CILD        .MMHO                                               :          
ILD         .OHMM                                               :          
SP          .MV                                                 :          
SP_NORM     .MV                                                 :SP Normalized
VSH_SP      .V/V                                                :Volume of Shale from SP
~A        DEPTH            ASN           CILD            ILD             SP        SP_NORM         VSH_SP
# ...
      2085.0000         0.8828        2046.67         0.5254        -28.304        -9.4361      0.8107029
      2085.5000         0.9202       1902.013         0.5653       -25.0742        -6.2063       0.905697
      2086.0000         0.9576       1757.356         0.6648       -23.2903        -4.4224      0.9581647
      2086.5000          0.995       1612.698         0.6947       -22.6949         -3.827      0.9756765
      2087.0000          1.046       1468.041         0.7544        -22.298        -3.4301        0.98735
      2087.5000           1.05       1323.384         0.8042        -21.703        -2.8351              1
      2088.0000          1.058       1178.727         0.8739        -21.207        -2.3391              1
      2088.5000           1.06       1081.798         0.9039       -19.9189         -1.051              1
      2089.0000         1.0664       1093.595         0.9537        -19.423        -0.5551              1
      2089.5000         1.0899        1093.46         0.9736       -19.1251        -0.2572              1
      2090.0000         1.0939        1063.22         1.0035       -18.9263        -0.0584              1
      2090.5000         1.1079       1032.981         1.0235       -18.7275         0.1404              1
      2091.0000         1.1557       1001.506         1.0435       -18.6277         0.2402              1
      2091.5000         1.1823       977.5046         1.0535       -18.5279           0.34              1
      2092.0000         1.1975       961.4576         1.0734       -18.5272         0.3407              1
      2092.5000         1.2135       949.3877         1.0934       -18.6254         0.2425              1
      2093.0000         1.2254       941.2952         1.1034       -18.7237         0.1442              1
      2093.5000         1.2314       937.1802         1.1134        -18.822         0.0459              1
      2094.0000         1.2374       933.0651         1.1135       -19.0192        -0.1513              1
      2094.5000         1.2474       932.9277         1.1235       -19.3155        -0.4476              1
      2095.0000         1.2474       948.7708         1.1137       -19.4141        -0.5462              1
      2095.5000         1.2435       1043.217         1.0143       -22.2906        -3.4227      0.9875677
      2096.0000         1.2316       1137.663         0.9546       -25.1671        -6.2992      0.9029647
      2096.5000         1.2037       1232.109         0.8154       -28.0435        -9.1756      0.8183647
      2097.0000         1.1938       1326.555         0.7657         -30.92       -12.0521      0.7337618
      2097.5000         1.1839       1421.001         0.7161       -33.7965       -14.9286      0.6491588
      2098.0000          1.176       1515.448         0.6863       -36.6729        -17.805      0.5645588
      2098.5000          1.174       1609.894         0.6267       -39.5494       -20.6815      0.4799559
      2099.0000         1.1561        1704.34         0.5571       -42.4259        -23.558      0.3953529
      2099.5000         1.1482       1787.221         0.4974       -45.3023       -26.4344      0.3107529
      2100.0000         1.1303        2024.34         0.4677       -48.1788       -29.3109        0.22615
      2100.5000         1.1162        2261.46         0.4389       -51.0553       -32.1874       0.141547
      2101.0000         1.0966       2503.416         0.4186       -52.4685       -33.6006     0.09998232
      2101.5000         1.0708       2642.464         0.3892        -52.465       -33.5971      0.1000853
      2102.0000          1.051       2654.277         0.3697       -52.3626       -33.4947       0.103097
      2102.5000         1.0392       2658.194         0.3702       -52.1612       -33.2933      0.1090206
      2103.0000         1.0333       2503.657         0.3994       -48.3485       -29.4806      0.2211588
      2103.5000         1.0274       2349.121         0.4257       -44.5357       -25.6678         0.3333
      2104.0000         1.0139       2194.585         0.4557       -40.7229        -21.855      0.4454412
      2104.5000         1.0004       2040.048         0.4902       -36.9101       -18.0422      0.5575824
      2105.0000         0.9869       1885.512         0.5304       -33.0973       -14.2294      0.6697235
      2105.5000         0.9735       1730.976         0.5777       -29.2845       -10.4166      0.7818647
      2106.0000           0.96       1576.439         0.6343       -25.4717        -6.6038      0.8940059
      2106.5000         0.9465       1421.903         0.7033       -21.8325        -2.9646              1
      2107.0000          0.933       1311.881         0.7623       -21.1359         -2.268              1
      2107.5000         0.9196       1323.761         0.7554       -20.5382        -1.6703              1
      2108.0000         0.9061       1370.592         0.7296       -20.3365        -1.4686              1
      2108.5000         0.8926       1417.423         0.7055       -20.0358        -1.1679              1
      2109.0000         0.8791       1470.567           0.68       -19.9331        -1.0652              1
      2109.5000          0.869       1482.445         0.6746       -19.9294        -1.0615              1
      2110.0000         0.8651       1498.246         0.6674       -20.1236        -1.2557              1
      2110.5000         0.8592       1514.046         0.6605       -20.3179          -1.45              1
      2111.0000         0.8593       1525.867         0.6554       -20.5121        -1.6442              1
      2111.5000         0.8594       1525.755         0.6554       -20.5084        -1.6405              1
      2112.0000         0.8614       1525.642         0.6555       -20.3067        -1.4388              1
      2112.5000         0.8635       1525.529         0.6555       -20.1049         -1.237              1
      2113.0000         0.8655       1517.461          0.659       -20.0022        -1.1343              1
      2113.5000         0.8776       1509.393         0.6625       -19.6025        -0.7346              1
      2114.0000         0.8836       1505.359         0.6643       -19.2027        -0.3348              1
      2114.5000         0.8936       1470.925         0.6798       -18.9492        -0.0813              1
      2115.0000         0.9017       1436.491         0.6961       -18.7992         0.0687              1
      2115.5000         0.9117       1402.057         0.7132       -18.5974         0.2705              1
      2116.0000         0.9317       1367.623         0.7312       -18.2967         0.5712              1
      2116.5000         0.9437       1333.189         0.7501        -17.994         0.8739              1
      2117.0000         0.9576       1298.755           0.77       -17.8913         0.9766              1
      2117.5000         0.9796       1264.321         0.7909       -17.5905         1.2774              1
      2118.0000         0.9896       1229.887         0.8131       -17.7847         1.0832              1
      2118.5000         1.0056       1195.453         0.8365        -18.078         0.7899              1
      2119.0000         1.0096       1173.886         0.8519       -18.3713         0.4966              1
      2119.5000         1.0436        1153.89         0.8666       -18.5674         0.3005              1
      2120.0000         1.0496       1129.916          0.885       -18.9597        -0.0918              1
      2120.5000         1.0636       1113.898         0.8977        -19.154        -0.2861              1
      2121.0000         1.0776       1105.835         0.9735       -19.3483        -0.4804              1
      2121.5000         1.0936       1101.749          0.964       -19.5426        -0.6747              1
      2122.0000         1.1056       1101.695         0.9545       -19.7369         -0.869              1
      2122.5000         1.1276       1089.601         0.9549       -19.7331        -0.8652              1
