#------------------------------------------------------------------------------
# Created by    : vladimir.rabinovich
# Created on    : 09/19/2023 17:19:49
#------------------------------------------------------------------------------
~Version Information Section
VERS.           2.0     :   CWLS log ASCII Standard - VERSION 2.0
WRAP.           NO      :   One line per depth step
~Well Information Section
#MNEM       .UNIT                                         VALUE :DESCRIPTION
#------------------------------------------------------------------------------
STRT        .FT                                            1295 :START DEPTH
STOP        .FT                                            4592 :STOP DEPTH
STEP        .FT                                             0.5 :STEP      
NULL        .                                           -999.25 :NULL      
COMP        .                     FREEPORT-MCMORAN OIL & GAS CO :COMPANY   
WELL        .                                     ST TR 00662-L :WELL      
FLD         .                                         SIX-SIXTY :FIELD     
LOC         .                                                   :LOCATION  
CNTY        .                      MATAGORDA ISLAND LARGE BLOCK :LOCATION  
STAT        .                                             TEXAS :STATE     
CTRY        .                                     UNITED STATES :COUNTRY   
SRVC        .                                                   :SERVICE COMPANY
DATE        .                             9/13/2023 11:19:13 AM :LOG DATE  
API         .                                    42703300650000 :API NUMBER
UWI         .                                    42703300650000 :UNIQUE WELL ID
XCOORD      .                                  434889.841251994 :SURFACE X 
YCOORD      .                                  10179416.4588751 :SURFACE Y 
LAT         .                                        28.0002971 :LATITUDE  
LON         .                                       -96.7355909 :LONGITUDE 
ELEV        .FT                                              77 :ELEVATION VALUE
ELEV_TYPE   .                                                KB :ELEVATION REFERENCE TYPE
~Curve Information Section
#MNEM       .UNIT                                      API CODE :CURVE DESCRIPTION
#------------------------------------------------------------------------------
DEPT        .FT                                                 :DEPTH     
ASFL        .OHMM                                               :          
CILD        .MMHO                                               :          
ILD         .OHMM                                               :          
SFL         .OHMM                                               :          
SP          .MV                                                 :          
SP_NORM     .MV                                                 :SP Normalized
VSH_SP      .V/V                                                :Volume of Shale from SP
~A        DEPTH           ASFL           CILD            ILD            SFL             SP        SP_NORM         VSH_SP
# ...
      2367.0000         0.8215       1157.863         0.8333         0.9386       -20.6414       7.594114              1
      2367.5000         0.8133       1183.922         0.8197         0.9051       -20.3747       7.863096              1
      2368.0000          0.805       1208.867         0.8061         0.8716       -20.1104       8.129683              1
      2368.5000         0.7968       1232.811         0.7925          0.838       -19.8462       8.396164              1
      2369.0000         0.7861       1256.742         0.7789         0.8127        -20.802       7.442648              1
      2369.5000         0.7762       1279.961         0.7653         0.7935       -22.3077       5.939234              1
      2370.0000         0.7676       1294.902         0.7516         0.7744       -23.7648       4.484417              1
      2370.5000         0.7591       1309.838          0.738         0.7714        -25.471       2.780499              1
      2371.0000         0.7511       1324.637         0.7244         0.7857       -28.6232     -0.3694153              1
      2371.5000         0.7436       1290.855         0.7325         0.8001       -28.6725     -0.4164333              1
      2372.0000         0.7461       1254.008         0.7479         0.8144       -27.7395      0.5188503              1
      2372.5000         0.7772       1206.393         0.7632         0.8435       -26.9475       1.313135              1
      2373.0000          0.824       1153.854         0.7786         0.8825       -25.8294       2.433519              1
      2373.5000          0.883       1084.313         0.8173         0.9214       -24.6552       3.610003              1
      2374.0000         0.9382       991.7832         0.8596         0.9604       -24.3824       3.885086              1
      2374.5000         1.0099       919.7432         0.9019         0.9994       -24.8225       3.447269              1
      2375.0000         1.1553       868.2686         0.9442         1.0614       -25.2627       3.009354              1
      2375.5000         1.2183       824.1562          0.991         1.1254       -25.4004       2.873938              1
      2376.0000         1.2583       786.1191         1.0584         1.1926       -24.8295       3.447121              1
      2376.5000         1.2958       751.1387         1.1257         1.2624       -24.1623       4.116604              1
      2377.0000         1.3238        723.248         1.1911         1.3173       -24.7311       3.550089              1
      2377.5000         1.3272       699.9854         1.2501         1.3507        -25.723       2.560472              1
      2378.0000         1.2959       689.3809         1.3091         1.3841       -26.4842       1.801558              1
      2378.5000         1.2647       692.6729         1.3011         1.3818       -25.6805        2.60754              1
      2379.0000         1.2351       730.1777         1.2848         1.3626       -25.1553       3.135023              1
      2379.5000         1.1992       769.4639         1.2546         1.3434       -24.6048       3.687809              1
      2380.0000         1.1551       800.4727         1.2238         1.3086       -24.0749       4.219992              1
      2380.5000         1.1172       829.5381          1.193          1.263       -24.7046       3.592575              1
      2381.0000         1.1002       858.6172         1.1622         1.2174       -25.7023        2.59716              1
      2381.5000         1.0826       882.2754         1.1319         1.1817       -27.3284      0.9733429              1
      2382.0000         1.0635       904.1768         1.1026         1.1471       -27.3599      0.9441261              1
      2382.5000         1.0396       926.0781         1.0733         1.1125       -26.2433       2.063011              1
      2383.0000           1.01       946.4824          1.044         1.0799       -25.0455       3.263094              1
      2383.5000         0.9867       965.3711         1.0183          1.053       -25.7159       2.594976              1
      2384.0000         0.9629       984.2539         1.0015         1.0262       -26.8664       1.446762              1
      2384.5000         0.9373       998.9541         0.9847         1.0186       -28.1531      0.1623459              1
      2385.0000         0.9367       1012.688         0.9681         1.0175        -29.269     -0.9512711              1
      2385.5000         0.9644       1018.481          0.967         1.0163       -30.2893      -1.969288      0.9751465
      2386.0000         0.9933       1016.459         0.9658         1.0181       -31.2881      -2.965803      0.9495948
      2386.5000         1.0224       1013.583         0.9647         1.0232       -32.2636       -3.93902      0.9246405
      2387.0000         1.0405       1006.629         0.9813         1.0284       -33.2253      -4.898436      0.9000401
      2387.5000          1.058       999.6748         1.0046         1.0336       -34.1346      -5.805454      0.8767833
      2388.0000          1.074       990.6885         1.0279          1.047       -35.0219       -6.69047      0.8540905
      2388.5000         1.0877       979.1807         1.0509         1.0665       -35.8661      -7.532385       0.832503
      2389.0000         1.1015        967.667         1.0738          1.086       -35.6379      -7.301903      0.8384128
      2389.5000         1.1203       956.1592         1.0968         1.1054       -34.8455      -6.507217      0.8587893
      2390.0000         1.1397       939.5098         1.1199         1.1273        -34.002      -5.661432      0.8804761
      2390.5000         1.1579       921.0176          1.143         1.1515       -33.0985       -4.75565      0.9037013
      2391.0000         1.1767       902.5254         1.1662         1.1757       -32.1998      -3.854664      0.9268035
      2391.5000         1.1993       884.0322         1.1925         1.2055       -31.3695      -3.022081      0.9481518
      2392.0000         1.2302       864.8779         1.2188         1.2438       -30.5568        -2.2071      0.9690487
      2392.5000         1.2987       824.0449         1.2452         1.2736       -30.0068      -1.654814      0.9832099
      2393.0000         1.3262       782.6543         1.2437         1.2984       -28.7459     -0.3916302              1
      2393.5000         1.3422       743.6025          1.228         1.3232       -26.5931       1.763453              1
      2394.0000         1.3383        764.873         1.2124         1.3239       -30.5065      -2.147663      0.9705728
      2394.5000         1.3079        820.877         1.1781         1.3223       -33.8659      -5.504778      0.8844929
      2395.0000         1.2755        898.708         1.1138          1.309       -36.4327      -8.069298       0.818736
      2395.5000         1.2411       987.2539           1.03         1.2876       -38.5997      -10.23401      0.7632304
      2396.0000         1.2186       1075.553         0.9381         1.2662       -43.6963      -15.32833      0.6326069
      2396.5000         1.1979       1162.764         0.8572         1.2448       -51.4429      -23.07265      0.4340347
      2397.0000         1.1725        1265.02         0.7795         1.2222       -53.3304      -24.95786      0.3856959
      2397.5000         1.1438       1459.732         0.7123         1.1973       -56.8058      -28.43098      0.2966416
      2398.0000         1.1138       1645.537          0.645         1.1724       -58.5491      -30.17199      0.2520002
      2398.5000         1.0834       1741.656         0.5966         1.1475       -59.8686      -31.48921      0.2182254
      2399.0000         1.0548       1819.141         0.5493         1.1227       -62.2256      -33.84393      0.1578481
      2399.5000           1.03       1953.494          0.502         1.0978       -65.0706      -36.68665     0.08495781
      2400.0000         1.0103       2157.215         0.4735         1.0713       -67.6331      -39.24686     0.01931127
