#------------------------------------------------------------------------------
# Created by    : vladimir.rabinovich
# Created on    : 09/19/2023 17:20:49
#------------------------------------------------------------------------------
~Version Information Section
VERS.           2.0     :   CWLS log ASCII Standard - VERSION 2.0
WRAP.           NO      :   One line per depth step
~Well Information Section
#MNEM       .UNIT                                         VALUE :DESCRIPTION
#------------------------------------------------------------------------------
STRT        .FT                                            2010 :START DEPTH
STOP        .FT                                            6610 :STOP DEPTH
STEP        .FT                                             0.5 :STEP      
NULL        .                                           -999.25 :NULL      
COMP        .                                      SHELL OIL CO :COMPANY   
WELL        .                                ST TR 00691-L SE/4 :WELL      
FLD         .                                           WILDCAT :FIELD     
LOC         .                                                   :LOCATION  
CNTY        .                      MATAGORDA ISLAND LARGE BLOCK :LOCATION  
STAT        .                                             TEXAS :STATE     
CTRY        .                                     UNITED STATES :COUNTRY   
SRVC        .                                                   :SERVICE COMPANY
DATE        .                             9/13/2023 11:12:05 AM :LOG DATE  
API         .                                    42703000190000 :API NUMBER
UWI         .                                    42703000190000 :UNIQUE WELL ID
XCOORD      .                                  412077.623085271 :SURFACE X 
YCOORD      .                                  10154908.2726125 :SURFACE Y 
LAT         .                                        27.9310704 :LATITUDE  
LON         .                                         -96.80379 :LONGITUDE 
ELEV        .FT                                              82 :ELEVATION VALUE
ELEV_TYPE   .                                                DF :ELEVATION REFERENCE TYPE
~Curve Information Section
#MNEM       .UNIT                                      API CODE :CURVE DESCRIPTION
#------------------------------------------------------------------------------
DEPT        .FT                                                 :DEPTH     
ASN         .OHMM                                               :          
CILD        .MMHO                                               :          
ILD         .OHMM                                               :          
SP          .MV                                                 :          
SP_NORM     .MV                                                 :SP Normalized
VSH_SP      .V/V                                                :Volume of Shale from SP
~A        DEPTH            ASN           CILD            ILD             SP        SP_NORM         VSH_SP
# ...
      4442.0000          2.192       509.0166         2.1156        -67.524        -8.4614      0.8625234
      4442.5000         2.0921       419.9067         1.9912       -68.0089        -8.9556      0.8520085
      4443.0000          2.001       582.9561         1.8668       -68.4943        -9.4503       0.841483
      4443.5000         1.9339       764.4053         1.7402       -68.9604        -9.9257      0.8313681
      4444.0000         1.6832       945.8545         1.5868       -69.3489       -10.3236      0.8229021
      4444.5000         1.4324         1127.4         1.4335       -69.7211       -10.7051      0.8147851
      4445.0000         1.1815        1308.85         1.2979       -69.7408       -10.7341      0.8141681
      4445.5000         1.0222       1490.396         1.1901       -69.7607       -10.7633      0.8135468
      4446.0000         0.9687       1592.865         1.0824       -69.7806       -10.7925      0.8129255
      4446.5000         0.7115        1627.07         0.9436       -69.8005       -10.8218      0.8123021
      4447.0000         0.6747       1650.338         0.7989       -69.8037       -10.8343      0.8120362
      4447.5000         0.6495       1673.582         0.7443       -69.7581        -10.798      0.8128085
      4448.0000         0.6351        1665.52         0.6999       -69.7124       -10.7616       0.813583
      4448.5000         0.6207       1649.543         0.6807       -69.6669       -10.7255      0.8143511
      4449.0000         0.6118       1633.566         0.6615       -69.5649       -10.6328      0.8163234
      4449.5000         0.6156       1617.588         0.6423       -69.2902       -10.3674      0.8219702
      4450.0000         0.6194        1588.02         0.6237       -69.0156       -10.1021      0.8276149
      4450.5000         0.6083       1544.859         0.6083       -68.7408        -9.8366      0.8332638
      4451.0000         0.5949       1500.012         0.5928       -68.2643        -9.3695      0.8432021
      4451.5000         0.5815       1476.426         0.5774       -67.7867        -8.9012      0.8531659
      4452.0000         0.5713       1513.615         0.5619       -67.3088        -8.4326      0.8631362
      4452.5000         0.5627       1557.975         0.5465       -66.8313        -7.9644      0.8730979
      4453.0000         0.5541       1589.121         0.5331       -66.3534        -7.4959      0.8830659
      4453.5000         0.5455        1615.35         0.5261       -65.7505        -6.9023      0.8956957
      4454.0000         0.5369        1640.43         0.5191        -64.984        -6.1451      0.9118064
      4454.5000         0.5283       1665.189         0.5121       -64.2183        -5.3887         0.9279
      4455.0000         0.5197       1681.289         0.5051       -63.4518        -4.6315      0.9440106
      4455.5000         0.5136       1684.586         0.4981       -62.6896        -3.8787      0.9600276
      4456.0000         0.5086        1680.75         0.4911       -61.9318        -3.1302      0.9759532
      4456.5000         0.5036       1669.771         0.4841       -61.1746        -2.3823      0.9918659
      4457.0000         0.4986       1658.791         0.4828       -60.4174        -1.6344              1
      4457.5000         0.4978       1647.807         0.4839        -59.842        -1.0683              1
      4458.0000         0.5001       1636.826          0.485       -59.3556        -0.5913              1
      4458.5000         0.5024       1625.846         0.4861       -58.8694        -0.1144              1
      4459.0000         0.5048       1609.232         0.4872       -58.3832         0.3625              1
      4459.5000         0.5071       1590.834         0.4883       -57.8967         0.8397              1
      4460.0000         0.5094       1572.422         0.4894       -57.9351         0.7919              1
      4460.5000         0.5117       1555.564         0.4905       -58.0104         0.7073              1
      4461.0000          0.514       1542.682         0.4914        -58.236         0.4724              1
      4461.5000         0.5163       1534.438         0.4903       -58.5129         0.1862              1
      4462.0000         0.5172       1550.182         0.4893       -58.7899        -0.1001              1
      4462.5000         0.5152       1565.926         0.4882       -59.0668        -0.3864              1
      4463.0000         0.5132       1586.602         0.4872       -59.3437        -0.6726              1
      4463.5000         0.5112        1607.74         0.4861       -59.6208         -0.959              1
      4464.0000         0.5091       1630.031         0.4851       -59.8976        -1.2451              1
      4464.5000         0.5071       1658.021          0.484       -60.1746        -1.5315              1
      4465.0000         0.5051       1683.932          0.483       -60.2528         -1.619              1
      4465.5000         0.5006        1701.83         0.4819       -60.2419        -1.6174              1
      4466.0000          0.496       1719.727         0.4811       -60.2309        -1.6157              1
      4466.5000         0.4915       1733.869         0.4812         -60.22        -1.6141              1
      4467.0000          0.487       1746.996         0.4814        -60.209        -1.6125              1
      4467.5000         0.4824       1760.135         0.4815       -60.1981        -1.6109              1
      4468.0000         0.4779       1773.262         0.4817       -60.1871        -1.6092              1
      4468.5000         0.4734       1785.604         0.4818       -60.1761        -1.6075              1
      4469.0000         0.4688       1784.775          0.482       -60.0979        -1.5387              1
      4469.5000         0.4643       1783.947         0.4821       -59.9504        -1.4005              1
      4470.0000         0.4636       1783.121         0.4823       -59.8027        -1.2621              1
      4470.5000         0.4659       1782.293         0.4824       -59.6552        -1.1239              1
      4471.0000         0.4682       1778.357         0.4826       -59.5077        -0.9857              1
      4471.5000         0.4705       1772.686         0.4827         -59.36        -0.8474              1
      4472.0000         0.4728       1767.016         0.4828       -59.2747        -0.7714              1
      4472.5000         0.4751       1761.346         0.4829       -59.3863        -0.8923              1
      4473.0000         0.4774       1746.164         0.4831       -59.4979        -1.0132              1
      4473.5000         0.4797       1730.492         0.4832       -59.6094         -1.134              1
      4474.0000          0.482       1709.572         0.4833       -59.7209        -1.2549              1
      4474.5000         0.4843       1661.324         0.4835       -59.5012        -1.0445              1
      4475.0000         0.4899       1602.896         0.4836       -59.2336        -0.7862              1
      4475.5000         0.4958       1566.586         0.4837       -58.9661         -0.528              1
      4476.0000         0.5017       1535.342         0.4855       -58.6984        -0.2697              1
      4476.5000         0.5076       1506.961         0.4877       -58.4308        -0.0114              1
      4477.0000         0.5135       1480.621         0.4898        -58.171         0.2391              1
      4477.5000         0.5194       1465.672          0.492       -57.9135         0.4873              1
      4478.0000         0.5253       1450.809         0.4942       -57.6558         0.7357              1
      4478.5000         0.5286       1447.016         0.4964       -57.3981          0.984              1
      4479.0000           0.53       1443.223         0.4986       -57.1971         1.1757              1
      4479.5000         0.5313       1439.432         0.5007          -57.4         0.9635              1
