#------------------------------------------------------------------------------
# Created by    : vladimir.rabinovich
# Created on    : 09/19/2023 17:20:46
#------------------------------------------------------------------------------
~Version Information Section
VERS.           2.0     :   CWLS log ASCII Standard - VERSION 2.0
WRAP.           NO      :   One line per depth step
~Well Information Section
#MNEM       .UNIT                                         VALUE :DESCRIPTION
#------------------------------------------------------------------------------
STRT        .FT                                            1957 :START DEPTH
STOP        .FT                                            6608 :STOP DEPTH
STEP        .FT                                             0.5 :STEP      
NULL        .                                           -999.25 :NULL      
COMP        .                            HIGHLAND RESOURCES INC :COMPANY   
WELL        .                                     ST TR 00691-L :WELL      
FLD         .                                           WILDCAT :FIELD     
LOC         .                                                   :LOCATION  
CNTY        .                      MATAGORDA ISLAND LARGE BLOCK :LOCATION  
STAT        .                                             TEXAS :STATE     
CTRY        .                                     UNITED STATES :COUNTRY   
SRVC        .                                                   :SERVICE COMPANY
DATE        .                             9/13/2023 11:12:01 AM :LOG DATE  
API         .                                    42703000470000 :API NUMBER
UWI         .                                    42703000470000 :UNIQUE WELL ID
XCOORD      .                                  404407.912506245 :SURFACE X 
YCOORD      .                                  10154689.9311845 :SURFACE Y 
LAT         .                                        27.9298131 :LATITUDE  
LON         .                                       -96.8274765 :LONGITUDE 
ELEV        .FT                                              63 :ELEVATION VALUE
ELEV_TYPE   .                                                KB :ELEVATION REFERENCE TYPE
~Curve Information Section
#MNEM       .UNIT                                      API CODE :CURVE DESCRIPTION
#------------------------------------------------------------------------------
DEPT        .FT                                                 :DEPTH     
ASN         .OHMM                                               :          
CILD        .MMHO                                               :          
ILD         .OHMM                                               :          
SP          .MV                                                 :          
SP_NORM     .MV                                                 :SP Normalized
VSH_SP      .V/V                                                :Volume of Shale from SP
~A        DEPTH            ASN           CILD            ILD             SP        SP_NORM         VSH_SP
# ...
      4085.0000         2.0396       1720.334         0.7188       -129.396        -56.307      0.1402097
      4085.5000         2.2321       1444.252         0.7574      -126.9392        -53.903      0.1789839
      4086.0000         2.1665       1271.453         0.7959       -125.634       -52.6507      0.1991823
      4086.5000         2.1016       1384.992         0.7307      -124.3287       -51.3982      0.2193839
      4087.0000         2.0552       1498.533           0.66      -123.1809       -50.3032      0.2370452
      4087.5000         2.0088       1612.172         0.5893       -124.564       -51.7392      0.2138839
      4088.0000         1.8344       1725.711         0.5431      -127.4951       -54.7231      0.1657565
      4088.5000         1.6265        1839.25         0.5004       -130.428       -57.7089      0.1175984
      4089.0000         1.4185       1952.891         0.4577      -132.3994       -59.7331     0.08494999
      4089.5000         1.2105       2251.141         0.4151      -134.0076       -61.3942     0.05815807
      4090.0000         1.0575       2307.063         0.3724      -132.1936        -59.633     0.08656453
      4090.5000         0.9848       2286.523         0.3319      -128.4807       -55.9729      0.1455984
      4091.0000         0.9414        2247.23         0.3568      -124.6677       -52.2128      0.2062452
      4091.5000         0.8988       2173.059         0.3817      -120.9771        -48.575      0.2649193
      4092.0000          0.865       2096.867         0.4065      -117.6643       -45.3151      0.3174984
      4092.5000         1.0447       2038.594         0.4314      -114.7601       -42.4637      0.3634887
      4093.0000         1.1028       2005.563         0.4563      -113.6904       -41.4469      0.3798887
      4093.5000         1.1342       1880.285         0.4812      -113.2538       -41.0631       0.386079
      4094.0000          1.158       1675.416         0.5061      -112.8173       -40.6794      0.3922677
      4094.5000         1.1623       1567.602         0.5287      -111.8245       -39.7395      0.4074275
      4095.0000          1.181       1516.484         0.5512       -110.761       -38.7288       0.423729
      4095.5000         1.1998       1483.816         0.5736      -109.6511       -37.6718      0.4407775
      4096.0000         1.2191       1469.705         0.5961      -108.5126       -36.5861      0.4582887
      4096.5000         1.1282       1460.213         0.6186      -108.1154       -36.2418       0.463842
      4097.0000         1.0172       1450.715         0.6411      -107.9801       -36.1593      0.4651726
      4097.5000         0.9708       1441.221         0.6499      -107.8448       -36.0768      0.4665032
      4098.0000         0.9341       1433.977         0.6535      -107.4728       -35.7577        0.47165
      4098.5000         0.8992        1426.83         0.6571      -107.0156       -35.3533      0.4781726
      4099.0000         0.8662       1389.227         0.6607      -106.5585       -34.9491      0.4846919
      4099.5000         0.8331       1342.191         0.6643      -104.9202       -33.3636      0.5102645
      4100.0000         0.8044       1299.066         0.6679      -103.1516       -31.6479      0.5379371
      4100.5000         0.8249       1256.266         0.6786       -79.7325        -8.2816      0.9148129
      4101.0000         0.8557       1218.318         0.6952       -79.3441         -7.946      0.9202258
      4101.5000         0.8866        1187.07         0.7118       -78.9557        -7.6105      0.9256371
      4102.0000         0.9188       1156.656         0.7284       -78.6044         -7.312      0.9304516
      4102.5000         0.9535       1133.264          0.745       -78.2688        -7.0293      0.9350113
      4103.0000         0.9881       1109.871         0.7616        -77.933        -6.7463      0.9395758
      4103.5000         1.0228        1086.49         0.7782       -77.5974        -6.4635      0.9441371
      4104.0000         1.0427       1063.098         0.7948       -77.2616        -6.1806         0.9487
      4104.5000         1.0602       1039.705          0.813        -76.926        -5.8978      0.9532613
      4105.0000         1.0776       1016.313         0.8452        -76.571        -5.5957      0.9581339
      4105.5000         1.0902       992.9209         0.8774       -75.8142        -4.8917      0.9694887
      4106.0000         1.0983       969.5283         0.9097       -75.0573        -4.1876      0.9808452
      4106.5000         1.1192       946.1357         0.9419       -74.3004        -3.4836         0.9922
      4107.0000         1.1537       922.7432         0.9741       -73.1184        -2.3544              1
      4107.5000         1.1883       899.3506         1.0128       -71.8075        -1.0964              1
      4108.0000         1.2244        875.958         1.0552       -71.7094        -1.0511              1
      4108.5000         1.2663       843.4648         1.0975       -72.9961        -2.3907              1
      4109.0000         1.3083        809.627         1.1399       -74.2838        -3.7312      0.9882064
      4109.5000         1.3445       778.4033         1.1728       -76.3145        -5.8147      0.9546016
      4110.0000         1.3789       749.3955         1.1986       -79.9365        -9.4896      0.8953291
      4110.5000         1.4133       720.3887         1.2244       -82.2266       -11.8325      0.8575403
      4111.0000         1.4364       690.9326         1.2502       -84.1655       -13.8243      0.8254145
      4111.5000         1.4584       670.3418         1.2586       -84.4696       -14.1812       0.819658
      4112.0000         1.4643        707.416         1.2316       -84.3933       -14.1578      0.8200355
      4112.5000          1.422       745.7354         1.2046       -83.7588       -13.5761      0.8294178
      4113.0000         1.3741        785.499         1.1777       -83.1238       -12.9939      0.8388081
      4113.5000         1.3261       825.2881         1.1507       -82.4888       -12.4118      0.8481967
      4114.0000         1.2784       865.0518         1.1237       -81.8536       -11.8294      0.8575903
      4114.5000         1.2337       904.8408         1.0995       -81.2186       -11.2473       0.866979
      4115.0000          1.189       941.5918         1.0788       -80.5591       -10.6406      0.8767645
      4115.5000         1.1454        974.583         1.0581       -79.6276         -9.762      0.8909355
      4116.0000         1.1231       1007.524         1.0374       -78.6957        -8.8829      0.9051145
      4116.5000         1.1007         1025.4         1.0167       -77.7642        -8.0042      0.9192871
      4117.0000         1.0783       1043.279          0.996       -76.8328        -7.1257      0.9334565
      4117.5000         1.0569       1061.156         0.9753       -76.6604        -7.0061      0.9353855
      4118.0000         1.0437       1070.668         0.9545       -76.5195        -6.9181      0.9368048
      4118.5000         1.0305       1066.473         0.9469       -76.3785        -6.8299      0.9382274
      4119.0000         1.0174        1051.67         0.9496       -76.2377         -6.742      0.9396452
      4119.5000         1.0042       1036.867         0.9522       -76.0967        -6.6538      0.9410678
      4120.0000         0.9997       1022.053         0.9549       -75.9558        -6.5657      0.9424887
      4120.5000         1.0048        1007.25         0.9576       -75.8148        -6.4776      0.9439097
      4121.0000         1.0099       992.4355         0.9602       -75.3628        -6.0784      0.9503484
      4121.5000          1.015       977.2217         0.9629       -74.8961        -5.6646      0.9570226
      4122.0000         1.0203       960.6016         0.9656       -74.4292        -5.2505      0.9637016
      4122.5000         1.0291       943.9814         0.9682       -73.9623        -4.8364      0.9703807
