#------------------------------------------------------------------------------
# Created by    : vladimir.rabinovich
# Created on    : 09/19/2023 17:20:46
#------------------------------------------------------------------------------
~Version Information Section
VERS.           2.0     :   CWLS log ASCII Standard - VERSION 2.0
WRAP.           NO      :   One line per depth step
~Well Information Section
#MNEM       .UNIT                                         VALUE :DESCRIPTION
#------------------------------------------------------------------------------
STRT        .FT                                            1957 :START DEPTH
STOP        .FT                                            6608 :STOP DEPTH
STEP        .FT                                             0.5 :STEP      
NULL        .                                           -999.25 :NULL      
COMP        .                            HIGHLAND RESOURCES INC :COMPANY   
WELL        .                                     ST TR 00691-L :WELL      
FLD         .                                           WILDCAT :FIELD     
LOC         .                                                   :LOCATION  
CNTY        .                      MATAGORDA ISLAND LARGE BLOCK :LOCATION  
STAT        .                                             TEXAS :STATE     
CTRY        .                                     UNITED STATES :COUNTRY   
SRVC        .                                                   :SERVICE COMPANY
DATE        .                             9/13/2023 11:12:01 AM :LOG DATE  
API         .                                    42703000470000 :API NUMBER
UWI         .                                    42703000470000 :UNIQUE WELL ID
XCOORD      .                                  404407.912506245 :SURFACE X 
YCOORD      .                                  10154689.9311845 :SURFACE Y 
LAT         .                                        27.9298131 :LATITUDE  
LON         .                                       -96.8274765 :LONGITUDE 
ELEV        .FT                                              63 :ELEVATION VALUE
ELEV_TYPE   .                                                KB :ELEVATION REFERENCE TYPE
~Curve Information Section
#MNEM       .UNIT                                      API CODE :CURVE DESCRIPTION
#------------------------------------------------------------------------------
DEPT        .FT                                                 :DEPTH     
ASN         .OHMM                                               :          
CILD        .MMHO                                               :          
ILD         .OHMM                                               :          
SP          .MV                                                 :          
SP_NORM     .MV                                                 :SP Normalized
VSH_SP      .V/V                                                :Volume of Shale from SP
~A        DEPTH            ASN           CILD            ILD             SP        SP_NORM         VSH_SP
# ...
      2565.0000         0.9496        1962.75         0.3049      -113.8843       -50.2176       0.171621
      2565.5000         0.9048        2033.75         0.2909      -115.2784       -51.6252      0.1469263
      2566.0000         0.8733           2245          0.277      -116.6569       -53.0172      0.1225053
      2566.5000         0.8441       2456.125          0.263      -117.8367       -54.2105      0.1015702
      2567.0000          0.816       2667.375         0.2747      -118.8594       -55.2467     0.08339122
      2567.5000         0.8011       2878.625         0.3077      -116.9844       -53.3852      0.1160491
      2568.0000         0.7863       2974.645         0.3407      -108.6785       -45.0928      0.2615298
      2568.5000         0.7714       3005.668         0.3737        -99.989       -36.4168      0.4137403
      2569.0000         0.7566       3004.883         0.4067       -90.6992       -27.1405      0.5764825
      2569.5000         0.7417        2591.75         0.4667       -80.2904       -16.7452      0.7588562
      2570.0000         0.7272           2154         0.5477       -75.0619       -11.5302      0.8503473
      2570.5000         0.7128       1914.396         0.6288       -70.1447        -6.6265      0.9363772
      2571.0000         0.7412       1793.785          0.698       -67.0247          -3.52      0.9908772
      2571.5000         0.7856       1673.125         0.7086       -65.1594        -1.6682              1
      2572.0000         0.8159       1552.465         0.7192       -64.0095        -0.5318              1
      2572.5000         0.8158       1431.803         0.7298       -63.5095        -0.0453              1
      2573.0000         0.8158       1311.191         0.7404       -63.3622         0.0885              1
      2573.5000         0.8158       1217.086          0.751          -63.9        -0.4627              1
      2574.0000         0.8157       1177.883         0.7616        -64.438        -1.0142              1
      2574.5000         0.8157       1140.496         0.7625       -64.7886        -1.3783              1
      2575.0000         0.8139        1118.43         0.7568       -64.9998         -1.603              1
      2575.5000         0.8114       1131.459          0.751       -65.2111        -1.8278              1
      2576.0000         0.8089       1144.668         0.7453       -65.4222        -2.0524              1
      2576.5000         0.8064       1158.779         0.7395       -65.6334        -2.2771              1
      2577.0000         0.8039       1172.891         0.7337       -65.8447        -2.5019              1
      2577.5000         0.8014       1187.002          0.728       -65.8528        -2.5235              1
      2578.0000         0.7989       1201.107         0.7222        -65.734        -2.4182              1
      2578.5000         0.8001       1215.219          0.726       -65.6152        -2.3129              1
      2579.0000         0.8079        1229.33         0.7319       -65.4965        -2.2077              1
      2579.5000         0.8158       1243.441         0.7378       -65.3776        -2.1023              1
      2580.0000         0.8237       1253.502         0.7437        -65.382        -2.1202              1
      2580.5000         0.8315       1259.984         0.7497       -65.8053         -2.557              1
      2581.0000         0.8394       1266.465         0.7556       -66.2286        -2.9938              1
      2581.5000         0.8472       1265.869         0.7615        -66.652        -3.4307      0.9924439
      2582.0000         0.8822       1259.922         0.7674       -67.0753        -3.8675      0.9847807
      2582.5000         0.9179       1253.971         0.7733       -67.4989        -4.3046      0.9771123
      2583.0000         0.9541       1248.023         0.7793       -67.9224        -4.7416      0.9694456
      2583.5000         0.9904       1236.414         0.7852       -68.7885        -5.6212      0.9540141
      2584.0000          0.997       1220.498         0.7975       -69.7079        -6.5541      0.9376473
      2584.5000         1.0026        1204.58          0.811       -70.6278        -7.4875      0.9212719
      2585.0000         1.0082       1188.664         0.8244       -71.5472        -8.4204      0.9049053
      2585.5000         1.0111       1170.662         0.8379       -72.5103         -9.397      0.8877719
      2586.0000         1.0131       1148.203         0.8514        -73.677       -10.5772      0.8670667
      2586.5000         1.0151       1125.756         0.8648       -74.8437       -11.7574      0.8463614
      2587.0000         1.0172       1111.219         0.8783       -75.6047       -12.5319      0.8327737
      2587.5000           1.05        1118.26         0.8917       -76.1268       -13.0675      0.8233772
      2588.0000         1.1042       1125.297         0.9038        -76.649       -13.6031      0.8139807
      2588.5000         1.3443       1132.334         0.9145       -77.6456       -14.6132      0.7962596
      2589.0000         1.6447       1133.107         0.9252       -78.8837       -15.8648      0.7743018
      2589.5000         1.6468       1127.951         0.9359       -80.8425       -17.8371         0.7397
      2590.0000         1.5776       1122.793         0.9111       -86.1692       -23.1773      0.6460123
      2590.5000         1.5084       1117.641         0.8497       -90.8864        -27.908      0.5630175
      2591.0000         1.4392       1101.654         0.7884       -95.6035       -32.6386      0.4800246
      2591.5000           1.37       1075.461          0.727       -98.5679       -35.6165      0.4277807
      2592.0000         1.3007       1049.268         0.6683      -101.1766       -38.2387      0.3817772
      2592.5000         1.2315       1656.393         0.6298      -103.9678       -41.0434      0.3325719
      2593.0000         1.1623        1745.68         0.5914      -106.4968       -43.5859      0.2879667
      2593.5000         1.0931       1820.775         0.5529      -108.3063       -45.4089      0.2559842
      2594.0000         1.0605       1942.021         0.5145      -109.0507       -46.1668      0.2426877
      2594.5000         1.0353       1972.539          0.476      -109.7949       -46.9245      0.2293947
      2595.0000         1.0031       1985.898         0.4376       -110.847       -47.9901         0.2107
      2595.5000         0.9621        1999.25         0.3991      -112.3395       -49.4961      0.1842789
      2596.0000         0.9431       2021.199         0.3607      -113.7462       -50.9163      0.1593631
      2596.5000         0.9357       2076.102         0.3222      -115.0529       -52.2365      0.1362018
      2597.0000         0.9282        2256.27         0.2955      -116.0142       -53.2113         0.1191
      2597.5000         0.9079       2436.438         0.2694      -116.6403       -53.8509       0.107879
      2598.0000         0.8732       2616.508         0.2432      -117.2662       -54.4903     0.09666142
      2598.5000         0.8384        2796.68         0.2171      -117.8922       -55.1298     0.08544213
      2599.0000         0.8069       2976.848         0.1909      -118.5182       -55.7693     0.07422283
      2599.5000         0.7832       3156.918         0.1648      -119.1722       -56.4368     0.06251232
      2600.0000         0.7595       3199.445         0.1838      -119.8715       -57.1496       0.050007
      2600.5000         0.7357        3025.75          0.236      -120.5707       -57.8623     0.03750349
      2601.0000         0.7139       2852.055         0.2882      -121.2698       -58.5749     0.02500173
      2601.5000          0.714       2678.359         0.3403       -121.969       -59.2876     0.01249822
      2602.0000         0.7667       2504.762         0.3925      -118.5277       -55.8598     0.07263511
      2602.5000         0.8195       2331.066         0.4447      -104.4208       -41.7663      0.3198895
