#------------------------------------------------------------------------------
# Created by    : vladimir.rabinovich
# Created on    : 09/19/2023 17:20:45
#------------------------------------------------------------------------------
~Version Information Section
VERS.           2.0     :   CWLS log ASCII Standard - VERSION 2.0
WRAP.           NO      :   One line per depth step
~Well Information Section
#MNEM       .UNIT                                         VALUE :DESCRIPTION
#------------------------------------------------------------------------------
STRT        .FT                                            1401 :START DEPTH
STOP        .FT                                            4951 :STOP DEPTH
STEP        .FT                                             0.5 :STEP      
NULL        .                                           -999.25 :NULL      
COMP        .                      GULF ENERGY EXPLORATION CORP :COMPANY   
WELL        .                                ST TR 00596-L NE/4 :WELL      
FLD         .                        SHERMAN OFFSHORE SOUTHWEST :FIELD     
LOC         .                                                   :LOCATION  
CNTY        .                      MATAGORDA ISLAND LARGE BLOCK :LOCATION  
STAT        .                                             TEXAS :STATE     
CTRY        .                                     UNITED STATES :COUNTRY   
SRVC        .                                                   :SERVICE COMPANY
DATE        .                             9/13/2023 11:12:01 AM :LOG DATE  
API         .                                    42703301240000 :API NUMBER
UWI         .                                    42703301240000 :UNIQUE WELL ID
XCOORD      .                                    480210.3272994 :SURFACE X 
YCOORD      .                                  10243409.1849528 :SURFACE Y 
LAT         .                                        28.1797739 :LATITUDE  
LON         .                                       -96.6012532 :LONGITUDE 
ELEV        .FT                                              82 :ELEVATION VALUE
ELEV_TYPE   .                                                KB :ELEVATION REFERENCE TYPE
~Curve Information Section
#MNEM       .UNIT                                      API CODE :CURVE DESCRIPTION
#------------------------------------------------------------------------------
DEPT        .FT                                                 :DEPTH     
ASN         .OHMM                                               :          
CILD        .MMHO                                               :          
ILD         .OHMM                                               :          
SP          .MV                                                 :          
SP_NORM     .MV                                                 :SP Normalized
VSH_SP      .V/V                                                :Volume of Shale from SP
~A        DEPTH            ASN           CILD            ILD             SP        SP_NORM         VSH_SP
# ...
      1629.0000         0.8387       1566.975         0.6382       -23.3809         -4.513       0.943963
      1629.5000         0.8405       1562.945         0.6398       -22.9825        -4.1146      0.9587185
      1630.0000         0.8425       1554.933         0.6431       -22.7824        -3.9145      0.9661296
      1630.5000         0.8464       1546.921         0.6464       -22.6814        -3.8135      0.9698704
      1631.0000         0.8524       1542.891         0.6481       -22.3822        -3.5143      0.9809518
      1631.5000         0.8604       1530.896         0.6532       -22.1821        -3.3142       0.988363
      1632.0000         0.8622       1518.879         0.6584        -21.982        -3.1141      0.9957741
      1632.5000         0.8664       1506.885         0.6636       -21.7818        -2.9139              1
      1633.0000         0.8704       1494.891         0.6689       -20.4904        -1.6225              1
      1633.5000         0.8763       1459.002         0.6854       -20.3894        -1.5215              1
      1634.0000         0.8823       1450.991         0.6892       -20.1893        -1.3214              1
      1634.5000         0.8923       1427.073         0.7007       -20.1874        -1.3195              1
      1635.0000         0.9003       1387.181         0.7209       -20.1846        -1.3167              1
      1635.5000         0.9122       1355.275         0.7379        -19.688        -0.8201              1
      1636.0000         0.9202         1339.3         0.7467       -19.2896        -0.4217              1
      1636.5000         0.9302        1315.36         0.7602       -18.7921         0.0758              1
      1637.0000         0.9321       1307.327         0.7649       -18.2945         0.5734              1
      1637.5000         0.9381       1303.299         0.7817       -18.0944         0.7735              1
      1638.0000         0.9461       1303.253         0.7917       -17.8942         0.9737              1
      1638.5000         0.9521       1303.207         0.8019       -17.7932         1.0747              1
      1639.0000         0.9601       1259.334         0.8021       -17.8905         0.9774              1
      1639.5000          0.968       1283.204         0.8023        -18.186         0.6819              1
      1640.0000          0.972       1295.105         0.7925       -18.5806         0.2873              1
      1640.5000          0.988       1299.041         0.7927       -19.6692        -0.8013              1
      1641.0000          0.975       1295.013         0.7929       -19.8656        -0.9977              1
      1641.5000         0.9869       1283.021         0.7931        -20.062        -1.1941              1
      1642.0000         1.0029       1278.657         0.7933       -20.2593        -1.3914              1
      1642.5000         1.0149       1270.984         0.8034       -20.1573        -1.2894              1
      1643.0000         1.0229         1235.1         0.8136       -20.3537        -1.4858              1
      1643.5000         1.0667        1207.18         0.8337       -20.3519         -1.484              1
      1644.0000         1.0668       1171.297         0.8438       -20.5483        -1.6804              1
      1644.5000         1.0549       1179.216          0.854       -20.5464        -1.6785              1
      1645.0000         1.0529       1186.885         0.8541       -20.3472        -1.4793              1
      1645.5000          1.037       1194.553         0.8644       -20.2011        -1.3332              1
      1646.0000         1.0271       1202.222         0.8645       -20.1442        -1.2763              1
      1646.5000         1.0132       1209.891         0.8547       -20.0432        -1.1753              1
      1647.0000         1.0092        1217.56          0.845       -19.9422        -1.0743              1
      1647.5000         1.0013       1242.653         0.8252       -19.8411        -0.9732              1
      1648.0000         0.9954       1282.425         0.7856       -19.8393        -0.9714              1
      1648.5000         0.9855       1330.161          0.736       -19.9375        -1.0696              1
      1649.0000         0.9815       1405.769         0.6865       -21.1243        -2.2564              1
      1649.5000         0.9736       1477.417         0.6668       -23.0495        -4.1816       0.956237
      1650.0000         0.9696       1529.132         0.5909       -24.9746        -6.1067       0.884937
      1650.5000         0.9637       1676.408         0.5994       -26.7708        -7.9029      0.8184111
      1651.0000         0.9577       1680.342         0.6096       -26.8681        -8.0002      0.8148074
      1651.5000         0.9538       1612.291         0.6202       -26.8662        -7.9983      0.8148777
      1652.0000         0.9518       1584.214         0.6312        -26.567        -7.6991      0.8259593
      1652.5000         0.9499       1556.136         0.6426       -25.9702        -7.1023      0.8480629
      1653.0000          0.932       1528.059         0.6544       -24.7787        -5.9108      0.8921926
      1653.5000         0.9637       1499.982         0.6667       -24.0828        -5.2149      0.9179667
      1654.0000         0.9898       1471.905         0.6794       -23.8826        -5.0147      0.9253815
      1654.5000         0.9943       1443.828         0.6926       -23.7816        -4.9137      0.9291222
      1655.0000         0.9859        1415.75         0.7063       -23.5815        -4.7136      0.9365333
      1655.5000         0.9541       1387.673         0.7206       -23.3813        -4.5134      0.9439481
      1656.0000         0.9541       1365.303         0.7324       -23.2803        -4.4124      0.9476889
      1656.5000         0.9522       1357.294         0.7368       -23.0801        -4.2122      0.9551037
      1657.0000         0.9522       1345.304         0.7433       -23.0783        -4.2104      0.9551704
      1657.5000         0.9522       1337.295         0.7478       -23.0773        -4.2094      0.9552074
      1658.0000         0.9503       1309.379         0.7637       -22.8762        -4.0083      0.9626555
      1658.5000         0.9543       1297.389         0.7708       -23.0727        -4.2048      0.9553778
      1659.0000         0.9504        1289.38         0.7756       -22.9717        -4.1038      0.9591185
      1659.5000         0.9424       1285.353          0.778        -22.374        -3.5061      0.9812555
      1660.0000         0.9345       1297.251         0.7709       -22.4712        -3.6033      0.9776555
      1660.5000         0.9166       1317.112         0.7592       -22.4694        -3.6015      0.9777222
      1661.0000         0.9127       1348.916         0.7413       -22.3684        -3.5005       0.981463
      1661.5000         0.9107       1368.777         0.7306       -22.3665        -3.4986      0.9815333
      1662.0000         0.9108       1396.599          0.716       -22.2655        -3.3976      0.9852741
      1662.5000         0.9088       1404.515          0.712       -22.2636        -3.3957      0.9853445
      1663.0000         0.9068       1412.431          0.708       -22.2627        -3.3948      0.9853778
      1663.5000         0.9069       1408.404           0.71       -21.9624        -3.0945         0.9965
      1664.0000         0.9069       1404.376         0.7121       -21.7622        -2.8943              1
      1664.5000         0.9069        1404.33         0.7121       -21.7603        -2.8924              1
      1665.0000          0.907       1404.283         0.7121       -21.5602        -2.6923              1
      1665.5000          0.907       1408.218         0.7101       -21.5583        -2.6904              1
      1666.0000          0.907       1416.133         0.7061       -21.3581        -2.4902              1
      1666.5000         0.9091       1420.068         0.7042       -21.1579          -2.29              1
