#------------------------------------------------------------------------------
# Created by    : vladimir.rabinovich
# Created on    : 09/19/2023 17:20:45
#------------------------------------------------------------------------------
~Version Information Section
VERS.           2.0     :   CWLS log ASCII Standard - VERSION 2.0
WRAP.           NO      :   One line per depth step
~Well Information Section
#MNEM       .UNIT                                         VALUE :DESCRIPTION
#------------------------------------------------------------------------------
STRT        .FT                                            1401 :START DEPTH
STOP        .FT                                            4951 :STOP DEPTH
STEP        .FT                                             0.5 :STEP      
NULL        .                                           -999.25 :NULL      
COMP        .                      GULF ENERGY EXPLORATION CORP :COMPANY   
WELL        .                                ST TR 00596-L NE/4 :WELL      
FLD         .                        SHERMAN OFFSHORE SOUTHWEST :FIELD     
LOC         .                                                   :LOCATION  
CNTY        .                      MATAGORDA ISLAND LARGE BLOCK :LOCATION  
STAT        .                                             TEXAS :STATE     
CTRY        .                                     UNITED STATES :COUNTRY   
SRVC        .                                                   :SERVICE COMPANY
DATE        .                             9/13/2023 11:12:01 AM :LOG DATE  
API         .                                    42703301240000 :API NUMBER
UWI         .                                    42703301240000 :UNIQUE WELL ID
XCOORD      .                                    480210.3272994 :SURFACE X 
YCOORD      .                                  10243409.1849528 :SURFACE Y 
LAT         .                                        28.1797739 :LATITUDE  
LON         .                                       -96.6012532 :LONGITUDE 
ELEV        .FT                                              82 :ELEVATION VALUE
ELEV_TYPE   .                                                KB :ELEVATION REFERENCE TYPE
~Curve Information Section
#MNEM       .UNIT                                      API CODE :CURVE DESCRIPTION
#------------------------------------------------------------------------------
DEPT        .FT                                                 :DEPTH     
ASN         .OHMM                                               :          
CILD        .MMHO                                               :          
ILD         .OHMM                                               :          
SP          .MV                                                 :          
SP_NORM     .MV                                                 :SP Normalized
VSH_SP      .V/V                                                :Volume of Shale from SP
~A        DEPTH            ASN           CILD            ILD             SP        SP_NORM         VSH_SP
# ...
      4213.0000         1.1396       1069.087          0.985       -20.8402        -4.9627         0.9311
      4213.5000         1.1535       1068.995         0.9953       -20.6421          -4.73      0.9365116
      4214.0000          1.168       1044.857         1.0156       -20.9683        -5.0216      0.9297302
      4214.5000          1.178       1040.788         1.0359       -21.2946        -5.3132      0.9229488
      4215.0000         1.1959       1024.604         1.0462       -21.6208        -5.6048      0.9161674
      4215.5000         1.2159       1000.464         1.0566        -21.947        -5.8963      0.9093884
      4216.0000         1.2359       984.3716          1.077       -22.2732        -6.1879       0.902607
      4216.5000         1.2639       968.2786         1.0973       -22.5995        -6.4796      0.8958232
      4217.0000          1.266       948.2082         1.1176       -22.9257        -6.7711      0.8890442
      4217.5000           1.27       936.0922         1.1279       -23.2519        -7.0627      0.8822628
      4218.0000         1.2721       927.9525         1.1283       -23.6062        -7.3823      0.8748302
      4218.5000         1.2722       923.6986         1.0989       -23.8039        -7.5454      0.8710372
      4219.0000         1.2722       927.5836         1.0694       -24.0015        -7.7083      0.8672488
      4219.5000         1.0695       1011.638         1.0201       -23.9021        -7.5743      0.8703651
      4220.0000         1.0675       1095.693         0.9409       -23.8029        -7.4405      0.8734767
      4220.5000         1.0577       1179.747         0.8717       -23.6048        -7.2077      0.8788907
      4221.0000         1.0538       1264.921         0.7727       -23.5056        -7.0739      0.8820023
      4221.5000         1.0479       1296.557         0.7532       -23.5053        -7.0389      0.8828163
      4222.0000          1.044       1316.262         0.7933       -23.4061        -6.9051      0.8859279
      4222.5000         1.0421       1312.101         0.8335       -23.3069        -6.7713      0.8890395
      4223.0000         1.0402       1249.913         0.8836       -23.3066        -6.7363      0.8898535
      4223.5000         1.0442       1187.724         0.9039       -23.5042        -6.8993      0.8860628
      4224.0000         1.0503       1125.536         0.9641       -24.5924        -7.9528      0.8615628
      4224.5000         1.0726       1056.626         0.9844       -25.1859        -8.5117      0.8485651
      4225.0000         1.0883       1048.579         0.9537       -26.6547        -9.9459      0.8152117
      4225.5000         1.0494       1144.716         0.8736       -28.1235         -11.38      0.7818605
      4226.0000         1.0105       1240.852         0.8059       -29.5923       -12.8142       0.748507
      4226.5000         0.9716       1336.989         0.7479       -31.0611       -14.2483      0.7151558
      4227.0000         0.9327       1433.125         0.6978       -32.5299       -15.6825      0.6818023
      4227.5000         0.8938       1529.261         0.6539       -33.9987       -17.1166      0.6484511
      4228.0000          0.855       1625.398         0.6152       -36.0717        -19.155      0.6010465
      4228.5000         0.8203       1721.534         0.5809       -34.4061       -17.4548      0.6405861
      4229.0000         0.8144       1854.664         0.5392       -32.7405       -15.7545      0.6801279
      4229.5000         0.8164       1854.664         0.5392       -31.0749       -14.0543      0.7196674
      4230.0000         0.8284       1767.783         0.5657       -29.4093        -12.354      0.7592093
      4230.5000         0.8599       1680.902         0.5949       -27.7437       -10.6538      0.7987489
      4231.0000         0.8913       1594.021         0.6273       -26.0781        -8.9536      0.8382884
      4231.5000         0.9228        1507.14         0.6635       -23.5985        -6.4393      0.8967605
      4232.0000         0.9542       1420.259         0.7041       -23.3012        -6.1074      0.9044791
      4232.5000         0.9856       1333.377           0.75       -23.3009        -6.0724       0.905293
      4233.0000         1.0171       1246.496         0.8022       -23.3996        -6.1365      0.9038023
      4233.5000         1.0479       1159.615         0.9421       -23.5973        -6.2996      0.9000093
      4234.0000         1.0361        1104.75         0.9423       -23.7951        -6.4627      0.8962163
      4234.5000         0.9833       1120.478         0.9327       -23.9928        -6.6258      0.8924233
      4235.0000          0.905       1155.247         0.9132       -23.7945        -6.3928      0.8978419
      4235.5000          0.901       1190.016         0.9036       -23.5962        -6.1599      0.9032581
      4236.0000         0.9051       1224.786         0.8841       -23.1999         -5.729      0.9132791
      4236.5000         0.9367       1259.555         0.8646       -22.6053        -5.0997       0.927914
      4237.0000         0.9683       1306.431         0.8551       -22.3079        -4.7677      0.9356349
      4237.5000         0.9999        1286.45         0.8256       -22.0105        -4.4356      0.9433581
      4238.0000         1.0315       1302.178         0.8061       -21.8121        -4.2026      0.9487767
      4238.5000         1.0767       1309.951         0.8165       -21.7127        -4.0685      0.9518954
      4239.0000         1.0827       1267.105         0.8168       -21.7124        -4.0336       0.952707
      4239.5000         1.0967       1224.259         0.8473        -21.712        -3.9986       0.953521
      4240.0000         1.1127       1181.413         0.8675       -21.4146        -3.6665      0.9612442
      4240.5000         1.1147       1138.567         0.8978       -21.0181        -3.2354      0.9712698
      4241.0000         1.1288       1078.033          0.928        -20.027        -2.2096      0.9951256
      4241.5000         1.1388       1069.984         0.9781       -19.5314        -1.6794              1
      4242.0000         1.1489       1045.932         0.9984        -19.531        -1.6444              1
      4242.5000         1.1489        1041.77         0.9988       -19.6299        -1.7086              1
      4243.0000         1.1128       1074.029         0.9992        -20.731        -2.7751      0.9819744
      4243.5000         1.0767       1106.288         0.9039       -21.8321        -3.8415      0.9571744
      4244.0000         1.0407       1138.547         0.8783       -23.2939        -5.2687      0.9239837
      4244.5000         1.0046       1170.807         0.8541       -23.0956        -5.0358         0.9294
      4245.0000         0.9685       1203.066         0.8312       -22.6664        -4.5719      0.9401883
      4245.5000         0.9306       1235.325         0.8095       -22.2373        -4.1082      0.9509721
      4246.0000         0.9267       1267.584         0.7889       -21.8081        -3.6443      0.9617605
      4246.5000         0.9247       1299.843         0.7693       -21.3789        -3.1805      0.9725465
      4247.0000         0.9249       1332.103         0.7507       -20.9498        -2.7168      0.9833302
      4247.5000          0.923       1377.995         0.7257       -20.5206        -2.2529      0.9941186
      4248.0000         0.9111       1393.817         0.7548       -20.0914        -1.7891              1
      4248.5000         0.8992       1409.548         0.7351       -19.6246        -1.2876              1
      4249.0000         0.8894       1425.279         0.7255       -19.5253        -1.1537              1
      4249.5000         0.8735       1433.053          0.716       -19.5249        -1.1186              1
      4250.0000         0.8657       1444.806         0.7064       -19.9208        -1.4799              1
      4250.5000          0.863       1453.768         0.6993       -20.1242        -1.6487              1
