#------------------------------------------------------------------------------
# Created by    : vladimir.rabinovich
# Created on    : 09/19/2023 17:22:56
#------------------------------------------------------------------------------
~Version Information Section
VERS.           2.0     :   CWLS log ASCII Standard - VERSION 2.0
WRAP.           NO      :   One line per depth step
~Well Information Section
#MNEM       .UNIT                                         VALUE :DESCRIPTION
#------------------------------------------------------------------------------
STRT        .FT                                             513 :START DEPTH
STOP        .FT                                           16000 :STOP DEPTH
STEP        .FT                                             0.5 :STEP      
NULL        .                                           -999.25 :NULL      
COMP        .              PENNZOIL EXPLORATION & PRODUCTION CO :COMPANY   
WELL        .                                ST TR 00486-L SE/4 :WELL      
FLD         .                                           WILDCAT :FIELD     
LOC         .                                                   :LOCATION  
CNTY        .                      MATAGORDA ISLAND LARGE BLOCK :LOCATION  
STAT        .                                             TEXAS :STATE     
CTRY        .                                     UNITED STATES :COUNTRY   
SRVC        .                                                   :SERVICE COMPANY
DATE        .                             9/13/2023 11:19:05 AM :LOG DATE  
API         .                                    42703302080000 :API NUMBER
UWI         .                                    42703302080000 :UNIQUE WELL ID
XCOORD      .                                  648049.134083277 :SURFACE X 
YCOORD      .                                  10318924.3450998 :SURFACE Y 
LAT         .                                        28.3999658 :LATITUDE  
LON         .                                       -96.0869402 :LONGITUDE 
ELEV        .FT                                              47 :ELEVATION VALUE
ELEV_TYPE   .                                                KB :ELEVATION REFERENCE TYPE
~Curve Information Section
#MNEM       .UNIT                                      API CODE :CURVE DESCRIPTION
#------------------------------------------------------------------------------
DEPT        .FT                                                 :DEPTH     
SFL         .OHMM                                               :          
SP          .MV                                                 :          
SP_NORM     .MV                                                 :SP Normalized
VSH_SP      .V/V                                                :Volume of Shale from SP
~A        DEPTH            SFL             SP        SP_NORM         VSH_SP
# ...
      6661.0000         1.1465       -65.5366      -1.004745      0.9999312
      6661.5000         1.4734       -65.8806      -1.355057      0.9948543
      6662.0000         1.6236       -65.9513       -1.43206      0.9937382
      6662.5000         1.7101       -65.6736       -1.16066      0.9976716
      6663.0000         1.6989       -64.2618      0.2448349              1
      6663.5000         1.7943       -63.0054       1.494934              1
      6664.0000         1.9225       -62.2295       2.264526              1
      6664.5000         1.9806       -62.8951       1.592625              1
      6665.0000         1.9895       -63.5692      0.9122238              1
      6665.5000         2.0026       -64.2646      0.2105179              1
      6666.0000         2.0434       -65.0425     -0.5736847              1
      6666.5000         2.1072       -65.7924       -1.32988      0.9952191
      6667.0000         2.1492       -66.5168      -2.060593      0.9846291
      6667.5000         2.0131       -67.5405      -3.090591      0.9697016
      6668.0000         1.3354       -68.1377      -3.694099      0.9609551
      6668.5000         1.0378       -68.4058      -3.968498      0.9569783
      6669.0000           0.96       -67.9258      -3.494797      0.9638435
      6669.5000          0.917       -67.3333      -2.908607       0.972339
      6670.0000         0.9183       -67.0455      -2.627113      0.9764187
      6670.5000           0.92       -66.7604      -2.348312      0.9804592
      6671.0000         0.9224       -66.7788      -2.373016      0.9801012
      6671.5000         0.9284       -66.7974      -2.397919      0.9797403
      6672.0000         0.9694       -66.5262      -2.133026      0.9835793
      6672.5000         1.1056         -66.22       -1.83313      0.9879256
      6673.0000         1.2261       -66.6309      -2.250328      0.9818793
      6673.5000          1.221       -67.6238      -3.249535       0.967398
      6674.0000         1.1302       -69.5608      -5.192833      0.9392343
      6674.5000         0.9528       -70.7799      -6.418236      0.9214748
      6675.0000         0.8993       -70.9376      -6.582245      0.9190979
      6675.5000         0.8825       -70.6051       -6.25605      0.9238254
      6676.0000         0.9019       -69.9469      -5.604149      0.9332732
      6676.5000         0.9555       -69.0121      -4.675652      0.9467297
      6677.0000         1.0385       -68.3492      -4.019051      0.9562457
      6677.5000         1.0621       -67.7242       -3.40036      0.9652122
      6678.0000         1.0517       -67.1353      -2.817764      0.9736556
      6678.5000          0.995       -66.7839      -2.472664      0.9786571
      6679.0000         0.9183       -66.5834      -2.278465      0.9814715
      6679.5000         0.8922       -66.4769      -2.178268      0.9829236
      6680.0000         0.8825       -66.3704      -2.078079      0.9843757
      6680.5000         0.8754       -66.2638      -1.977783      0.9858292
      6681.0000         0.8668       -65.9531      -1.673386      0.9902408
      6681.5000         0.8841       -65.6357      -1.362282      0.9947495
      6682.0000         0.9385       -65.4032      -1.136086      0.9980277
      6682.5000         0.9786       -65.3375      -1.076691      0.9988886
      6683.0000         0.9563       -65.8199      -1.565399      0.9918058
      6683.5000         0.8809       -65.9344      -1.686203       0.990055
      6684.0000         0.8655       -65.6993      -1.457405       0.993371
      6684.5000         0.9212       -65.2959      -1.060303      0.9991261
      6685.0000         1.0192       -65.3408      -1.111504       0.998384
      6685.5000         1.0965       -65.9102      -1.687218      0.9900403
      6686.0000         1.0986       -66.6113      -2.394615      0.9797882
      6686.5000         1.0278       -67.3591       -3.14872      0.9688591
      6687.0000         0.9271       -68.1146      -3.910522      0.9578185
      6687.5000         0.8608       -68.8391      -4.641327      0.9472271
      6688.0000         0.8978       -69.4127       -5.22123      0.9388227
      6688.5000          1.066       -69.8464      -5.661232      0.9324459
      6689.0000         1.2189       -69.7118      -5.532936      0.9343053
      6689.5000         1.2654       -69.4976      -5.325035      0.9373183
      6690.0000         1.0874       -69.4418      -5.275543      0.9380356
      6690.5000         1.0063        -69.407       -5.24704      0.9384487
      6691.0000         1.0645       -69.8853      -5.731651      0.9314253
      6691.5000         1.1922       -70.4209      -6.273552      0.9235717
      6692.0000         1.1798       -71.0305      -6.889458      0.9146456
      6692.5000         1.2052       -71.5452      -7.410454      0.9070949
      6693.0000         1.4605        -71.837      -7.708557      0.9027745
      6693.5000         1.6452       -71.8329       -7.71077      0.9027424
      6694.0000         1.7004       -72.4534       -8.33757      0.8936584
      6694.5000         1.5568       -73.2723      -9.162773       0.881699
      6695.0000         1.2909       -73.9548      -9.851578      0.8717163
      6695.5000         1.0286       -74.2458      -10.14887      0.8674076
      6696.0000         0.9851       -74.3223      -10.23169      0.8662074
      6696.5000         1.0035       -73.5846       -9.50029      0.8768074
      6697.0000         0.9663       -72.7656      -8.687592      0.8885856
      6697.5000         0.9219       -71.8962      -7.824493      0.9010943
      6698.0000         0.8907       -71.2833      -7.217896      0.9098856
      6698.5000         0.8719       -70.7561      -6.696999      0.9174348
      6699.0000         0.8732       -70.5751      -6.522308      0.9199665
      6699.5000         0.8987       -70.4445       -6.39801       0.921768
      6700.0000          0.924       -70.3635      -6.323311      0.9228505
      6700.5000         0.9404       -70.3541      -6.320213      0.9228954
      6701.0000         0.9396       -70.3789      -6.351311      0.9224448
      6701.5000         0.9111       -70.6285      -6.607224      0.9187359
      6702.0000         0.8592       -70.9033      -6.888321       0.914662
      6702.5000         0.8158       -71.0835      -7.074829       0.911959
      6703.0000         0.8093       -71.2224      -7.220024      0.9098547
      6703.5000         0.8305       -71.3043      -7.308231      0.9085764
      6704.0000         0.8685       -71.3702      -7.380436      0.9075299
      6704.5000         0.9123       -71.4164      -7.432934      0.9067691
      6705.0000         0.9166       -71.3745      -7.397339      0.9072849
      6705.5000         0.8769       -71.2391      -7.268242      0.9091559
      6706.0000          0.847       -72.3954      -8.430851      0.8923065
      6706.5000         0.8293        -74.843      -10.88475      0.8567427
      6707.0000         0.8214       -79.3005      -15.34855      0.7920499
      6707.5000         0.8289       -83.6497      -19.70406      0.7289267
      6708.0000         0.8746       -89.8647      -25.92536      0.6387629
      6708.5000         1.0286       -98.1965      -34.26347      0.5179208
      6709.0000         1.2759      -103.3571      -39.43037      0.4430381
      6709.5000         1.3189      -105.2401      -41.31967       0.415657
      6710.0000         1.0653      -105.2817      -41.36758      0.4149626
      6710.5000         0.9626      -105.4062      -41.49837       0.413067
      6711.0000          1.049      -105.6272      -41.72568      0.4097728
      6711.5000         1.2865      -104.7781      -40.88288      0.4219872
      6712.0000          1.591       -102.037      -38.14809      0.4616219
      6712.5000         1.7521       -96.8801      -32.99749      0.5362683
      6713.0000         1.7032       -87.7855      -23.90919      0.6679827
      6713.5000         1.4395        -80.486        -16.616      0.7736812
