#------------------------------------------------------------------------------
# Created by    : vladimir.rabinovich
# Created on    : 09/19/2023 17:22:51
#------------------------------------------------------------------------------
~Version Information Section
VERS.           2.0     :   CWLS log ASCII Standard - VERSION 2.0
WRAP.           NO      :   One line per depth step
~Well Information Section
#MNEM       .UNIT                                         VALUE :DESCRIPTION
#------------------------------------------------------------------------------
STRT        .FT                                             970 :START DEPTH
STOP        .FT                                           10993 :STOP DEPTH
STEP        .FT                                             0.5 :STEP      
NULL        .                                           -999.25 :NULL      
COMP        .                               AMOCO PRODUCTION CO :COMPANY   
WELL        .                                     ST TR 00558-L :WELL      
FLD         .                                           WILDCAT :FIELD     
LOC         .                                                   :LOCATION  
CNTY        .                      MATAGORDA ISLAND LARGE BLOCK :LOCATION  
STAT        .                                             TEXAS :STATE     
CTRY        .                                     UNITED STATES :COUNTRY   
SRVC        .                                                   :SERVICE COMPANY
DATE        .                             9/13/2023 11:19:13 AM :LOG DATE  
API         .                                    42703301770000 :API NUMBER
UWI         .                                    42703301770000 :UNIQUE WELL ID
XCOORD      .                                   593347.98828382 :SURFACE X 
YCOORD      .                                   10274817.073936 :SURFACE Y 
LAT         .                                        28.2748406 :LATITUDE  
LON         .                                       -96.2531821 :LONGITUDE 
ELEV        .FT                                              93 :ELEVATION VALUE
ELEV_TYPE   .                                                KB :ELEVATION REFERENCE TYPE
~Curve Information Section
#MNEM       .UNIT                                      API CODE :CURVE DESCRIPTION
#------------------------------------------------------------------------------
DEPT        .FT                                                 :DEPTH     
GR          .GAPI                                               :          
GR_NORM     .GAPI                                               :GammaRay Normalized
ILD         .OHMM                                               :          
SP          .MV                                                 :          
SP_NORM     .MV                                                 :SP Normalized
VSH_GR      .V/V                                                :Volume of Shale from GR
VSH_SP      .V/V                                                :Volume of Shale from SP
~A        DEPTH             GR        GR_NORM            ILD             SP        SP_NORM         VSH_GR         VSH_SP
# ...
      3616.5000        42.8604        72.8078         0.7436      -128.6221     -0.3643188      0.8469745              1
      3617.0000        42.7621       72.52884         0.7359      -128.4285     -0.1754456      0.8410391              1
      3617.5000        42.9006       72.91216         0.7258      -128.0151      0.2332153      0.8491948              1
      3618.0000        43.1011       73.46889         0.7151      -127.7223      0.5212936      0.8610402              1
      3618.5000        43.7897       75.39079         0.7032      -127.7576      0.4812469      0.9019318              1
      3619.0000        44.5433       77.49448         0.6915      -127.8922      0.3419189       0.946691              1
      3619.5000        45.1183       79.09868         0.6834      -128.0889      0.1404877      0.9808229              1
      3620.0000        45.4213       79.94205         0.6832      -128.2854    -0.06074524      0.9987671              1
      3620.5000        44.9496       78.61875         0.6832      -128.5989     -0.3789825      0.9706118              1
      3621.0000         43.814       75.43854         0.6846      -128.9683     -0.7531128      0.9029476              1
      3621.5000        41.5788       69.18288         0.6934      -129.3608       -1.15033      0.7698485              1
      3622.0000        40.0519       64.90828          0.704      -130.4177      -2.211975      0.6788996      0.9944217
      3622.5000        38.9565        61.8405         0.7247      -131.8557      -3.654709      0.6136276      0.9564551
      3623.0000        38.3273       60.07662         0.7685      -133.9065      -5.710236      0.5760983      0.9023622
      3623.5000        37.8523       58.74406         0.8422      -135.1016      -6.910065      0.5477459      0.8707878
      3624.0000        36.5121       54.99162          0.917      -135.4258      -7.238998      0.4679067      0.8621316
      3624.5000        35.7106       52.74589         0.9919      -134.4287      -6.246628      0.4201254      0.8882467
      3625.0000        35.8275       53.06879         1.0665      -133.6919      -5.514557      0.4269955      0.9075117
      3625.5000        35.9869       53.51056           1.14       -132.864      -4.691406       0.436395      0.9291735
      3626.0000        34.9473       50.59887         1.2183      -131.8884      -3.720535      0.3744439      0.9547228
      3626.5000         33.405       46.28118         1.2982      -131.0283      -2.865173      0.2825783      0.9772323
      3627.0000        33.3777       46.20076         1.3784      -130.2178      -2.059402      0.2808673      0.9984367
      3627.5000        34.7589       50.05979         1.4455      -129.9321      -1.778427      0.3629743              1
      3628.0000        35.9538       53.39778         1.4814      -130.1296      -1.980652      0.4339953              1
      3628.5000        36.8793       55.98226         1.4767      -130.4976      -2.353394      0.4889843      0.9907002
      3629.0000        36.7767       55.69123         1.4704      -130.9854      -2.845932      0.4827921      0.9777386
      3629.5000        36.6741       55.40025         1.4615      -131.5427      -3.407959      0.4766011      0.9629484
      3630.0000        36.5716       55.10952         1.4462      -132.1438      -4.013794      0.4704152      0.9470055
      3630.5000        37.0972       56.57553         1.4165       -132.821      -4.695724      0.5016071      0.9290599
      3631.0000        37.8102        58.5657         1.3534      -133.5481      -5.427551      0.5439512      0.9098013
      3631.5000        37.9081       58.83545         1.2852      -134.4265      -6.310684      0.5496904      0.8865609
      3632.0000        37.4219       57.47154         1.1985      -135.5217      -7.410614       0.520671      0.8576154
      3632.5000        36.5121       54.92287         1.0851      -136.7107       -8.60434      0.4664441      0.8262016
      3633.0000        35.6526       52.51492         0.9628      -138.0166      -9.914993       0.415211      0.7917107
      3633.5000        34.8827       50.35752         0.8614      -139.9998      -11.90292      0.3693089      0.7393968
      3634.0000        34.1258       48.23651         0.7732      -142.2239      -14.13176       0.324181      0.6807432
      3634.5000        33.3312       46.01007         0.6987      -143.4834      -15.39598      0.2768101      0.6474742
      3635.0000        33.6166       46.80427         0.6409      -144.2688      -16.18611      0.2937079      0.6266813
      3635.5000        34.1431       48.27279         0.6115      -145.0754      -16.99744       0.324953      0.6053306
      3636.0000        33.8425       47.42799         0.6058      -146.2275      -18.15427      0.3069786      0.5748878
      3636.5000         33.076       45.28014         0.6185      -147.2441      -19.17561      0.2612796      0.5480102
      3637.0000        32.0714       42.46633           0.64       -147.844      -19.78024      0.2014113      0.5320989
      3637.5000        30.6524       38.49349         0.6663      -148.3911      -20.33208      0.1168828      0.5175769
      3638.0000        30.0786       36.88458          0.696      -147.8416      -19.78731     0.08265069       0.531913
      3638.5000        31.4621       40.75006         0.7374      -145.2705      -17.22093      0.1648949      0.5994492
      3639.0000        33.3659       46.07074         0.7886      -141.0325      -12.98767      0.2781008      0.7108508
      3639.5000        35.5211       52.09455         0.8421      -138.6152       -10.5751       0.406267      0.7743394
      3640.0000        38.3757       60.07454         0.8987      -136.6965      -8.661148      0.5760539      0.8247066
      3640.5000        40.0477       64.74688         0.9493      -135.4146      -7.383972      0.6754655      0.8583165
      3641.0000        40.3548       65.60181         0.9902      -134.2834      -6.257507      0.6936554      0.8879603
      3641.5000         39.442       63.04474         1.0136      -133.9177       -5.89653      0.6392499      0.8974597
      3642.0000        37.8754       58.65907         1.0362       -134.137       -6.12056      0.5459377      0.8915642
      3642.5000         36.489       54.77741         1.0481      -134.4211      -6.409393      0.4633492      0.8839633
      3643.0000        35.5051       52.02154         1.0594       -134.627      -6.620026      0.4047136      0.8784204
      3643.5000        34.7615       49.93769         1.0644      -134.4265      -6.424271      0.3603763      0.8835718
      3644.0000         34.645       49.60783         1.0588      -134.2512        -6.2537      0.3533582      0.8880605
      3644.5000        35.4304       51.80047         1.0283      -134.2085      -6.215729        0.40001      0.8890598
      3645.0000        36.3135       54.26636         0.9865      -134.1951      -6.207062      0.4524757      0.8892878
      3645.5000        37.0551       56.33648          0.933      -134.3054      -6.322098      0.4965208      0.8862606
      3646.0000        37.7604       58.30513         0.8861      -134.7905       -6.81192       0.538407      0.8733705
      3646.5000        38.3947       60.07512         0.8451      -135.4175      -7.443657      0.5760664      0.8567459
      3647.0000        38.9073       61.50476         0.8135      -135.8628      -7.893684      0.6064843      0.8449031
      3647.5000        39.4138       62.91737         0.7926      -136.1021      -8.137718      0.6365397      0.8384811
      3648.0000        39.9034       64.28268         0.7849      -136.3372      -8.377563      0.6655889      0.8321694
      3648.5000        39.4695       63.06507         0.7809      -136.6169      -8.661987      0.6396825      0.8246846
      3649.0000         38.512       60.38297         0.7837      -137.2349      -9.284714      0.5826164       0.808297
      3649.5000        37.4753       57.47937         0.7871        -138.78      -10.83455      0.5208377      0.7675118
