#------------------------------------------------------------------------------
# Created by    : vladimir.rabinovich
# Created on    : 09/19/2023 17:20:46
#------------------------------------------------------------------------------
~Version Information Section
VERS.           2.0     :   CWLS log ASCII Standard - VERSION 2.0
WRAP.           NO      :   One line per depth step
~Well Information Section
#MNEM       .UNIT                                         VALUE :DESCRIPTION
#------------------------------------------------------------------------------
STRT        .FT                                             695 :START DEPTH
STOP        .FT                                            9139 :STOP DEPTH
STEP        .FT                                             0.5 :STEP      
NULL        .                                           -999.25 :NULL      
COMP        .                   COASTAL STATES GAS TRANSMISSION :COMPANY   
WELL        .                                     ST TR 00592-L :WELL      
FLD         .                                           WILDCAT :FIELD     
LOC         .                                                   :LOCATION  
CNTY        .                      MATAGORDA ISLAND LARGE BLOCK :LOCATION  
STAT        .                                             TEXAS :STATE     
CTRY        .                                     UNITED STATES :COUNTRY   
SRVC        .                                                   :SERVICE COMPANY
DATE        .                             9/13/2023 11:12:01 AM :LOG DATE  
API         .                                    42703000420000 :API NUMBER
UWI         .                                    42703000420000 :UNIQUE WELL ID
XCOORD      .                                  562172.631053371 :SURFACE X 
YCOORD      .                                   10240692.584136 :SURFACE Y 
LAT         .                                        28.1787665 :LATITUDE  
LON         .                                       -96.3469802 :LONGITUDE 
ELEV        .FT                                              11 :ELEVATION VALUE
ELEV_TYPE   .                                                KB :ELEVATION REFERENCE TYPE
~Curve Information Section
#MNEM       .UNIT                                      API CODE :CURVE DESCRIPTION
#------------------------------------------------------------------------------
DEPT        .FT                                                 :DEPTH     
ASN         .OHMM                                               :          
CALI        .IN                                                 :          
CILD        .MMHO                                               :          
DT          .US/F                                               :          
ILD         .OHMM                                               :          
SP          .MV                                                 :          
SP_NORM     .MV                                                 :SP Normalized
VSH_SP      .V/V                                                :Volume of Shale from SP
~A        DEPTH            ASN           CALI           CILD             DT            ILD             SP        SP_NORM         VSH_SP
# ...
      6860.5000         1.0885        10.0273       911.5928       105.8444         0.7189       -45.8151      -1.548164      0.9907091
      6861.0000         1.0918          9.887       923.0693       106.4253         0.7411       -45.5492      -1.277996      0.9952882
      6861.5000         1.0872         9.7469       934.5469        106.037         0.7633       -45.2833      -1.007832      0.9998673
      6862.0000         1.0842          9.607       946.0234       105.4524         0.7701       -45.0262     -0.7464638              1
      6862.5000         1.0817         9.4815       963.8486       104.7395         0.7741       -44.7809     -0.4968987              1
      6863.0000         1.0793         9.4135       984.0371       105.1383         0.7781       -44.5355     -0.2472343              1
      6863.5000         1.0768         9.5933       1002.114       106.1627         0.7814       -44.2902     0.00233078              1
      6864.0000         1.0744          9.763       1018.531       107.0292         0.7737       -44.0449      0.2518997              1
      6864.5000         1.0699         9.9255       1034.949       107.5502          0.766       -43.8141      0.4869652              1
      6865.0000         1.0654         9.9363       1047.594       107.4633         0.7582       -43.6321      0.6732292              1
      6865.5000         1.0533         9.8479       1059.373       108.1643         0.7505       -43.4502      0.8593979              1
      6866.0000         1.0392         9.7595       1071.164        109.403         0.7432       -43.2682       1.045387              1
      6866.5000         1.0251         9.6723       1080.906       110.6304         0.7361       -43.0864       1.230984              1
      6867.0000          1.011         9.7458       1089.594       111.4009          0.729       -42.9056       1.415577              1
      6867.5000         0.9982          9.967       1098.268       110.6824         0.7219       -42.7271        1.59787              1
      6868.0000         0.9888        10.1318       1101.371       109.3137         0.7147       -42.5485       1.780266              1
      6868.5000         0.9932        10.2952         1090.6        108.142         0.7194       -42.3699       1.962662              1
      6869.0000         1.0034        10.4042       1079.813       108.0548         0.7254       -42.1906       2.145752              1
      6869.5000         1.0216        10.4326       1029.342       107.9475         0.7406       -42.0102       2.329948              1
      6870.0000         1.0484        10.4471       966.4385       107.0062         0.7767       -41.8679       2.476044              1
      6870.5000         1.0752        10.5138       923.7988       103.9034         0.8139       -41.8428       2.504936              1
      6871.0000         1.1023        10.6051       876.7842       100.3362          0.854       -41.8177       2.533833              1
      6871.5000         1.1298        10.6989       842.8936        98.0869         0.8941       -42.1034       2.251926              1
      6872.0000         1.1573        10.7751       823.7109        92.7806         0.9387       -42.7999       1.559223              1
      6872.5000         1.1875        10.5646       832.2969        90.4323          0.947       -43.9521      0.4108162              1
      6873.0000         1.2154        10.6631       871.7559        91.6387         0.9056       -45.1057     -0.7389908              1
      6873.5000         1.2343        10.4165       1008.425        94.2869         0.8475       -46.2213      -1.850792      0.9855798
      6874.0000         1.2003         10.023       1219.209        96.5164         0.7893       -47.3254      -2.951103      0.9669304
      6874.5000         1.1466         9.7748       1429.793       101.6343         0.7226       -48.4296      -4.051506      0.9482796
      6875.0000          1.093         9.6098       1640.377       104.8151         0.6391       -49.5337       -5.15181      0.9296303
      6875.5000         1.0433          9.481       1938.855       107.6094         0.5617       -51.2634       -6.87772      0.9003776
      6876.0000         0.9936          9.409       2182.984       109.2964         0.5099       -53.6541      -9.264622      0.8599217
      6876.5000         0.9173         9.3553       2581.625       110.0706          0.458       -56.0472      -11.65393       0.819425
      6877.0000         0.8534            9.3       2968.699       110.8063         0.4261        -58.876      -14.47893      0.7715436
      6877.5000         0.8105         9.2419       3006.664       110.9316         0.3984       -63.6877      -19.28684      0.6900536
      6878.0000         0.7834         9.2117       3043.621       110.8047         0.3707       -72.8756      -28.47095      0.5343907
      6878.5000         0.7668         9.2028       3081.734       110.5814         0.3525       -85.4974      -41.08895      0.3205263
      6879.0000         0.7631         9.2047       3122.566       110.2966         0.3358       -94.7562      -50.34396      0.1636617
      6879.5000         0.7726         9.2337       3084.852       109.2271         0.3237       -96.4998      -52.08376      0.1341735
      6880.0000         0.7821         9.2626       2740.516       107.4062         0.3122       -96.6748      -52.25496      0.1312718
      6880.5000         0.7915         9.2937        2396.18       105.8853          0.355       -96.5918      -52.16817      0.1327429
      6881.0000         0.8012          9.339       1909.893       104.8535         0.4229       -96.5087      -52.08128      0.1342157
      6881.5000         0.8264         9.3842       1938.855       105.4393         0.4708       -95.0892      -50.65799      0.1583392
      6882.0000         0.8517         9.4295       1877.309       106.1738         0.5084       -93.6229      -49.18789      0.1832561
      6882.5000         0.8769         9.4748       1737.322       106.1541          0.546       -88.9467       -44.5079       0.262578
      6883.0000         0.9096         9.5633       1524.123       101.8821         0.5955       -78.8724       -34.4298      0.4333932
      6883.5000         0.9428         9.6519       1237.311        99.3875         0.6604       -70.8445       -26.3981      0.5695237
      6884.0000          0.974         9.7804       1135.791        98.1005         0.6974       -69.1469      -24.69671      0.5983609
      6884.5000         1.0024         9.9224        1073.49       102.0157         0.7282       -68.7872      -24.33322      0.6045218
      6885.0000         1.0435        10.1163       1021.951       106.0735         0.7567       -68.4272      -23.96942      0.6106878
      6885.5000         1.0809        10.3835       993.2393       108.7291         0.7767       -68.0676      -23.60602      0.6168471
      6886.0000         1.0842        10.5267       973.4785       110.5028         0.7967       -67.6295      -23.16413      0.6243367
      6886.5000         1.0669        10.4714       957.9658       111.1692         0.8098       -66.8546      -22.38544       0.637535
      6887.0000         1.0497        10.3874       988.5635       109.2593         0.8129       -66.0796      -21.60664      0.6507349
      6887.5000         1.0339        10.3208        1019.16       106.5319         0.8158       -65.3047      -20.82795       0.663933
      6888.0000         1.0194        10.3131       1044.955       107.6813         0.8081       -64.2576      -19.77705      0.6817449
      6888.5000         1.0048        10.3109       1069.115       109.4302         0.8004       -62.9812      -18.49686      0.7034431
      6889.0000         0.9902        10.3129       1093.252       110.3926         0.7803       -61.7061      -17.21797      0.7251192
      6889.5000         0.9777        10.2215       1112.434       109.9418         0.7577       -59.3141      -14.82217      0.7657259
