#------------------------------------------------------------------------------
# Created by    : vladimir.rabinovich
# Created on    : 09/19/2023 17:22:56
#------------------------------------------------------------------------------
~Version Information Section
VERS.           2.0     :   CWLS log ASCII Standard - VERSION 2.0
WRAP.           NO      :   One line per depth step
~Well Information Section
#MNEM       .UNIT                                         VALUE :DESCRIPTION
#------------------------------------------------------------------------------
STRT        .FT                                             513 :START DEPTH
STOP        .FT                                           16000 :STOP DEPTH
STEP        .FT                                             0.5 :STEP      
NULL        .                                           -999.25 :NULL      
COMP        .              PENNZOIL EXPLORATION & PRODUCTION CO :COMPANY   
WELL        .                                ST TR 00486-L SE/4 :WELL      
FLD         .                                           WILDCAT :FIELD     
LOC         .                                                   :LOCATION  
CNTY        .                      MATAGORDA ISLAND LARGE BLOCK :LOCATION  
STAT        .                                             TEXAS :STATE     
CTRY        .                                     UNITED STATES :COUNTRY   
SRVC        .                                                   :SERVICE COMPANY
DATE        .                             9/13/2023 11:19:05 AM :LOG DATE  
API         .                                    42703302080000 :API NUMBER
UWI         .                                    42703302080000 :UNIQUE WELL ID
XCOORD      .                                  648049.134083277 :SURFACE X 
YCOORD      .                                  10318924.3450998 :SURFACE Y 
LAT         .                                        28.3999658 :LATITUDE  
LON         .                                       -96.0869402 :LONGITUDE 
ELEV        .FT                                              47 :ELEVATION VALUE
ELEV_TYPE   .                                                KB :ELEVATION REFERENCE TYPE
~Curve Information Section
#MNEM       .UNIT                                      API CODE :CURVE DESCRIPTION
#------------------------------------------------------------------------------
DEPT        .FT                                                 :DEPTH     
SFL         .OHMM                                               :          
SP          .MV                                                 :          
SP_NORM     .MV                                                 :SP Normalized
VSH_SP      .V/V                                                :Volume of Shale from SP
~A        DEPTH            SFL             SP        SP_NORM         VSH_SP
# ...
      5654.0000         1.4295      -140.6809      -77.82185              0
      5654.5000         1.2396      -140.8904       -78.0215              0
      5655.0000         1.1874      -140.5352      -77.65645              0
      5655.5000         1.2314      -140.1553      -77.26669              0
      5656.0000         1.4165      -139.6755      -76.77704              0
      5656.5000         1.6344       -139.085      -76.17669              0
      5657.0000         1.5422      -137.8972      -74.97903              0
      5657.5000         1.2737      -134.5005      -71.57248              0
      5658.0000         1.0224      -129.3682      -66.43031     0.05173459
      5658.5000         0.8281      -121.3665      -58.41877       0.167844
      5659.0000          0.734       -112.942      -49.98441       0.290081
      5659.5000         0.6942      -108.8018      -45.83436      0.3502266
      5660.0000         0.7906      -110.8546       -47.8773      0.3206188
      5660.5000         1.0436      -113.7687      -50.78155      0.2785282
      5661.0000         1.3008      -117.9398      -54.94279      0.2182204
      5661.5000         1.6622      -119.9729      -56.96604       0.188898
      5662.0000         1.9866      -122.8702      -59.85349      0.1470509
      5662.5000         2.5166      -126.0126      -62.98604      0.1016516
      5663.0000         4.3292      -128.5937      -65.55728     0.06438722
      5663.5000         5.0168      -130.6138      -67.56752     0.03525333
      5664.0000         4.7751      -132.3916      -69.33547    0.009630839
      5664.5000         2.1633      -133.5911      -70.52512              0
      5665.0000          1.376      -133.4006      -70.32477              0
      5665.5000         0.9755         -130.7       -67.6143     0.03457531
      5666.0000         0.8552      -125.1147      -62.01915      0.1156644
      5666.5000         0.7586      -118.9348       -55.8294       0.205371
      5667.0000         0.7621      -110.0989      -46.98365      0.3335703
      5667.5000         1.0098      -105.4771      -42.35199      0.4006958
      5668.0000         1.5696      -105.6959      -42.56094      0.3976675
      5668.5000         2.4356      -105.7244      -42.57959      0.3973973
      5669.0000         2.2676      -104.9421      -41.78743      0.4088778
      5669.5000         1.4556      -103.5486      -40.38408      0.4292163
      5670.0000         1.0578       -102.339      -39.16462      0.4468896
      5670.5000         0.9687      -103.2681      -40.08386      0.4335672
      5671.0000           1.64      -106.4479      -43.25381      0.3876259
      5671.5000         2.7994      -108.5409      -45.33696      0.3574354
      5672.0000         4.1057      -109.8309      -46.61711      0.3388825
      5672.5000         4.7177      -110.3481      -47.12445      0.3315297
      5673.0000         3.3717      -110.2148      -46.98129      0.3336045
      5673.5000         1.8939      -108.9617      -45.71834      0.3519081
      5674.0000         1.3026      -104.1659      -40.91269      0.4215552
      5674.5000         0.9619       -96.4222      -33.15914      0.5339255
      5675.0000          0.914       -88.1288      -24.85588      0.6542626
      5675.5000         1.0783       -86.6473      -23.36452      0.6758764
      5676.0000         1.3339       -87.0874      -23.79477       0.669641
      5676.5000         1.8393       -88.2859      -24.98341      0.6524143
      5677.0000         1.9497        -91.806      -28.49366      0.6015411
      5677.5000         1.8236       -94.7913      -31.46911      0.5584187
      5678.0000         1.4726       -96.4307      -33.09866      0.5348021
      5678.5000         1.2517       -97.0077       -33.6658      0.5265827
      5679.0000          1.037       -97.1761      -33.82435      0.5242848
      5679.5000         0.8662       -98.5321      -35.17049      0.5047755
      5680.0000         0.7915       -101.536      -38.16454      0.4613834
      5680.5000         0.9906       -104.641      -41.25968      0.4165263
      5681.0000         1.4673      -105.9895      -42.59833      0.3971256
      5681.5000         1.7896      -104.6129      -41.21188      0.4172192
      5682.0000         2.6536      -102.3422      -38.93132      0.4502707
      5682.5000         2.9552       -98.6519      -35.23117      0.5038961
      5683.0000         2.1407        -93.048      -29.61741       0.585255
      5683.5000         1.2898       -79.0198      -15.57936       0.788705
      5684.0000         0.8289       -71.3883      -7.938004      0.8994492
      5684.5000          0.686       -68.3523      -4.892155       0.943592
      5685.0000         0.6562        -68.839      -5.368992      0.9366813
      5685.5000         0.7218       -71.0648      -7.584938      0.9045661
      5686.0000         0.8249       -73.8761      -10.38639      0.8639654
      5686.5000         1.0131       -77.1643      -13.66473      0.8164532
      5687.0000         1.1902       -82.0947      -18.58529      0.7451408
      5687.5000         1.3265       -84.6685      -21.14923      0.7079822
      5688.0000          1.335        -87.014      -23.48487      0.6741323
      5688.5000         1.2833       -89.1893      -25.65032       0.642749
      5689.0000         1.2831       -91.6545      -28.10567      0.6071643
      5689.5000         1.3167       -94.0674      -30.50871      0.5723376
      5690.0000         1.4455       -93.3866      -29.81805      0.5823471
      5690.5000         1.5604       -92.5757       -28.9973       0.594242
      5691.0000         1.6339       -90.0852      -26.49694       0.630479
      5691.5000         1.6548       -84.9752      -21.37709      0.7046798
      5692.0000         1.4622        -78.915      -15.30704      0.7926516
      5692.5000         1.1464       -74.9048      -11.28698      0.8509133
      5693.0000         0.9921       -71.7325      -8.104828      0.8970315
      5693.5000          0.933       -69.5441      -5.906574      0.9288902
      5694.0000         0.9793       -68.0449      -4.397522      0.9507605
      5694.5000         1.1412       -66.9031      -3.245869      0.9674512
      5695.0000         1.3411       -66.0922      -2.425114      0.9793462
      5695.5000          1.472        -65.532      -1.855057      0.9876079
      5696.0000         1.3068       -65.0341      -1.347309      0.9949665
      5696.5000         0.9918         -64.64     -0.9433517              1
      5697.0000         0.8852       -64.7346      -1.028095      0.9995928
      5697.5000         0.8556        -65.114       -1.39764      0.9942371
      5698.0000         0.8222       -65.8668      -2.140587      0.9834698
      5698.5000         0.7847       -67.0929      -3.356838      0.9658429
      5699.0000         0.7712       -69.6975      -5.951584      0.9282379
      5699.5000         0.9696       -73.0231      -9.267326      0.8801837
      5700.0000         1.2069       -79.2441      -15.47847       0.790167
      5700.5000         1.4334       -87.3469      -23.57142       0.672878
      5701.0000         1.4402       -95.0157      -31.23037      0.5618787
      5701.5000         1.2146       -98.9436      -35.14841      0.5050954
      5702.0000              1      -101.2816      -37.47655      0.4713543
      5702.5000          0.855      -100.2866       -36.4717      0.4859174
      5703.0000         0.8441       -93.6914      -29.86665      0.5816428
      5703.5000         1.0405       -85.2894      -21.45479      0.7035537
      5704.0000         1.2772       -80.7106      -16.86614      0.7700559
      5704.5000         1.4529       -77.6711      -13.81678      0.8142496
      5705.0000         1.3874        -75.161      -11.29683      0.8507705
      5705.5000          1.167       -73.0605      -9.186478      0.8813554
      5706.0000         1.0243       -71.2911      -7.407223      0.9071417
      5706.5000         0.9848       -69.1345      -5.240768      0.9385396
