#------------------------------------------------------------------------------
# Created by    : vladimir.rabinovich
# Created on    : 09/19/2023 17:20:09
#------------------------------------------------------------------------------
~Version Information Section
VERS.           2.0     :   CWLS log ASCII Standard - VERSION 2.0
WRAP.           NO      :   One line per depth step
~Well Information Section
#MNEM       .UNIT                                         VALUE :DESCRIPTION
#------------------------------------------------------------------------------
STRT        .FT                                            1853 :START DEPTH
STOP        .FT                                            6238 :STOP DEPTH
STEP        .FT                                             0.5 :STEP      
NULL        .                                           -999.25 :NULL      
COMP        .               LOUISIANA LAND & EXPLORATION CO THE :COMPANY   
WELL        .                                          SL 79258 :WELL      
FLD         .                                           WILDCAT :FIELD     
LOC         .                                                   :LOCATION  
CNTY        .                      MATAGORDA ISLAND LARGE BLOCK :LOCATION  
STAT        .                                             TEXAS :STATE     
CTRY        .                                     UNITED STATES :COUNTRY   
SRVC        .                                                   :SERVICE COMPANY
DATE        .                             9/13/2023 11:12:01 AM :LOG DATE  
API         .                                    42703301870000 :API NUMBER
UWI         .                                    42703301870000 :UNIQUE WELL ID
XCOORD      .                                  470651.272343367 :SURFACE X 
YCOORD      .                                  10209272.4173218 :SURFACE Y 
LAT         .                                        28.0852496 :LATITUDE  
LON         .                                       -96.6277134 :LONGITUDE 
ELEV        .FT                                              82 :ELEVATION VALUE
ELEV_TYPE   .                                                KB :ELEVATION REFERENCE TYPE
~Curve Information Section
#MNEM       .UNIT                                      API CODE :CURVE DESCRIPTION
#------------------------------------------------------------------------------
DEPT        .FT                                                 :DEPTH     
ASFL        .OHMM                                               :          
CILD        .MMHO                                               :          
ILD         .OHMM                                               :          
SP          .MV                                                 :          
SP_NORM     .MV                                                 :SP Normalized
VSH_SP      .V/V                                                :Volume of Shale from SP
~A        DEPTH           ASFL           CILD            ILD             SP        SP_NORM         VSH_SP
# ...
      5311.0000         1.3073        824.082          1.314       -48.6953       -2.27137      0.9772969
      5311.5000         1.3271       812.2266         1.3421       -48.1393      -1.706409      0.9873856
      5312.0000          1.347       800.3701         1.3722       -47.5536      -1.111748      0.9980045
      5312.5000         1.3668       787.5068         1.4016       -46.8762     -0.4253845              1
      5313.0000         1.4092        773.084         1.3691       -46.1982      0.2615776              1
      5313.5000         1.4544       758.6602         1.3367       -45.6151      0.8536377              1
      5314.0000         1.5068        744.249         1.3042       -45.3386       1.139099              1
      5314.5000         1.5111       729.8252         1.2716       -45.0621       1.424561              1
      5315.0000         1.3937       724.5918         1.2108       -44.7856       1.710026              1
      5315.5000         1.3453       742.8477         1.1499       -44.5309       1.973686              1
      5316.0000          1.254       762.8984         1.0893       -44.3928       2.120747              1
      5316.5000          1.159       789.7559         1.0296       -44.2546       2.267906              1
      5317.0000         1.0616       816.6367          0.977       -44.1165       2.414967              1
      5317.5000         1.0398       843.5186         0.9566       -43.9495       2.590927              1
      5318.0000         1.0505        865.793         0.9845       -43.7581       2.791294              1
      5318.5000         1.0921       883.7793         1.0225       -43.6696       2.888752              1
      5319.0000         1.1337       901.7529         1.0606       -44.3403       2.227013              1
      5319.5000         1.2084       919.7393         1.0986       -45.0115       1.564774              1
      5320.0000         1.3016       883.4961         1.2414       -45.7266      0.8586349              1
      5320.5000         1.4122       831.8955         1.3979       -46.4447      0.1495018              1
      5321.0000         1.5841       780.2949         1.5235       -47.2072     -0.6040382              1
      5321.5000         1.7499       728.7441          1.652       -48.0363      -1.424179      0.9924254
      5322.0000         2.0757       685.9404         1.7921       -47.4335     -0.8124161              1
      5322.5000          2.094       644.2178         1.9624       -46.7693     -0.1392555              1
      5323.0000          2.081       601.0693          1.866       -46.3652      0.2738075              1
      5323.5000         2.0591       520.1797         1.7945       -46.2735      0.3744698              1
      5324.0000         1.8826       529.5166         1.7231       -46.4162      0.2407303              1
      5324.5000         1.7489       552.3926         1.6516       -46.5589      0.1069908              1
      5325.0000         1.5313       575.2695         1.5921       -46.7016    -0.02674866              1
      5325.5000         1.4061       597.1133         1.5345       -46.8736      -0.189785              1
      5326.0000         1.3832       618.3682         1.4769       -47.1128     -0.4200249              1
      5326.5000         1.4169       639.6221         1.4168       -47.3519     -0.6501617              1
      5327.0000         1.4486        660.877         1.3542       -47.5911     -0.8830795              1
      5327.5000         1.4766       687.3652         1.2917       -47.8548      -1.143658      0.9974347
      5328.0000         1.5046        715.918         1.2308       -48.1808      -1.466537       0.991669
      5328.5000         1.2867       744.4697          1.177        -48.507      -1.789616      0.9858997
      5329.0000         1.1077       863.9863         1.1232       -48.8333      -2.112793      0.9801287
      5329.5000         1.0448       916.0781         1.0695       -49.4516       -2.72797      0.9691434
      5330.0000         1.0386       963.2559         1.0212       -50.5285       -3.80175      0.9499688
      5330.5000         1.0985       1005.323         0.9795       -52.0227      -5.292828      0.9233423
      5331.0000         1.1497       1047.389         0.9378       -72.5901      -25.85711      0.5561231
      5331.5000         1.1929       1093.387         0.8962       -81.2914      -34.55528      0.4007985
      5332.0000          1.241       1143.809         0.8545       -81.7975      -35.05826      0.3918168
      5332.5000         1.3078         1195.9          0.817       -82.4509      -35.70854      0.3802047
      5333.0000         1.3458        1248.68         0.7798        -84.985      -38.23952      0.3350086
      5333.5000         1.3743       1324.559         0.7426       -87.6504      -40.90179       0.287468
      5334.0000          1.291       1439.652         0.7054       -90.4957      -43.74397      0.2367148
      5334.5000         1.2458       1511.008         0.6712        -92.276      -45.52116      0.2049793
      5335.0000         1.2168         1563.1         0.6422       -93.2745      -46.51653      0.1872048
      5335.5000         1.1821       1636.324         0.6133       -94.2744      -47.51331      0.1694052
      5336.0000         1.1475       1709.252         0.5843        -95.167      -48.40279      0.1535216
      5336.5000         1.1128       1781.297         0.5553       -96.0398      -49.27247      0.1379916
      5337.0000         1.0657       1832.848         0.5264       -97.0963      -50.32584      0.1191814
      5337.5000         1.0242       1884.398          0.501       -98.5807      -51.80713     0.09272984
      5338.0000         0.9347       1949.121         0.4879      -100.2142       -53.4375       0.063616
      5338.5000         0.8999       2022.936         0.4747       -101.579      -54.79918      0.0393003
      5339.0000         0.8689       2068.242         0.4616      -102.6343      -55.85136     0.02051142
      5339.5000         0.8459       2111.344         0.4484      -103.2556      -56.46954    0.009472574
      5340.0000         0.8335       2154.293         0.4353      -103.0038      -56.21461     0.01402473
      5340.5000         0.8211       2197.047         0.4215      -102.7523      -55.95999     0.01857158
      5341.0000         0.8063       2249.535          0.405      -102.5005      -55.70507     0.02312367
      5341.5000          0.738       2351.926         0.3886      -102.2487      -55.45015     0.02767583
      5342.0000         0.7029       2418.539         0.3721       -101.999      -55.19733     0.03219053
      5342.5000         0.6787       2488.469         0.3556      -101.7506      -54.94581     0.03668199
      5343.0000         0.6582       2814.586         0.3406      -101.9857      -55.17779     0.03253951
      5343.5000         0.6402       2973.121         0.3341      -102.6632      -55.85217     0.02049705
      5344.0000         0.6295        3079.27         0.3276      -103.5287      -56.71454    0.005097457
      5344.5000         0.6187       3176.574         0.3211      -103.9532      -57.13592              0
      5345.0000         0.6076       3265.426         0.3145      -104.0502       -57.2298              0
      5345.5000         0.5963       3413.543         0.3071      -103.5101      -56.68658    0.005596842
      5346.0000         0.5847       3608.152         0.2994      -102.9702      -56.14355     0.01529367
      5346.5000         0.5834        3713.27         0.2918      -102.2557      -55.42593     0.02810832
      5347.0000         0.5822        3758.68         0.2894      -101.5054      -54.67251     0.04156229
      5347.5000         0.5809       3679.508         0.2892       -101.403      -54.56699     0.04344661
      5348.0000         0.5935       3599.406         0.3145      -101.3007      -54.46157     0.04532916
      5348.5000         0.6182       3503.379         0.3625      -100.5112      -53.66895     0.05948312
