#------------------------------------------------------------------------------
# Created by    : vladimir.rabinovich
# Created on    : 09/19/2023 17:19:49
#------------------------------------------------------------------------------
~Version Information Section
VERS.           2.0     :   CWLS log ASCII Standard - VERSION 2.0
WRAP.           NO      :   One line per depth step
~Well Information Section
#MNEM       .UNIT                                         VALUE :DESCRIPTION
#------------------------------------------------------------------------------
STRT        .FT                                            1295 :START DEPTH
STOP        .FT                                            4592 :STOP DEPTH
STEP        .FT                                             0.5 :STEP      
NULL        .                                           -999.25 :NULL      
COMP        .                     FREEPORT-MCMORAN OIL & GAS CO :COMPANY   
WELL        .                                     ST TR 00662-L :WELL      
FLD         .                                         SIX-SIXTY :FIELD     
LOC         .                                                   :LOCATION  
CNTY        .                      MATAGORDA ISLAND LARGE BLOCK :LOCATION  
STAT        .                                             TEXAS :STATE     
CTRY        .                                     UNITED STATES :COUNTRY   
SRVC        .                                                   :SERVICE COMPANY
DATE        .                             9/13/2023 11:19:13 AM :LOG DATE  
API         .                                    42703300650000 :API NUMBER
UWI         .                                    42703300650000 :UNIQUE WELL ID
XCOORD      .                                  434889.841251994 :SURFACE X 
YCOORD      .                                  10179416.4588751 :SURFACE Y 
LAT         .                                        28.0002971 :LATITUDE  
LON         .                                       -96.7355909 :LONGITUDE 
ELEV        .FT                                              77 :ELEVATION VALUE
ELEV_TYPE   .                                                KB :ELEVATION REFERENCE TYPE
~Curve Information Section
#MNEM       .UNIT                                      API CODE :CURVE DESCRIPTION
#------------------------------------------------------------------------------
DEPT        .FT                                                 :DEPTH     
ASFL        .OHMM                                               :          
CILD        .MMHO                                               :          
ILD         .OHMM                                               :          
SFL         .OHMM                                               :          
SP          .MV                                                 :          
SP_NORM     .MV                                                 :SP Normalized
VSH_SP      .V/V                                                :Volume of Shale from SP
~A        DEPTH           ASFL           CILD            ILD            SFL             SP        SP_NORM         VSH_SP
# ...
      3908.0000         1.7957       567.4375         2.0121         1.8723       -26.6258     -0.6169682              1
      3908.5000         1.6319       651.7275         1.6564         1.5984       -25.8288      0.1895218              1
      3909.0000         1.4679       726.0693         1.4707         1.4331       -25.0195       1.008312              1
      3909.5000         1.1545       840.3535         1.2436         1.2609       -24.1978       1.839504              1
      3910.0000         1.0885       906.4785         1.0391         1.0954       -23.3089       2.737894              1
      3910.5000         1.0633       970.6738         0.9349         0.9426       -22.8759       3.180386              1
      3911.0000         1.1019        1031.85         0.9494         0.9015       -30.8272      -4.761423      0.9232363
      3911.5000         1.2484       1100.498         1.0382         1.0455       -31.9302      -5.854933      0.9009197
      3912.0000         1.4574       1159.199         1.1134         1.2869       -33.0443      -6.959541      0.8783767
      3912.5000         1.6663         766.21         1.1846         1.6347       -33.8323      -7.738049      0.8624888
      3913.0000         1.8753        700.332         1.2524         1.9256       -33.3887      -7.284958      0.8717356
      3913.5000         1.9352       661.3301         1.3202         2.1491       -32.9453      -6.832069      0.8809782
      3914.0000         2.1967       631.3857         1.3861         2.2826        -32.453      -6.330276      0.8912188
      3914.5000         2.3069       606.1055         1.4513         2.1992       -31.8238      -5.691586      0.9042534
      3915.0000         2.2698       587.7559         1.5138         1.7674       -32.7444      -6.602695      0.8856593
      3915.5000         1.6734        569.999         1.5665         1.5867       -34.0942      -7.943005      0.8583061
      3916.0000         1.4998       631.4844         1.5894         1.4612        -36.078      -9.917313       0.818014
      3916.5000         1.4215       778.8809         1.5219         1.3498       -38.7101      -12.53992      0.7644914
      3917.0000         1.3525       884.6016         1.4072         1.2776       -37.8885      -11.70883      0.7814524
      3917.5000         1.2577       963.7939          1.249          1.207       -37.1476      -10.95844      0.7967666
      3918.0000         1.2188       1019.871         1.1742         1.1363       -36.4234      -10.22475      0.8117398
      3918.5000         1.1975       1067.436         1.0957         1.0536       -35.6992      -9.491058      0.8267131
      3919.0000         1.1503       1098.988         1.0167         0.9708        -34.864      -8.646366      0.8439517
      3919.5000         1.1131       1130.541         0.9433         0.9165       -33.9467      -7.719578      0.8628657
      3920.0000         1.1132       1132.156         0.8988         0.8723       -33.0042      -6.767586      0.8822942
      3920.5000         1.1383       1120.186         0.8904         0.8366       -33.2793      -7.033195      0.8768736
      3921.0000         1.1832       1106.252         0.8853         0.8484       -33.7382      -7.482605      0.8677019
      3921.5000         1.2292       1082.383         0.9036         0.8736       -33.6087      -7.343615      0.8705385
      3922.0000         1.2509       1058.514         0.9218         0.9036       -32.5224      -6.247824      0.8929015
      3922.5000         1.2591       1034.695         0.9401         0.9335       -31.3282      -5.044132      0.9174667
      3923.0000          1.114       1012.113         0.9637         0.9667       -30.1049      -3.811342      0.9426256
      3923.5000         1.0804       987.3535         0.9905         1.0016       -29.6395      -3.336451      0.9523174
      3924.0000         1.0411       957.1611         1.0173         1.0514       -30.2036       -3.89106      0.9409988
      3924.5000         1.0096       926.9443         1.0654         1.1012       -30.3479      -4.025869      0.9382476
      3925.0000         1.0513       871.4365         1.1349         1.1687       -29.2913      -2.959778      0.9600045
      3925.5000         1.4077       780.7617         1.2113           1.24       -27.7713      -1.430286      0.9912186
      3926.0000         1.5924       718.2988         1.2905         1.3234       -26.5573     -0.2067966              1
      3926.5000         1.7021       665.6113         1.3696         1.4486       -25.1416       1.218395              1
      3927.0000         1.8631       616.1406          1.575         1.6213       -24.4742       1.895287              1
      3927.5000         1.9447       571.5703         1.8708         1.8599       -26.2785      0.1004772              1
      3928.0000         2.0799        531.084         2.1315         2.0851       -27.8644      -1.475933      0.9902871
      3928.5000         2.0872       493.7896         2.2073         2.1994       -28.5917      -2.193741      0.9756379
      3929.0000         2.1532       459.1924         2.2422          2.276       -29.3184       -2.91095       0.961001
      3929.5000         2.2192       433.0469         2.2407         2.3258       -30.0488      -3.631859      0.9462886
      3930.0000          2.278       412.2466         2.2372         2.3128       -30.7853      -4.358868      0.9314517
      3930.5000         2.3203       398.0601         2.2193         2.2834       -30.9864      -4.550478      0.9275413
      3931.0000         2.2861       405.5337         2.1981         2.2563       -29.3135      -2.868086      0.9618758
      3931.5000         2.2519       415.6494          2.177         2.2291       -28.3629      -1.907995      0.9814695
      3932.0000         2.2177       424.7749         2.1558          2.202       -27.5788      -1.114405      0.9976652
      3932.5000         2.2024       432.3604         2.1377         2.1748       -27.0644     -0.5905132              1
      3933.0000         2.1874       439.9453          2.125         2.1685       -25.5031       0.980278              1
      3933.5000         2.1723       447.5366         2.1123         2.1627       -26.4302     0.06266785              1
      3934.0000          2.185       455.1216         2.0996         2.1569        -27.585       -1.08264      0.9983135
      3934.5000         2.2021       462.3232         2.0968         2.1608       -28.7854       -2.27355      0.9740092
      3935.0000         2.2192         468.04         2.0983         2.1691       -29.8286      -3.307259      0.9529131
      3935.5000         2.2357       475.3652         2.0999         2.1775       -30.5287      -3.997868      0.9388191
      3936.0000         2.2484       486.7554         2.0834         2.1687       -31.2288      -4.688477       0.924725
      3936.5000         2.2344       498.1392         2.0619         2.1547        -31.966      -5.416185      0.9098738
      3937.0000         2.1989       510.9395         2.0404         2.1359       -32.7994      -6.240095      0.8930593
      3937.5000         2.1403       524.1299         1.9978         2.1031       -33.5414      -6.972605      0.8781101
      3938.0000         2.0874       537.3076         1.9342         2.0702        -34.215      -7.636713      0.8645568
      3938.5000         2.0416        550.498         1.8616         2.0373       -34.9843      -8.396523      0.8490506
      3939.0000         2.0324       562.4014          1.775         1.9981       -35.9849      -9.387634      0.8288238
      3939.5000         2.0291       574.2559         1.7013         1.9572       -35.0823       -8.47554       0.847438
      3940.0000         2.0292       586.1035         1.6589         1.9184       -32.5964      -5.980152      0.8983642
      3940.5000         2.0294        597.958         1.6165         1.8852       -30.6224       -3.99666      0.9388437
      3941.0000          1.988       609.2549         1.5837          1.852       -28.8286      -2.193369      0.9756455
