#------------------------------------------------------------------------------
# Created by    : vladimir.rabinovich
# Created on    : 09/19/2023 17:22:30
#------------------------------------------------------------------------------
~Version Information Section
VERS.           2.0     :   CWLS log ASCII Standard - VERSION 2.0
WRAP.           NO      :   One line per depth step
~Well Information Section
#MNEM       .UNIT                                         VALUE :DESCRIPTION
#------------------------------------------------------------------------------
STRT        .FT                                             328 :START DEPTH
STOP        .FT                                            8026 :STOP DEPTH
STEP        .FT                                             0.5 :STEP      
NULL        .                                           -999.25 :NULL      
COMP        .                                 MESA PETROLEUM CO :COMPANY   
WELL        .                                ST TR 00565-L NW/4 :WELL      
FLD         .                                           WILDCAT :FIELD     
LOC         .                                                   :LOCATION  
CNTY        .                      MATAGORDA ISLAND LARGE BLOCK :LOCATION  
STAT        .                                             TEXAS :STATE     
CTRY        .                                     UNITED STATES :COUNTRY   
SRVC        .                                                   :SERVICE COMPANY
DATE        .                             9/13/2023 11:12:01 AM :LOG DATE  
API         .                                    42703301780000 :API NUMBER
UWI         .                                    42703301780000 :UNIQUE WELL ID
XCOORD      .                                  585273.186473096 :SURFACE X 
YCOORD      .                                  10269188.7462706 :SURFACE Y 
LAT         .                                          28.25878 :LATITUDE  
LON         .                                       -96.2777629 :LONGITUDE 
ELEV        .FT                                              82 :ELEVATION VALUE
ELEV_TYPE   .                                                KB :ELEVATION REFERENCE TYPE
~Curve Information Section
#MNEM       .UNIT                                      API CODE :CURVE DESCRIPTION
#------------------------------------------------------------------------------
DEPT        .FT                                                 :DEPTH     
CILD        .MMHO                                               :          
DT          .US/F                                               :          
ILD         .OHMM                                               :          
SFL         .OHMM                                               :          
SP          .MV                                                 :          
SP_NORM     .MV                                                 :SP Normalized
VSH_SP      .V/V                                                :Volume of Shale from SP
~A        DEPTH           CILD             DT            ILD            SFL             SP        SP_NORM         VSH_SP
# ...
      4415.0000       3039.352       118.5565         0.3567         0.7542       -71.9152      -31.76482      0.3967683
      4415.5000       3034.758       119.8833         0.3766         0.7371       -65.9008       -25.7538      0.5146315
      4416.0000       2969.629       122.9517         0.4068         0.6997        -59.344      -19.20037        0.64313
      4416.5000       2562.492        124.334         0.4515         0.6576       -46.3444      -6.204144       0.897958
      4417.0000       2171.375       123.5381          0.527         0.6503       -41.8585      -1.721622      0.9858505
      4417.5000        1780.65        119.479         0.6186         0.7165       -43.3901      -3.256596       0.955753
      4418.0000       1399.752       112.4224          0.717         0.8393       -46.3864      -6.256271      0.8969359
      4418.5000       1274.604       104.3488         0.8796         1.1482       -51.6293      -11.50255      0.7940677
      4419.0000       1277.123        94.2324         0.8985         1.6194       -56.1523      -16.02893      0.7053152
      4419.5000       1313.766        85.7721         0.8636         2.6986       -59.1412       -19.0212      0.6466432
      4420.0000       1360.689        77.7805         0.8215         2.6109        -62.902      -22.78537      0.5728358
      4420.5000       1411.396         80.342         0.7864           1.48       -66.2385      -26.12525       0.507348
      4421.0000       1467.166        87.5574         0.7556         1.1147       -65.1957      -25.08583      0.5277289
      4421.5000        1512.42        91.1899         0.7371         0.9567       -61.4373       -21.3308      0.6013568
      4422.0000       1548.338        91.3403         0.7239         0.8463       -54.8261      -14.72298       0.730922
      4422.5000       1559.344        95.7745         0.7168         0.7972       -46.7254      -6.625652      0.8896931
      4423.0000       1542.123       101.3735         0.7412         0.8531       -44.7992      -4.702827      0.9273955
      4423.5000       1432.674       106.9672         0.8104          0.924       -43.5534      -3.460403      0.9517568
      4424.0000        1320.35       110.1361         0.8635         1.0263       -42.3212      -2.231583      0.9758513
      4424.5000       1225.617       111.2063         0.9089         1.1152       -40.9727     -0.8864555              1
      4425.0000       1161.961       111.6313         0.9603         1.1392       -39.4968      0.5860672              1
      4425.5000       1128.477       111.9977         1.0019         1.1308       -37.9294       2.150089              1
      4426.0000       1110.395       111.3989         1.0424         1.0908       -36.8234       3.252716              1
      4426.5000       1103.152        111.428         1.0642         1.0568       -37.1494        2.92334              1
      4427.0000       1098.129       111.7156          1.076          1.043       -37.9844       2.084965              1
      4427.5000       1096.652       111.7083         1.0828         1.0417       -38.6474       1.418591              1
      4428.0000       1095.178       113.1582         1.0888         1.0525        -38.426       1.636616              1
      4428.5000       1093.701       112.1807         1.0964         1.0843       -38.2151       1.844139              1
      4429.0000       1092.227       106.9226         1.1048         1.1498       -38.8393       1.216564              1
      4429.5000        1090.75       101.2595         1.1103         1.2324        -39.777       0.275486              1
      4430.0000       1089.432        97.3218          1.104         1.2447       -40.9078     -0.8586884              1
      4430.5000       1090.469        95.2695         1.0976         1.1273       -42.1777      -2.131966      0.9778046
      4431.0000       1091.506       100.7041         1.0684         1.0212       -42.8386      -2.796242      0.9647796
      4431.5000       1106.561       109.5261         1.0045         1.0371       -42.9277      -2.888718      0.9629663
      4432.0000       1136.559       111.4634         0.9849         1.0704       -43.1284      -3.092793      0.9589648
      4432.5000       1181.395       109.3552         0.9542         1.0391         -43.76      -3.727768      0.9465144
      4433.0000       1254.508       107.6165         0.8979         0.9503       -43.3765      -3.347645      0.9539678
      4433.5000       1340.594       105.6321         0.8203         0.8651       -42.1721      -2.146622      0.9775172
      4434.0000       1427.072       105.0981         0.7376         0.7913       -41.5752      -1.553093      0.9891551
      4434.5000        1583.52       108.2666         0.6704         0.7485       -43.1835      -3.164768      0.9575536
      4435.0000       1776.326       112.3999         0.5971         0.8536       -47.8685      -7.853146      0.8656246
      4435.5000       1982.498       113.6082         0.5396         0.9941        -61.655      -21.64302      0.5952349
      4436.0000       2179.234       114.2075         0.5022         1.1104       -73.9323      -33.92369      0.3544374
      4436.5000       2267.066       111.8767           0.49         1.0968       -76.2407      -36.23547      0.3091083
      4437.0000       2275.785       106.7554         0.4975         1.0496       -76.9459      -36.94405      0.2952147
      4437.5000       2180.414       105.1361         0.5279         1.0588       -76.7241      -36.72562      0.2994976
      4438.0000        2033.01       104.4939         0.5784         1.1918       -76.3385       -36.3434      0.3069921
      4438.5000       1837.646        104.137         0.6236         1.3808       -75.3846      -35.39288      0.3256299
      4439.0000       1640.713       103.4507           0.68         1.5707       -73.3496      -33.36126      0.3654656
      4439.5000       1489.867       103.8672         0.7403         1.8639       -69.2657      -29.28073      0.4454758
      4440.0000        1367.52         97.178         0.8012         2.3184       -62.1301      -22.14851      0.5853234
      4440.5000       1295.094        83.8184         0.8577         2.7719        -55.207      -15.22878      0.7210042
      4441.0000       1258.316        79.4097         0.8849          2.326       -50.1547      -10.17986      0.8200029
      4441.5000       1293.447        78.6682         0.8641         1.6803       -45.8272      -5.855732      0.9047896
      4442.0000       1389.926        90.2651         0.8145          1.066       -42.3608      -2.392708       0.972692
      4442.5000       1568.877       103.9324         0.7257         0.7615       -43.0635      -3.098782      0.9588474
      4443.0000       1754.117       117.8872         0.6331         0.7133       -47.5419      -7.580559      0.8709694
      4443.5000       1947.416         118.76         0.5603         0.7457        -52.822      -12.86403      0.7673719
      4444.0000       2117.324       109.9675         0.4901         0.8126       -57.6393      -17.68471      0.6728488
      4444.5000       2372.238       109.7134         0.4182         0.8266       -59.3515      -19.40029        0.63921
      4445.0000       2792.445       112.1719         0.3607         0.7925       -58.0055      -18.05766       0.665536
      4445.5000       3173.539       110.6195          0.333         0.7619       -59.9923      -20.04784       0.626513
      4446.0000       3324.262        107.188         0.3332          0.736       -66.1681      -26.22701      0.5053527
      4446.5000       3280.113       107.2845          0.349         0.7051       -71.2551      -31.31739      0.4055414
      4447.0000       3100.426       118.4772         0.3807         0.6692       -69.1816      -29.24727       0.446132
      4447.5000       2916.563       127.5476         0.4267         0.6418       -64.9557      -25.02475      0.5289266
      4448.0000       2704.492       133.0671         0.4915         0.6732       -58.5671      -18.63952      0.6541271
