#------------------------------------------------------------------------------
# Created by    : vladimir.rabinovich
# Created on    : 09/19/2023 17:22:56
#------------------------------------------------------------------------------
~Version Information Section
VERS.           2.0     :   CWLS log ASCII Standard - VERSION 2.0
WRAP.           NO      :   One line per depth step
~Well Information Section
#MNEM       .UNIT                                         VALUE :DESCRIPTION
#------------------------------------------------------------------------------
STRT        .FT                                             513 :START DEPTH
STOP        .FT                                           16000 :STOP DEPTH
STEP        .FT                                             0.5 :STEP      
NULL        .                                           -999.25 :NULL      
COMP        .              PENNZOIL EXPLORATION & PRODUCTION CO :COMPANY   
WELL        .                                ST TR 00486-L SE/4 :WELL      
FLD         .                                           WILDCAT :FIELD     
LOC         .                                                   :LOCATION  
CNTY        .                      MATAGORDA ISLAND LARGE BLOCK :LOCATION  
STAT        .                                             TEXAS :STATE     
CTRY        .                                     UNITED STATES :COUNTRY   
SRVC        .                                                   :SERVICE COMPANY
DATE        .                             9/13/2023 11:19:05 AM :LOG DATE  
API         .                                    42703302080000 :API NUMBER
UWI         .                                    42703302080000 :UNIQUE WELL ID
XCOORD      .                                  648049.134083277 :SURFACE X 
YCOORD      .                                  10318924.3450998 :SURFACE Y 
LAT         .                                        28.3999658 :LATITUDE  
LON         .                                       -96.0869402 :LONGITUDE 
ELEV        .FT                                              47 :ELEVATION VALUE
ELEV_TYPE   .                                                KB :ELEVATION REFERENCE TYPE
~Curve Information Section
#MNEM       .UNIT                                      API CODE :CURVE DESCRIPTION
#------------------------------------------------------------------------------
DEPT        .FT                                                 :DEPTH     
SFL         .OHMM                                               :          
SP          .MV                                                 :          
SP_NORM     .MV                                                 :SP Normalized
VSH_SP      .V/V                                                :Volume of Shale from SP
~A        DEPTH            SFL             SP        SP_NORM         VSH_SP
# ...
      2580.0000         0.6368       -82.7603      -6.126366      0.8280681
      2580.5000         0.6227       -82.2771      -5.651596      0.8478501
      2581.0000         0.6104       -81.6653      -5.048233      0.8729903
      2581.5000         0.5988       -80.7708      -4.162163      0.9099099
      2582.0000         0.5898        -80.286      -3.685806      0.9297581
      2582.5000          0.581       -79.9738      -3.382034      0.9424152
      2583.0000         0.5788       -79.8136       -3.23027      0.9487388
      2583.5000         0.5777       -79.6792      -3.104301      0.9539874
      2584.0000         0.5766       -79.5646      -2.998138      0.9584109
      2584.5000         0.5759       -79.5918      -3.033768      0.9569263
      2585.0000         0.5754        -80.041      -3.491409      0.9378579
      2585.5000          0.575       -81.2921      -4.750938      0.8853776
      2586.0000            0.6       -79.7987      -3.265976       0.947251
      2586.5000         0.6063       -78.3054      -1.781105              1
      2587.0000         0.6114       -78.7174      -2.201546      0.9916022
      2587.5000          0.614       -78.9088      -2.401375      0.9832761
      2588.0000         0.6113        -78.951      -2.452011      0.9811662
      2588.5000         0.6101       -78.8755      -2.384949      0.9839604
      2589.0000          0.611         -78.83      -2.347885      0.9855048
      2589.5000         0.6233       -78.8864      -2.412712      0.9828036
      2590.0000         0.6405       -78.5144      -2.049149      0.9979522
      2590.5000         0.6646       -77.6808      -1.223991              1
      2591.0000         0.6844       -77.2797     -0.8313217              1
      2591.5000         0.7012        -77.179     -0.7390594              1
      2592.0000          0.711       -77.1577     -0.7261887              1
      2592.5000         0.7194       -77.2043     -0.7812271              1
      2593.0000         0.7226       -77.3058     -0.8911591              1
      2593.5000         0.7275       -77.5977      -1.191498              1
      2594.0000         0.7355       -77.8528      -1.455025              1
      2594.5000         0.7446       -78.0608      -1.671463              1
      2595.0000         0.7549       -78.3408      -1.959892              1
      2595.5000          0.768       -78.6184      -2.245934      0.9897528
      2596.0000         0.7826       -78.8848      -2.520767      0.9783013
      2596.5000         0.7922       -79.1919      -2.836304       0.965154
      2597.0000         0.7999       -79.4774      -3.130234      0.9529069
      2597.5000         0.8026       -79.6581      -3.319366      0.9450264
      2598.0000         0.8049       -79.8171      -3.486801        0.93805
      2598.5000         0.8059       -79.9421      -3.620239      0.9324901
      2599.0000         0.8045       -80.0118      -3.698372      0.9292345
      2599.5000         0.7998       -80.0139      -3.708908      0.9287955
      2600.0000         0.8011       -79.6897      -3.393135      0.9419527
      2600.5000         0.8147       -79.2281       -2.93998      0.9608342
      2601.0000         0.8679       -78.5986      -2.318916      0.9867118
      2601.5000         0.9055       -78.2046      -1.933342              1
      2602.0000          0.922       -77.9507      -1.687881              1
      2602.5000         0.9073       -77.8119       -1.55751              1
      2603.0000          0.897       -77.7583      -1.512352              1
      2603.5000         0.8899       -77.8507      -1.613182              1
      2604.0000         0.8933       -78.1649      -1.935822              1
      2604.5000         0.8983       -78.6858      -2.465149      0.9806188
      2605.0000         0.9062        -79.246      -3.033791      0.9569254
      2605.5000         0.9054       -79.5831      -3.379318      0.9425284
      2606.0000         0.8699       -79.7878      -3.592461      0.9336475
      2606.5000          0.816       -79.8545      -3.667587      0.9305172
      2607.0000          0.764       -79.8667      -3.688225      0.9296573
      2607.5000         0.7224       -79.7845      -3.614456       0.932731
      2608.0000         0.6934       -79.6993      -3.537697      0.9359293
      2608.5000         0.6755       -79.6017      -3.448524      0.9396448
      2609.0000         0.6647        -79.504      -3.359261      0.9433641
      2609.5000         0.6561       -79.3998      -3.263496      0.9473543
      2610.0000          0.646       -79.2255      -3.097633      0.9542653
      2610.5000          0.634       -79.0083      -2.888863      0.9629641
      2611.0000         0.6222       -78.7361      -2.625099      0.9739542
      2611.5000         0.6105       -78.5465      -2.443939      0.9815025
      2612.0000            0.6       -78.5701      -2.475967       0.980168
      2612.5000         0.5956       -78.6267      -2.541008       0.977458
      2613.0000         0.5913       -78.6388      -2.561539      0.9766026
      2613.5000         0.5956       -78.6396      -2.570778      0.9762176
      2614.0000         0.6005       -78.7443      -2.683907      0.9715039
      2614.5000         0.6075        -78.861      -2.809044      0.9662898
      2615.0000         0.6153       -79.0035      -2.959976       0.960001
      2615.5000         0.6231       -79.1375      -3.102409      0.9540663
      2616.0000         0.6308       -79.2615       -3.23484      0.9485483
      2616.5000         0.6387       -79.3707      -3.352478      0.9436467
      2617.0000         0.6426       -79.4727      -3.462914      0.9390453
      2617.5000         0.6441       -79.5701      -3.568748      0.9346355
      2618.0000          0.638       -79.6631      -3.670181      0.9304091
      2618.5000         0.6308       -79.7013       -3.71682      0.9284658
      2619.0000         0.6245        -79.693      -3.716949      0.9284604
      2619.5000         0.6189       -79.5966       -3.62899      0.9321254
      2620.0000         0.6133        -79.355      -3.395821      0.9418408
      2620.5000         0.6175       -79.1324      -3.181656      0.9507644
      2621.0000         0.6752       -78.9293      -2.986984      0.9588757
      2621.5000         0.6681       -78.8436      -2.909721       0.962095
      2622.0000         0.6541       -78.8181      -2.892654       0.962806
      2622.5000         0.6347       -78.8127      -2.895691      0.9626796
      2623.0000           0.62       -78.8467      -2.938133      0.9609111
      2623.5000          0.613       -78.8929       -2.99276       0.958635
      2624.0000         0.6109       -78.9539      -3.062202      0.9557416
      2624.5000           0.61       -79.1157       -3.23243      0.9486488
      2625.0000         0.6114       -79.3646      -3.489769      0.9379263
      2625.5000         0.6139       -79.5273      -3.660896       0.930796
      2626.0000         0.6177       -79.7144      -3.856438      0.9226484
      2626.5000         0.6197       -79.9976      -4.148064      0.9104974
      2627.0000         0.6145       -80.2888      -4.447708      0.8980122
      2627.5000         0.6085       -80.6261      -4.793434      0.8836069
      2628.0000         0.5967       -80.8474       -5.02317      0.8740346
      2628.5000         0.6205       -80.9117      -5.095901      0.8710041
      2629.0000         0.6916       -80.7101       -4.90274      0.8790525
      2629.5000         0.7434       -80.4248       -4.62587      0.8905888
      2630.0000         0.7733       -80.0839      -4.293411      0.9044412
      2630.5000         0.7639       -79.7534      -3.971344      0.9178607
      2631.0000         0.7423        -79.448      -3.674377      0.9302343
      2631.5000         0.7166       -79.3754      -3.610207      0.9329081
      2632.0000         0.6889       -79.6499       -3.89315      0.9211187
      2632.5000         0.6646        -80.252      -4.503677      0.8956801
