#------------------------------------------------------------------------------
# Created by    : vladimir.rabinovich
# Created on    : 09/19/2023 17:19:49
#------------------------------------------------------------------------------
~Version Information Section
VERS.           2.0     :   CWLS log ASCII Standard - VERSION 2.0
WRAP.           NO      :   One line per depth step
~Well Information Section
#MNEM       .UNIT                                         VALUE :DESCRIPTION
#------------------------------------------------------------------------------
STRT        .FT                                            1295 :START DEPTH
STOP        .FT                                            4592 :STOP DEPTH
STEP        .FT                                             0.5 :STEP      
NULL        .                                           -999.25 :NULL      
COMP        .                     FREEPORT-MCMORAN OIL & GAS CO :COMPANY   
WELL        .                                     ST TR 00662-L :WELL      
FLD         .                                         SIX-SIXTY :FIELD     
LOC         .                                                   :LOCATION  
CNTY        .                      MATAGORDA ISLAND LARGE BLOCK :LOCATION  
STAT        .                                             TEXAS :STATE     
CTRY        .                                     UNITED STATES :COUNTRY   
SRVC        .                                                   :SERVICE COMPANY
DATE        .                             9/13/2023 11:19:13 AM :LOG DATE  
API         .                                    42703300650000 :API NUMBER
UWI         .                                    42703300650000 :UNIQUE WELL ID
XCOORD      .                                  434889.841251994 :SURFACE X 
YCOORD      .                                  10179416.4588751 :SURFACE Y 
LAT         .                                        28.0002971 :LATITUDE  
LON         .                                       -96.7355909 :LONGITUDE 
ELEV        .FT                                              77 :ELEVATION VALUE
ELEV_TYPE   .                                                KB :ELEVATION REFERENCE TYPE
~Curve Information Section
#MNEM       .UNIT                                      API CODE :CURVE DESCRIPTION
#------------------------------------------------------------------------------
DEPT        .FT                                                 :DEPTH     
ASFL        .OHMM                                               :          
CILD        .MMHO                                               :          
ILD         .OHMM                                               :          
SFL         .OHMM                                               :          
SP          .MV                                                 :          
SP_NORM     .MV                                                 :SP Normalized
VSH_SP      .V/V                                                :Volume of Shale from SP
~A        DEPTH           ASFL           CILD            ILD            SFL             SP        SP_NORM         VSH_SP
# ...
      2601.5000          0.934       2119.203         0.4608         0.8419       -70.1097      -41.19404     0.08649912
      2602.0000         0.9167       2103.316         0.4527         0.8362       -68.6472      -39.73154      0.1197378
      2602.5000          0.902       2163.203         0.4446         0.8377       -67.9517      -39.03603      0.1355447
      2603.0000         0.8878       2238.559         0.4365         0.8393        -67.616      -38.70033      0.1431743
      2603.5000         0.8765       2314.461         0.4283         0.8408       -67.3961      -38.48044      0.1481719
      2604.0000         0.8651       2394.988         0.4171         0.8424            -69      -40.08434      0.1117197
      2604.5000         0.8667       2480.516         0.4055         0.8483        -70.338      -41.42233     0.08131062
      2605.0000         0.8752       2582.277         0.3939         0.8591       -71.2688      -42.35313     0.06015604
      2605.5000         0.8837       2734.625         0.3823         0.8699       -71.9316      -43.01594     0.04509232
      2606.0000         0.8922       2808.297         0.3707         0.8754       -72.6031      -43.68744     0.02983093
      2606.5000         0.8856       2866.949         0.3591         0.8763       -70.8704      -41.95473     0.06921057
      2607.0000         0.8689       2926.813         0.3488         0.8772       -68.8933      -39.97764      0.1141446
      2607.5000         0.8516       2987.023         0.3541         0.8782       -67.9951      -39.07944      0.1345582
      2608.0000         0.8284       2977.262         0.3595         0.8718       -67.1263      -38.21063      0.1543038
      2608.5000         0.8038       2938.223         0.3648         0.8422       -66.4777      -37.56203      0.1690447
      2609.0000         0.7894       2899.641         0.3663          0.814       -65.8463      -36.93063      0.1833947
      2609.5000         0.7758       2864.672         0.3613         0.7993       -65.2137      -36.29803      0.1977719
      2610.0000         0.7622       2830.531         0.3562         0.7845       -65.1659      -36.25024      0.1988583
      2610.5000         0.7547       2822.859         0.3497         0.7959       -66.5634      -37.64774      0.1670969
      2611.0000         0.7744       2868.234         0.3388         0.8086       -68.2321      -39.31644      0.1291719
      2611.5000         0.8054       2932.059         0.3278         0.8212       -69.4467      -40.53104      0.1015674
      2612.0000         0.8216       2995.711         0.3169          0.817       -70.4484      -41.53274     0.07880142
      2612.5000         0.8109       3059.086          0.306         0.8092       -71.4656      -42.54993     0.05568331
      2613.0000         0.8002       3125.633         0.2981         0.7992       -72.7024      -43.78674     0.02757419
      2613.5000         0.7846       3196.883         0.3052          0.784       -73.9893      -45.07364              0
      2614.0000         0.7675       3252.176         0.3122         0.7688       -70.9974      -42.08173     0.06632423
      2614.5000         0.7599       3307.469         0.3193         0.7587       -68.2264      -39.31074      0.1293014
      2615.0000         0.7798       3362.766         0.3263         0.7739       -65.4999      -36.58424      0.1912674
      2615.5000          0.832       3211.262         0.3375          0.797        -61.866      -32.95034      0.2738559
      2616.0000         0.8702       2864.992         0.3506         0.8252       -63.8233      -34.90764      0.2293718
      2616.5000         0.9219       2702.055         0.3638         0.8535       -66.2427      -37.32703      0.1743856
      2617.0000         0.9774       2589.504         0.3769         0.8818       -67.5775      -38.66183      0.1440492
      2617.5000         0.9641       2521.176         0.3825         0.9132       -68.6768      -39.76114       0.119065
      2618.0000          0.917       2488.039         0.3856         0.9462       -69.6804      -40.76473     0.09625608
      2618.5000         0.8523       2472.078         0.3888         0.9313       -64.4489      -35.53323      0.2151538
      2619.0000         0.7615       2459.938          0.392         0.8725       -55.7141      -26.79844      0.4136719
      2619.5000         0.7375       2452.797         0.3951         0.7972       -51.3472      -22.43154      0.5129197
      2620.0000         0.7136       2447.758         0.3983         0.7214        -50.145      -21.22934      0.5402423
      2620.5000         0.6909       2446.082         0.3976         0.6769       -49.0892      -20.17354      0.5642378
      2621.0000         0.8056       2444.918         0.3933         0.6728       -60.1061      -31.19044      0.3138537
      2621.5000         0.8519       2461.301         0.3889         0.7112       -63.8394      -34.92374       0.229006
      2622.0000         0.8837       2513.133         0.3846         0.7496       -66.7904      -37.87473      0.1619379
      2622.5000          0.906       2608.262         0.3802          0.788       -71.3318      -42.41614     0.05872414
      2623.0000          0.925       2722.844         0.3754         0.8264        -74.017      -45.10133              0
      2623.5000         0.9145       2830.941         0.3595         0.8552       -75.1089      -46.19324              0
      2624.0000         0.8851       3027.535         0.3436         0.8838       -75.0065      -46.09084              0
      2624.5000         0.8462       3182.504         0.3277         0.8762       -75.0352      -46.11954              0
      2625.0000         0.8141       3320.891         0.3118         0.8463       -75.7815      -46.86584              0
      2625.5000         0.7804       3523.078         0.2996         0.8165       -76.6708      -47.75513              0
      2626.0000         0.7454        3702.82         0.2902         0.7849       -77.5421      -48.62643              0
      2626.5000          0.712       3745.387         0.2808         0.7525       -71.0518      -42.13614     0.06508775
      2627.0000         0.6838       3709.637         0.2715         0.7202       -66.5128      -37.59714      0.1682469
      2627.5000         0.6656       3652.457         0.2621         0.6953       -63.2719      -34.35624      0.2419036
      2628.0000         0.6475       3516.348          0.262         0.6818       -59.2006      -30.28494      0.3344333
      2628.5000         0.6364       3258.973         0.2716         0.6682       -54.6949      -25.77924      0.4368355
      2629.0000         0.6252       3073.715         0.2812         0.6547       -50.0784      -21.16274       0.541756
      2629.5000         0.6194       2928.594         0.2908         0.6422       -43.2225      -14.30684      0.6975719
      2630.0000         0.6141       2740.859         0.3148          0.632       -39.7573      -10.84164      0.7763264
      2630.5000         0.6039       2553.969         0.3431         0.6219       -40.7017      -11.78604      0.7548628
      2631.0000         0.5935       2412.113         0.3713         0.6167       -41.4694      -12.55374      0.7374151
      2631.5000         0.5805       2287.781         0.3996         0.6151       -40.4966      -11.58094      0.7595241
      2632.0000          0.579       2141.672         0.4345         0.6147       -39.1191      -10.20344       0.790831
      2632.5000         0.5955       2034.123         0.4706         0.6423       -37.2833      -8.367636      0.8325537
      2633.0000         0.6142        1875.49         0.5067         0.6699        -35.421      -6.505339      0.8748786
      2633.5000         0.6562       1761.652         0.5435         0.6975        -34.241      -5.325338      0.9016969
      2634.0000          0.706       1655.238         0.5862         0.7265       -33.1356      -4.219938      0.9268196
      2634.5000         0.7517       1561.693         0.6288         0.7586       -32.1392      -3.223536      0.9494651
