#------------------------------------------------------------------------------
# Created by    : vladimir.rabinovich
# Created on    : 09/19/2023 17:22:30
#------------------------------------------------------------------------------
~Version Information Section
VERS.           2.0     :   CWLS log ASCII Standard - VERSION 2.0
WRAP.           NO      :   One line per depth step
~Well Information Section
#MNEM       .UNIT                                         VALUE :DESCRIPTION
#------------------------------------------------------------------------------
STRT        .FT                                             328 :START DEPTH
STOP        .FT                                            8026 :STOP DEPTH
STEP        .FT                                             0.5 :STEP      
NULL        .                                           -999.25 :NULL      
COMP        .                                 MESA PETROLEUM CO :COMPANY   
WELL        .                                ST TR 00565-L NW/4 :WELL      
FLD         .                                           WILDCAT :FIELD     
LOC         .                                                   :LOCATION  
CNTY        .                      MATAGORDA ISLAND LARGE BLOCK :LOCATION  
STAT        .                                             TEXAS :STATE     
CTRY        .                                     UNITED STATES :COUNTRY   
SRVC        .                                                   :SERVICE COMPANY
DATE        .                             9/13/2023 11:12:01 AM :LOG DATE  
API         .                                    42703301780000 :API NUMBER
UWI         .                                    42703301780000 :UNIQUE WELL ID
XCOORD      .                                  585273.186473096 :SURFACE X 
YCOORD      .                                  10269188.7462706 :SURFACE Y 
LAT         .                                          28.25878 :LATITUDE  
LON         .                                       -96.2777629 :LONGITUDE 
ELEV        .FT                                              82 :ELEVATION VALUE
ELEV_TYPE   .                                                KB :ELEVATION REFERENCE TYPE
~Curve Information Section
#MNEM       .UNIT                                      API CODE :CURVE DESCRIPTION
#------------------------------------------------------------------------------
DEPT        .FT                                                 :DEPTH     
CILD        .MMHO                                               :          
DT          .US/F                                               :          
ILD         .OHMM                                               :          
SFL         .OHMM                                               :          
SP          .MV                                                 :          
SP_NORM     .MV                                                 :SP Normalized
VSH_SP      .V/V                                                :Volume of Shale from SP
~A        DEPTH           CILD             DT            ILD            SFL             SP        SP_NORM         VSH_SP
# ...
      3410.0000       3129.629       126.5286         0.3401         0.9154      -101.3533      -50.23861              0
      3410.5000       3132.957       119.5737         0.3339         0.9734      -101.3793      -50.27018              0
      3411.0000       3140.242       117.2202         0.3276         0.9917      -101.3984      -50.29485              0
      3411.5000       3148.547       118.9502         0.3189         0.9408      -101.4429      -50.34492              0
      3412.0000        3164.98       121.2324         0.3089         0.9084      -101.4885      -50.39609              0
      3412.5000       3197.781       124.3132         0.2998         0.9041      -101.5349      -50.44806              0
      3413.0000       3272.152       124.5066         0.2912         0.8944      -101.7748      -50.69353              0
      3413.5000       3414.488       124.0833         0.2867         0.8756      -102.0228       -50.9471              0
      3414.0000       3562.738       123.8745         0.2869         0.8439      -102.2771      -51.20697              0
      3414.5000       3605.137       124.7446          0.292         0.8009      -102.2903      -51.22574              0
      3415.0000       3595.121       127.2478         0.2997         0.7778      -101.8822      -50.82321              0
      3415.5000       3516.805       131.1431         0.3083         0.7758      -101.2931      -50.23968              0
      3416.0000        3326.07       131.0388         0.3213         0.7962      -100.7205      -49.67265    0.006680703
      3416.5000       3108.328       115.9983         0.3355         0.8623      -100.5332      -49.49092     0.01038929
      3417.0000       2963.035        110.375         0.3516         1.0099       -100.743      -49.70629    0.005994135
      3417.5000       2898.914       107.4766         0.3685         1.1581      -101.1351      -50.10396              0
      3418.0000       2818.234       108.1931         0.3836         1.1588      -101.8557      -50.83013              0
      3418.5000       2740.512       117.9669         0.3989         1.0577      -102.5786       -51.5586              0
      3419.0000       2663.922       126.6006         0.4036         0.9265      -103.0603      -52.04588              0
      3419.5000       2715.699       128.8086         0.3947         0.8588      -103.1174      -52.10854              0
      3420.0000       2811.238       126.0254         0.3822         0.8838      -102.9603      -51.95701              0
      3420.5000       2951.699        123.032         0.3691         0.9078      -102.7717      -51.77398              0
      3421.0000       3084.672       121.7576          0.356         0.9179      -102.1807      -51.18855              0
      3421.5000        3130.57        119.885         0.3422          0.911      -100.4768      -49.49022     0.01040369
      3422.0000       3158.527       120.2134         0.3269         0.8903       -98.8616       -47.8806     0.04325314
      3422.5000        3195.91       122.1226         0.3129         0.8565       -98.1169      -47.14146     0.05833754
      3423.0000        3298.57       122.7097         0.3021         0.8094       -97.3243      -46.35443     0.07439929
      3423.5000       3427.992       122.0781         0.2926         0.7745       -96.6707       -45.7064     0.08762445
      3424.0000       3519.219       122.2356         0.2902         0.7726       -95.9624      -45.00367      0.1019658
      3424.5000       3587.578       123.7952         0.2962         0.7862       -94.8912      -43.93804      0.1237135
      3425.0000        3613.75       125.9919         0.3048          0.786       -93.0648      -42.11721      0.1608733
      3425.5000       3528.879       128.9263         0.3141         0.7658       -90.8804      -39.93839      0.2053391
      3426.0000       3363.332       131.4666         0.3282         0.7285       -85.7729      -34.83646      0.3094601
      3426.5000       3116.215       130.2876         0.3491         0.6944       -75.9613      -25.03043      0.5095831
      3427.0000       2865.844       128.7834         0.3989         0.6754       -68.9453      -18.01999      0.6526533
      3427.5000       2529.918       129.1809         0.5054         0.6942       -63.6808      -12.76107      0.7599782
      3428.0000       2292.461       127.9358         0.6071         0.7206       -59.6347      -8.720535       0.842438
      3428.5000       1933.369       125.8518         0.7033         0.7586       -57.9852      -7.076603      0.8759877
      3429.0000        1542.24       124.0752         0.7981         0.7928       -56.9987      -6.095673      0.8960067
      3429.5000       1269.396       123.2434         0.9063         0.8234       -56.0975      -5.200043      0.9142848
      3430.0000       1141.059       123.2944         0.9987         0.8474       -55.2107      -4.318813      0.9322691
      3430.5000       1065.836       123.3228         1.0516          0.872       -54.2693      -3.382984      0.9513677
      3431.0000       1057.686        123.377         1.0487          0.894       -53.2711      -2.390354      0.9716254
      3431.5000        1062.51       123.5566         1.0316         0.8981       -52.4949      -1.619724      0.9873526
      3432.0000       1084.318       130.9546          1.012         0.8957       -51.9677      -1.098095      0.9979981
      3432.5000       1124.129       142.3054         0.9928         0.8881       -51.5477     -0.6836624              1
      3433.0000         1170.9       154.6086         0.9616         0.8743       -51.2788     -0.4203339              1
      3433.5000       1235.686       156.8748         0.9313         0.8596       -51.0183     -0.1654053              1
      3434.0000       1281.078       125.4475         0.8994         0.8412       -50.7649     0.08242416              1
      3434.5000       1320.531       123.8613         0.8648         0.8216       -50.5378      0.3039551              1
      3435.0000       1353.553       123.9199         0.8344         0.8091       -50.3785      0.4576836              1
      3435.5000        1370.58       124.5303         0.8192         0.7996       -50.2822      0.5484161              1
      3436.0000       1376.887       125.2017         0.8223         0.7978       -50.2256      0.5994415              1
      3436.5000       1376.439       125.9292         0.8304          0.802       -50.1766      0.6428719              1
      3437.0000       1363.396       126.4622         0.8457          0.811       -50.1487      0.6652031              1
      3437.5000        1347.01       126.4705         0.8619         0.8255       -50.1554       0.652935              1
      3438.0000       1328.133       126.1179         0.8804         0.8401       -50.2122      0.5905647              1
      3438.5000       1309.664       126.5261         0.8993         0.8471       -50.3345      0.4626961              1
      3439.0000        1290.27       130.4858         0.9127         0.8371       -50.4808      0.3108215              1
      3439.5000       1268.793       131.7107         0.9226         0.8206       -50.6274      0.1586533              1
      3440.0000       1250.631       111.7239         0.9326         0.8066       -50.9191     -0.1386185              1
      3440.5000        1234.91       113.6875         0.9347         0.8013       -51.3603     -0.5853844              1
      3441.0000       1229.846       122.6086         0.9362         0.8086       -52.2104      -1.441055      0.9909989
      3441.5000       1256.436       118.5845         0.9231         0.8223       -53.4796      -2.715828      0.9649831
      3442.0000       1324.893       140.3467         0.8905         0.8453       -55.3659      -4.607697      0.9263735
      3442.5000       1427.947       141.8196         0.8263         0.8847       -58.4794      -7.726768       0.862719
      3443.0000       1510.648       130.5627         0.7591         0.9371       -62.7036      -11.95654      0.7763972
