#------------------------------------------------------------------------------
# Created by    : vladimir.rabinovich
# Created on    : 09/19/2023 17:20:49
#------------------------------------------------------------------------------
~Version Information Section
VERS.           2.0     :   CWLS log ASCII Standard - VERSION 2.0
WRAP.           NO      :   One line per depth step
~Well Information Section
#MNEM       .UNIT                                         VALUE :DESCRIPTION
#------------------------------------------------------------------------------
STRT        .FT                                             556 :START DEPTH
STOP        .FT                                            7001 :STOP DEPTH
STEP        .FT                                             0.5 :STEP      
NULL        .                                           -999.25 :NULL      
COMP        .                          HUMBLE OIL & REFINING CO :COMPANY   
WELL        .                                     ST TR 00598-L :WELL      
FLD         .                                           WILDCAT :FIELD     
LOC         .                                                   :LOCATION  
CNTY        .                      MATAGORDA ISLAND LARGE BLOCK :LOCATION  
STAT        .                                             TEXAS :STATE     
CTRY        .                                     UNITED STATES :COUNTRY   
SRVC        .                                                   :SERVICE COMPANY
DATE        .                             9/13/2023 11:12:05 AM :LOG DATE  
API         .                                    42703000080000 :API NUMBER
UWI         .                                    42703000080000 :UNIQUE WELL ID
XCOORD      .                                  502144.869554487 :SURFACE X 
YCOORD      .                                  10234432.9570627 :SURFACE Y 
LAT         .                                        28.1568958 :LATITUDE  
LON         .                                       -96.5324651 :LONGITUDE 
ELEV        .FT                                              15 :ELEVATION VALUE
ELEV_TYPE   .                                                KB :ELEVATION REFERENCE TYPE
~Curve Information Section
#MNEM       .UNIT                                      API CODE :CURVE DESCRIPTION
#------------------------------------------------------------------------------
DEPT        .FT                                                 :DEPTH     
ASN         .OHMM                                               :          
CALI        .IN                                                 :          
CILD        .MMHO                                               :          
DT          .US/F                                               :          
ILD         .OHMM                                               :          
SP          .MV                                                 :          
SP_NORM     .MV                                                 :SP Normalized
VSH_SP      .V/V                                                :Volume of Shale from SP
~A        DEPTH            ASN           CALI           CILD             DT            ILD             SP        SP_NORM         VSH_SP
# ...
      1824.5000         0.6268        13.2586       1347.182       176.9722         0.5935       -56.7886        -2.0451      0.9962417
      1825.0000          0.624        13.4832       1351.639       179.4119         0.5918        -56.829         -2.091      0.9924167
      1825.5000         0.6212        13.3376         1356.1       187.3503         0.5901       -56.8694         -2.137      0.9885833
      1826.0000         0.6184        13.0062       1360.557       190.0168         0.5911       -56.9099         -2.183        0.98475
      1826.5000         0.6155        12.8629       1367.727       188.3296          0.593       -56.9503        -2.2289       0.980925
      1827.0000         0.6127        13.0172       1410.959        182.147         0.5948       -57.0059          -2.29      0.9758334
      1827.5000         0.6099         13.229       1454.594       181.2417         0.5966       -57.1351        -2.4248         0.9646
      1828.0000         0.6071        13.0907        1487.68       191.3081         0.5984       -57.2644        -2.5596      0.9533666
      1828.5000         0.6053        12.8531       1510.598       190.9778         0.6002       -57.3937        -2.6944      0.9421333
      1829.0000          0.606        12.5838       1532.162       188.9719          0.602        -57.523        -2.8292         0.9309
      1829.5000         0.6066        12.3203       1543.875       186.5928         0.6034       -57.3896        -2.7013      0.9415584
      1830.0000         0.6072        12.3367       1555.588       177.2424         0.6046       -57.2371        -2.5544         0.9538
      1830.5000         0.6079        12.4749        1561.82       176.6189         0.6059       -56.8134        -2.1362        0.98865
      1831.0000         0.6085         12.572       1555.699       176.1147         0.6072       -56.9794        -2.3077      0.9743583
      1831.5000         0.6091        12.5936       1546.512       175.1426         0.6084       -57.2374        -2.5712         0.9524
      1832.0000         0.6121          12.57       1529.102       174.1228         0.6097         -57.48        -2.8194      0.9317167
      1832.5000         0.6156        12.6522       1511.697       175.0791          0.611       -57.7227        -3.0676      0.9110333
      1833.0000         0.6191        13.6003       1495.148       184.9155         0.6123       -57.6971        -3.0475      0.9127083
      1833.5000         0.6226        14.1661       1479.902       186.1213         0.6135       -57.5237        -2.8796         0.9267
      1834.0000         0.6262        13.5469       1464.656       186.8413         0.6149       -57.3433        -2.7047       0.941275
      1834.5000         0.6297         13.051       1449.914       187.3091         0.6163       -57.1527        -2.5197      0.9566917
      1835.0000         0.6332        12.6545       1438.801       186.9397         0.6178       -57.1907        -2.5632      0.9530666
      1835.5000         0.6366        12.4301       1427.684       183.9412         0.6192       -57.4009        -2.7789      0.9350917
      1836.0000         0.6385        13.0244       1427.842       180.1133         0.6206       -57.6224        -3.0059       0.916175
      1836.5000         0.6403        13.3699       1430.318        184.928         0.6221        -57.905        -3.2941      0.8921583
      1837.0000         0.6422        13.3279       1445.443       180.5693         0.6235       -58.1875        -3.5821      0.8681583
      1837.5000         0.6441        13.3415       1460.561       179.6099         0.6249       -58.4702        -3.8703      0.8441417
      1838.0000          0.646        13.5332       1475.551       170.6492         0.6286       -58.7527        -4.1583      0.8201417
      1838.5000         0.6478        13.5241       1487.822       167.0649         0.6353       -58.8149         -4.226         0.8145
      1839.0000         0.6497        13.3893       1500.096       161.0842          0.642       -58.7963         -4.213      0.8155833
      1839.5000         0.6514        13.3468       1510.104       161.4541         0.6487       -58.3914        -3.8136      0.8488666
      1840.0000         0.6531        13.0991       1512.715       164.8223         0.6554       -57.8245        -3.2522        0.89565
      1840.5000         0.6547        12.9835       1476.369       170.2273         0.6621       -57.5485        -2.9817      0.9181917
      1841.0000         0.6564        12.9776       1389.367       170.6013         0.6689       -57.6456        -3.0844      0.9096333
      1841.5000         0.6581        12.9415        1325.68        168.741         0.6864       -57.7426        -3.1869      0.9010917
      1842.0000         0.6641        12.8304       1272.055       160.2966          0.705       -57.8395        -3.2893      0.8925583
      1842.5000         0.6723        12.6272       1221.793       153.6714         0.7236       -57.9366        -3.3919      0.8840083
      1843.0000         0.6804        12.4199       1173.486        151.271         0.7422       -58.0142         -3.475      0.8770834
      1843.5000         0.6885        12.4047       1133.482       146.4434         0.7532       -58.0056         -3.472      0.8773333
      1844.0000         0.6966        12.6251       1118.033       142.1855         0.7627        -57.997        -3.4689      0.8775917
      1844.5000         0.7035        12.9705       1109.424       139.5715         0.7722       -57.9884        -3.4658        0.87785
      1845.0000         0.7096         13.932       1110.559       141.1228         0.7817       -57.9799        -3.4628         0.8781
      1845.5000         0.7156        13.9324       1111.695       145.4751         0.7905       -57.9588        -3.4473      0.8793917
      1846.0000         0.7217        13.8182        1112.83       148.9902         0.7958       -57.9368        -3.4308      0.8807667
      1846.5000         0.7277        13.8137       1113.965       152.3003         0.8011       -57.9147        -3.4142        0.88215
      1847.0000         0.7338        13.8576       1109.174       152.1975         0.8064       -57.8974        -3.4024      0.8831334
      1847.5000         0.7398        13.7755       1104.227       150.1028         0.8125       -57.8852        -3.3957      0.8836917
      1848.0000         0.7457        13.6789       1099.279       150.1172         0.8255        -57.873        -3.3891      0.8842416
      1848.5000         0.7516        13.7421        1086.08       154.2964         0.8385       -57.8288        -3.3504      0.8874667
      1849.0000         0.7575        13.8276       1065.186       151.7788         0.8515       -57.7441        -3.2712      0.8940667
      1849.5000         0.7633        13.6578       1044.492       142.3401         0.8706       -57.5522        -3.0848         0.9096
      1850.0000         0.7692        13.3118       1027.498       137.8481          0.893       -57.2925        -2.8306      0.9307833
      1850.5000         0.7737        12.6034       1010.504       140.2493         0.9154        -57.035        -2.5787       0.951775
      1851.0000         0.7771        12.4203       994.9668       143.1028         0.9283        -57.332        -2.8812      0.9265667
      1851.5000         0.7773        12.7153       981.7842        143.522         0.9348       -57.6375        -3.1922        0.90065
      1852.0000         0.7717        13.1233       973.3174       139.8679         0.9312       -57.8886        -3.4488      0.8792667
      1852.5000         0.7661        13.1449       995.5752       138.1372         0.9097       -57.8069        -3.3727      0.8856083
      1853.0000         0.7604        13.4209       1017.834       138.4861         0.8883       -57.6108        -3.1821      0.9014916
      1853.5000         0.7548        13.5652       1052.078        142.947         0.8669       -57.3727        -2.9495       0.920875
