#------------------------------------------------------------------------------
# Created by    : vladimir.rabinovich
# Created on    : 09/19/2023 17:22:56
#------------------------------------------------------------------------------
~Version Information Section
VERS.           2.0     :   CWLS log ASCII Standard - VERSION 2.0
WRAP.           NO      :   One line per depth step
~Well Information Section
#MNEM       .UNIT                                         VALUE :DESCRIPTION
#------------------------------------------------------------------------------
STRT        .FT                                             513 :START DEPTH
STOP        .FT                                           16000 :STOP DEPTH
STEP        .FT                                             0.5 :STEP      
NULL        .                                           -999.25 :NULL      
COMP        .              PENNZOIL EXPLORATION & PRODUCTION CO :COMPANY   
WELL        .                                ST TR 00486-L SE/4 :WELL      
FLD         .                                           WILDCAT :FIELD     
LOC         .                                                   :LOCATION  
CNTY        .                      MATAGORDA ISLAND LARGE BLOCK :LOCATION  
STAT        .                                             TEXAS :STATE     
CTRY        .                                     UNITED STATES :COUNTRY   
SRVC        .                                                   :SERVICE COMPANY
DATE        .                             9/13/2023 11:19:05 AM :LOG DATE  
API         .                                    42703302080000 :API NUMBER
UWI         .                                    42703302080000 :UNIQUE WELL ID
XCOORD      .                                  648049.134083277 :SURFACE X 
YCOORD      .                                  10318924.3450998 :SURFACE Y 
LAT         .                                        28.3999658 :LATITUDE  
LON         .                                       -96.0869402 :LONGITUDE 
ELEV        .FT                                              47 :ELEVATION VALUE
ELEV_TYPE   .                                                KB :ELEVATION REFERENCE TYPE
~Curve Information Section
#MNEM       .UNIT                                      API CODE :CURVE DESCRIPTION
#------------------------------------------------------------------------------
DEPT        .FT                                                 :DEPTH     
SFL         .OHMM                                               :          
SP          .MV                                                 :          
SP_NORM     .MV                                                 :SP Normalized
VSH_SP      .V/V                                                :Volume of Shale from SP
~A        DEPTH            SFL             SP        SP_NORM         VSH_SP
# ...
      9788.0000         1.5246       -61.6162      -5.870804      0.9294087
      9788.5000         1.4344        -59.851      -4.128078      0.9546655
      9789.0000         1.3755       -58.1497      -2.449253      0.9789963
      9789.5000         1.3417       -56.9084      -1.230427      0.9966605
      9790.0000         1.3231       -56.5526     -0.8970985              1
      9790.5000         1.3271        -56.976      -1.342976      0.9950293
      9791.0000         1.4105       -58.0502      -2.439648      0.9791355
      9791.5000          1.855       -59.0867      -3.498623      0.9637881
      9792.0000         2.7866       -59.8234      -4.257793      0.9527856
      9792.5000         2.8511       -60.0839      -4.540768      0.9486845
      9793.0000         2.1261       -59.8098      -4.289143      0.9523312
      9793.5000          1.532       -59.4238      -3.925617      0.9575998
      9794.0000          1.238       -58.5572       -3.08149      0.9698335
      9794.5000         1.1983       -57.6352      -2.181965      0.9828701
      9795.0000          1.181       -57.0295      -1.598736      0.9913227
      9795.5000         1.1698       -56.4305      -1.022209      0.9996781
      9796.0000         1.1762       -55.7657     -0.3798866              1
      9796.5000         1.1981       -55.0606       0.302742              1
      9797.0000         1.2524       -54.4221      0.9187698              1
      9797.5000          1.313       -53.8391       1.479294              1
      9798.0000         1.3711       -53.2494        2.04652              1
      9798.5000         1.4054       -52.6513        2.62215              1
      9799.0000         1.3405       -52.1218       3.129173              1
      9799.5000         1.2319       -51.6232       3.605301              1
      9800.0000         1.1411       -51.4469       3.759125              1
      9800.5000         1.0759       -51.3228       3.860752              1
      9801.0000           1.06       -51.7593       3.401779              1
      9801.5000         1.1506       -52.5461       2.592503              1
      9802.0000         1.4102       -53.5809       1.535233              1
      9802.5000         1.7539       -54.5048      0.5888596              1
      9803.0000         1.8311       -55.3235     -0.2523193              1
      9803.5000         1.6808       -55.2535      -0.204792              1
      9804.0000         1.4953       -55.1592     -0.1329613              1
      9804.5000         1.3818       -54.8475      0.1562614              1
      9805.0000          1.318       -54.4578      0.5234871              1
      9805.5000         1.2332       -53.4626       1.496216              1
      9806.0000         1.1694       -52.6935        2.24284              1
      9806.5000         1.1551       -52.0438       2.870068              1
      9807.0000         1.1689       -52.4654       2.425995              1
      9807.5000         1.2571        -53.056        1.81292              1
      9808.0000         1.3881       -53.7142       1.132248              1
      9808.5000         1.6252       -54.3837      0.4402695              1
      9809.0000         1.7824       -55.3555     -0.5540009              1
      9809.5000         1.7711       -56.4371      -1.658073      0.9904627
      9810.0000         1.6937       -57.8455      -3.088951      0.9697254
      9810.5000         1.5898       -59.4341      -4.700024      0.9463764
      9811.0000          1.484       -60.9534      -6.241795       0.924032
      9811.5000          1.428       -62.1721      -7.482971      0.9060439
      9812.0000         1.4032       -63.1298      -8.463142      0.8918385
      9812.5000         1.4198       -63.4996      -8.855415      0.8861534
      9813.0000         1.4504       -63.4901      -8.868393      0.8859653
      9813.5000         1.4648       -63.3673      -8.768063      0.8874194
      9814.0000         1.4708       -62.9129      -8.336136      0.8936792
      9814.5000         1.4665       -62.4584      -7.904114      0.8999404
      9815.0000         1.4574       -61.7533      -7.221485      0.9098336
      9815.5000         1.4359       -60.8482       -6.33886      0.9226252
      9816.0000         1.4043       -60.0224      -5.535534      0.9342676
      9816.5000         1.3462       -59.6891      -5.224705      0.9387724
      9817.0000         1.3632       -59.3553      -4.913383      0.9432843
      9817.5000         1.3849       -59.0576      -4.638153      0.9472731
      9818.0000         1.3938       -58.7637      -4.366726      0.9512069
      9818.5000         1.3573       -58.6483      -4.273804      0.9525536
      9819.0000         1.3584       -59.2041      -4.852077      0.9441728
      9819.5000         1.4799       -59.5693       -5.23975      0.9385543
      9820.0000         1.5916       -60.0266      -5.719524      0.9316011
      9820.5000         1.6048       -60.3137      -6.029099      0.9271145
      9821.0000         1.5963       -60.4684      -6.206268      0.9245468
      9821.5000         1.5766       -60.5699      -6.330246      0.9227501
      9822.0000         1.5479       -60.5812      -6.364017      0.9222606
      9822.5000         1.5172       -60.5926      -6.397892      0.9217697
      9823.0000         1.4832       -60.6053      -6.433067      0.9212599
      9823.5000         1.4197       -60.6197       -6.46994      0.9207255
      9824.0000         1.3574        -60.634       -6.50671      0.9201926
      9824.5000         1.3416       -60.2717      -6.166889      0.9251176
      9825.0000         1.3596       -59.9031      -5.820759      0.9301339
      9825.5000         1.3703       -59.3008      -5.240936      0.9385372
      9826.0000         1.3713       -58.5656       -4.52821      0.9488665
      9826.5000         1.3543       -57.9225      -3.907581      0.9578611
      9827.0000           1.37        -57.418      -3.425556       0.964847
      9827.5000          1.431       -57.5833      -3.613331      0.9621257
      9828.0000         1.5175        -57.868      -3.920502      0.9576739
      9828.5000         1.5676       -58.3093      -4.384277      0.9509525
      9829.0000         1.5611       -58.8596       -4.95705      0.9426515
      9829.5000         1.5449       -59.0342      -5.154121      0.9397953
      9830.0000         1.5191       -58.5816      -4.723999       0.946029
      9830.5000         1.4919       -57.7385       -3.90337      0.9579222
      9831.0000         1.4652       -56.7854      -2.972744      0.9714095
      9831.5000         1.4355       -55.9845      -2.194321       0.982691
      9832.0000         1.3887       -55.0775      -1.309792      0.9955103
      9832.5000         1.3394       -53.8306     -0.0853653              1
      9833.0000         1.3252       -53.1283      0.5944595              1
      9833.5000         1.3614       -52.9344      0.7658882              1
      9834.0000         1.4226       -52.9457      0.7321091              1
      9834.5000          1.448       -53.1799      0.4754372              1
      9835.0000         1.4779       -53.6081     0.02476501              1
      9835.5000         1.5131       -53.9758     -0.3654099              1
      9836.0000         1.5383       -53.9286      -0.340683              1
      9836.5000         1.5213       -53.6494    -0.08395386              1
      9837.0000         1.4137       -53.2119      0.3310699              1
      9837.5000         1.3502        -52.848      0.6724968              1
      9838.0000         1.3369       -52.5189      0.9791222              1
      9838.5000         1.3535       -52.2631       1.212448              1
      9839.0000         1.3702       -52.2023       1.250774              1
      9839.5000          1.375       -52.4016       1.029003              1
      9840.0000         1.3781       -52.5551      0.8530273              1
      9840.5000         1.3957       -52.4396      0.9460526              1
