#------------------------------------------------------------------------------
# Created by    : vladimir.rabinovich
# Created on    : 09/19/2023 17:22:30
#------------------------------------------------------------------------------
~Version Information Section
VERS.           2.0     :   CWLS log ASCII Standard - VERSION 2.0
WRAP.           NO      :   One line per depth step
~Well Information Section
#MNEM       .UNIT                                         VALUE :DESCRIPTION
#------------------------------------------------------------------------------
STRT        .FT                                             328 :START DEPTH
STOP        .FT                                            8026 :STOP DEPTH
STEP        .FT                                             0.5 :STEP      
NULL        .                                           -999.25 :NULL      
COMP        .                                 MESA PETROLEUM CO :COMPANY   
WELL        .                                ST TR 00565-L NW/4 :WELL      
FLD         .                                           WILDCAT :FIELD     
LOC         .                                                   :LOCATION  
CNTY        .                      MATAGORDA ISLAND LARGE BLOCK :LOCATION  
STAT        .                                             TEXAS :STATE     
CTRY        .                                     UNITED STATES :COUNTRY   
SRVC        .                                                   :SERVICE COMPANY
DATE        .                             9/13/2023 11:12:01 AM :LOG DATE  
API         .                                    42703301780000 :API NUMBER
UWI         .                                    42703301780000 :UNIQUE WELL ID
XCOORD      .                                  585273.186473096 :SURFACE X 
YCOORD      .                                  10269188.7462706 :SURFACE Y 
LAT         .                                          28.25878 :LATITUDE  
LON         .                                       -96.2777629 :LONGITUDE 
ELEV        .FT                                              82 :ELEVATION VALUE
ELEV_TYPE   .                                                KB :ELEVATION REFERENCE TYPE
~Curve Information Section
#MNEM       .UNIT                                      API CODE :CURVE DESCRIPTION
#------------------------------------------------------------------------------
DEPT        .FT                                                 :DEPTH     
CILD        .MMHO                                               :          
DT          .US/F                                               :          
ILD         .OHMM                                               :          
SFL         .OHMM                                               :          
SP          .MV                                                 :          
SP_NORM     .MV                                                 :SP Normalized
VSH_SP      .V/V                                                :Volume of Shale from SP
~A        DEPTH           CILD             DT            ILD            SFL             SP        SP_NORM         VSH_SP
# ...
      7999.5000       2667.598       118.5188         0.3852         0.7239       -49.9885      -10.46754      0.8627893
      8000.0000       2649.176        118.537         0.3888         1.0622       -49.7883      -10.26734      0.8656907
      8000.5000       2609.777       118.6278          0.392         0.9022       -48.5601      -9.039143      0.8834907
      8001.0000        2543.68       118.6537         0.3869         0.5319       -46.3976       -6.87664      0.9148313
      8001.5000       2493.531       118.6665         0.3814          0.435       -43.9277      -4.406742      0.9506269
      8002.0000       2541.582       118.6794         0.3749         0.4615       -43.7491      -4.228142      0.9532154
      8002.5000       2627.574       118.6333         0.3685         0.5458       -44.3881      -4.867142      0.9439545
      8003.0000        2700.57        118.561         0.3647         0.5139       -44.0911      -4.570141      0.9482588
      8003.5000       2760.066       118.4888         0.3612          0.453       -43.2482      -3.727242      0.9604748
      8004.0000       2810.113       118.4546         0.3577         0.4154       -42.1224       -2.60144      0.9767907
      8004.5000       2853.461       118.4355         0.3544         0.4133       -41.4788      -1.957844      0.9861182
      8005.0000       2892.059       118.4165         0.3513         0.4529         -43.34      -3.819042      0.9591443
      8005.5000        2909.91       118.4325         0.3486         0.6085       -45.1627      -5.641743      0.9327284
      8006.0000       2918.184       118.4529         0.3476         0.7107       -44.7361      -5.215141       0.938911
      8006.5000       2920.809       118.4731         0.3467         0.6416       -42.8291      -3.308144      0.9665486
      8007.0000       2938.082         118.47         0.3457         0.5324       -40.4063     -0.8853416              1
      8007.5000       2970.707       118.4633         0.3451         0.4457       -38.6307      0.8902588              1
      8008.0000       3015.453       118.4565         0.3444         0.4052        -37.707       1.813957              1
      8008.5000           3047        118.434         0.3456         0.4595       -37.1136       2.407356              1
      8009.0000       3057.039       118.4032         0.3524         0.5387       -37.0139       2.507057              1
      8009.5000       2966.957       118.3724         0.3649         0.6021       -38.4931       1.027859              1
      8010.0000       2840.465        118.345         0.3785         0.5558       -39.6475     -0.1265411              1
      8010.5000        2702.27       118.3259         0.3981         0.4899       -41.4974       -1.97644      0.9858487
      8011.0000        2577.68       118.3069         0.4198         0.4509       -43.4565      -3.935543      0.9574559
      8011.5000       2476.184       118.2889         0.4422         0.5442       -46.0059      -6.484943      0.9205081
      8012.0000       2419.289        118.285         0.4614         0.9527       -49.3536      -9.832642      0.8719907
      8012.5000       2384.828        118.281         0.4434         0.9513       -52.8602      -13.33924      0.8211704
      8013.0000       2415.789       118.2849         0.4029         0.6684       -47.3499      -7.828941      0.9010298
      8013.5000       2514.684       118.2988          0.378          0.431       -43.3549      -3.833942      0.9589283
      8014.0000       2644.074       118.3142          0.361          0.399       -42.8018      -3.280842      0.9669443
      8014.5000       2796.867       118.3657         0.3518         0.3961       -45.5842      -6.063244      0.9266196
      8015.0000       2976.457       118.4171         0.3444         0.3997       -45.9315      -6.410542      0.9215863
      8015.5000       3137.648       118.4595         0.3389         0.4033       -46.2321      -6.711143      0.9172298
      8016.0000       3232.793       118.4994         0.3335         0.4073       -47.8881      -8.367142      0.8932298
      8016.5000       3267.863       118.4557         0.3292         0.4114       -47.5979      -8.076942      0.8974356
      8017.0000       3288.762       118.3732         0.3251         0.4151       -42.5092      -2.988243      0.9711849
      8017.5000       3294.344       118.0651         0.3217          0.417       -41.4776      -1.956642      0.9861356
      8018.0000       3294.199       116.1128         0.3189         0.4189       -47.3599      -7.838943      0.9008849
      8018.5000       3292.082        87.2334         0.3161         0.4205       -50.1769      -10.65594      0.8600588
      8019.0000       3286.301        80.3646         0.3145         0.4213       -49.5657      -10.04474      0.8689167
      8019.5000           3280        80.4644         0.3131          0.422       -45.5942      -6.073242      0.9264748
      8020.0000       3272.266        80.5079          0.312         0.4227       -41.2544       -1.73344      0.9893704
      8020.5000       3265.191        80.5466         0.3119         0.4244       -38.6779      0.8430595              1
      8021.0000       3259.145        80.5853         0.3118         0.4263       -38.7963       0.724659              1
      8021.5000       3255.004         80.624         0.3122         0.4283       -39.3276      0.1933594              1
      8022.0000       3252.629        80.6404         0.3126         0.4301       -40.7981      -1.277142      0.9959835
      8022.5000       3250.984        80.4801         0.3129         0.4307       -42.9233      -3.402344      0.9651834
      8023.0000        3250.07        80.3199         0.3133         0.4314       -44.4547      -4.933743      0.9429892
      8023.5000       3249.367        80.1597         0.3143         0.4321       -45.3053      -5.784344      0.9306617
      8024.0000       3248.785        79.9996         0.3159         0.4326       -45.7108      -6.189842      0.9247849
      8024.5000       3249.063        79.8394         0.3174         0.4329       -45.9129      -6.391941      0.9218559
      8025.0000       3251.164        79.6792         0.3187         0.4332        -45.937      -6.416042      0.9215066
      8025.5000       3253.262        79.5189         0.3199         0.4335       -45.7606      -6.239643      0.9240631
      8026.0000       3255.332        79.3588         0.3205         0.4345       -45.6836      -6.162643      0.9251791
