#------------------------------------------------------------------------------
# Created by    : vladimir.rabinovich
# Created on    : 09/19/2023 17:22:51
#------------------------------------------------------------------------------
~Version Information Section
VERS.           2.0     :   CWLS log ASCII Standard - VERSION 2.0
WRAP.           NO      :   One line per depth step
~Well Information Section
#MNEM       .UNIT                                         VALUE :DESCRIPTION
#------------------------------------------------------------------------------
STRT        .FT                                             970 :START DEPTH
STOP        .FT                                           10993 :STOP DEPTH
STEP        .FT                                             0.5 :STEP      
NULL        .                                           -999.25 :NULL      
COMP        .                               AMOCO PRODUCTION CO :COMPANY   
WELL        .                                     ST TR 00558-L :WELL      
FLD         .                                           WILDCAT :FIELD     
LOC         .                                                   :LOCATION  
CNTY        .                      MATAGORDA ISLAND LARGE BLOCK :LOCATION  
STAT        .                                             TEXAS :STATE     
CTRY        .                                     UNITED STATES :COUNTRY   
SRVC        .                                                   :SERVICE COMPANY
DATE        .                             9/13/2023 11:19:13 AM :LOG DATE  
API         .                                    42703301770000 :API NUMBER
UWI         .                                    42703301770000 :UNIQUE WELL ID
XCOORD      .                                   593347.98828382 :SURFACE X 
YCOORD      .                                   10274817.073936 :SURFACE Y 
LAT         .                                        28.2748406 :LATITUDE  
LON         .                                       -96.2531821 :LONGITUDE 
ELEV        .FT                                              93 :ELEVATION VALUE
ELEV_TYPE   .                                                KB :ELEVATION REFERENCE TYPE
~Curve Information Section
#MNEM       .UNIT                                      API CODE :CURVE DESCRIPTION
#------------------------------------------------------------------------------
DEPT        .FT                                                 :DEPTH     
GR          .GAPI                                               :          
GR_NORM     .GAPI                                               :GammaRay Normalized
ILD         .OHMM                                               :          
SP          .MV                                                 :          
SP_NORM     .MV                                                 :SP Normalized
VSH_GR      .V/V                                                :Volume of Shale from GR
VSH_SP      .V/V                                                :Volume of Shale from SP
~A        DEPTH             GR        GR_NORM            ILD             SP        SP_NORM         VSH_GR         VSH_SP
# ...
      2980.0000        27.8983       37.86284         0.7904       -158.865      -26.33488      0.1034647       0.324031
      2980.5000        26.8144       34.94867         0.7076      -161.3838      -28.85368     0.04146113      0.2540644
      2981.0000        25.7778        32.1615         0.6581      -162.6494      -30.11928              0       0.218909
      2981.5000        25.5816       31.63083         0.6252      -163.3752      -30.84508              0      0.1987478
      2982.0000        26.9496       35.30005          0.603      -163.2825      -30.75238     0.04893729      0.2013228
      2982.5000        28.0592       38.27545         0.5925      -162.8669      -30.33678      0.1122436      0.2128673
      2983.0000        28.6774       39.93146         0.5904      -162.4102      -29.88008      0.1474779      0.2255533
      2983.5000        29.2339       41.42181         0.5982      -161.9949      -29.46478      0.1791874      0.2370894
      2984.0000        29.7711       42.86031         0.6092      -162.0874      -29.55728      0.2097937        0.23452
      2984.5000        30.0132       43.50646          0.625      -162.4854      -29.95528      0.2235418      0.2234645
      2985.0000        29.6111       42.42295         0.6386      -163.2644      -30.73428      0.2004883      0.2018255
      2985.5000        28.9716         40.702         0.6464       -164.353      -31.82288      0.1638723      0.1715868
      2986.0000         28.101       38.36052         0.6313      -165.6157      -33.08559      0.1140537      0.1365115
      2986.5000        26.6954       34.58259         0.6022      -167.5471      -35.01698     0.03367209     0.08286158
      2987.0000        25.7285       31.98257         0.5777      -168.7888      -36.25868              0     0.04836994
      2987.5000        26.0757       32.91093         0.5547      -169.4805      -36.95038              0     0.02915616
      2988.0000        27.6239       37.06399          0.537      -169.7817      -37.25157     0.08646791     0.02078968
      2988.5000        27.9701       37.98965         0.5204      -169.7332      -37.20308      0.1061627     0.02213669
      2989.0000        28.2436       38.72013         0.5079       -169.459      -36.92888      0.1217048     0.02975337
      2989.5000        28.4638        39.3075         0.5021      -169.2559      -36.72578      0.1342022     0.03539488
      2990.0000        28.6137        39.7061          0.505       -169.072      -36.54189      0.1426829     0.04050319
      2990.5000        28.7423       40.04749         0.5119      -169.1028      -36.57268      0.1499466     0.03964784
      2991.0000        28.4393       39.23006         0.5199      -169.1001      -36.56998      0.1325545     0.03972287
      2991.5000        27.8516       37.64821          0.529      -168.8774      -36.34727     0.09889805     0.04590903
      2992.0000        26.9329       35.17757         0.5382      -168.4431      -35.91298     0.04633136      0.0579728
      2992.5000        25.9522       32.54049         0.5458      -167.8228      -35.29268              0     0.07520337
      2993.0000        26.2695       33.38857         0.5534        -167.03      -34.49988    0.008267504     0.09722561
      2993.5000        26.8608       34.97234         0.5616      -166.5823      -34.05219     0.04196475      0.1096615
      2994.0000        27.0545       35.48856         0.5705      -166.7742      -34.24408     0.05294808      0.1043311
      2994.5000         27.102        35.6122         0.5787      -167.4395      -34.90938     0.05557868     0.08585061
      2995.0000        27.1613       35.76756         0.5855      -167.9009      -35.37077     0.05888416     0.07303408
      2995.5000        27.2249       35.93444         0.5876      -168.1321      -35.60197     0.06243491     0.06661182
      2996.0000        27.4995       36.66786         0.5874      -168.1555      -35.62538     0.07803962     0.06596163
      2996.5000        27.9016       37.74363         0.5837      -168.1467      -35.61658      0.1009282     0.06620619
      2997.0000        28.2328       38.62904         0.5801      -167.9722      -35.44208      0.1197667      0.0710534
      2997.5000        28.5118       39.37427         0.5709      -168.0181      -35.48798      0.1356227     0.06977844
      2998.0000        28.7764       40.08086         0.5552      -168.3835      -35.85338      0.1506565     0.05962838
      2998.5000        29.0078       40.69827         0.5405       -168.894      -36.36388       0.163793     0.04544788
      2999.0000        29.0109       40.70271         0.5289      -169.2837      -36.75359      0.1638875     0.03462262
      2999.5000        28.4214       39.11602         0.5176       -169.561      -37.03088       0.130128     0.02691989
      3000.0000        27.6892       37.14615         0.5097      -169.7651      -37.23499     0.08821601     0.02125041
      3000.5000         27.025        35.3589         0.5024      -169.9255      -37.39539     0.05018932     0.01679484
      3001.0000        26.5417       34.05734         0.4963      -170.0928      -37.56268     0.02249657     0.01214769
      3001.5000        26.3473       33.53148         0.4926      -170.2896      -37.75948     0.01130806     0.00668123
      3002.0000        26.2949       33.38692         0.4889      -170.4866      -37.95648     0.00823236    0.001208835
      3002.5000        26.3836       33.62117         0.4876      -170.5698      -38.03967     0.01321646              0
      3003.0000        26.7154       34.50822         0.4865      -170.6492      -38.11908     0.03208972              0
      3003.5000        26.8123       34.76449         0.4899      -170.6907      -38.16058     0.03754238              0
      3004.0000        26.5611       34.08614         0.4989      -170.7224      -38.19228     0.02310944              0
      3004.5000        26.6305       34.26861         0.5104      -170.5918      -38.06168     0.02699174              0
      3005.0000        27.4072       36.35018         0.5215      -170.4543      -37.92418     0.07128046    0.002106137
      3005.5000        28.3696       38.93037         0.5323      -170.2737      -37.74358       0.126178    0.007122887
      3006.0000        28.1908       38.44638         0.5405      -169.8813      -37.35118      0.1158805     0.01802275
      3006.5000        27.3306       36.13287         0.5481      -169.1777      -36.64758     0.06665672     0.03756714
      3007.0000        27.0229        35.3028         0.5542      -168.2422      -35.71208     0.04899565     0.06355328
      3007.5000        26.7929       34.68135         0.5583      -167.9055      -35.37538     0.03577342     0.07290607
      3008.0000        27.0586       35.39089         0.5489      -167.9146      -35.38448     0.05086996     0.07265345
      3008.5000        27.7583        37.2657         0.5312      -167.9116      -35.38148     0.09075961     0.07273653
      3009.0000        28.8493       40.19118         0.5061      -167.8623      -35.33218      0.1530039     0.07410601
      3009.5000        29.7849       42.69942         0.4786      -167.8362      -35.30608      0.2063707     0.07483122
      3010.0000         30.604       44.89485          0.451      -167.8708      -35.34068      0.2530819     0.07386991
      3010.5000        29.4786       41.86924         0.4296      -167.7771      -35.24698      0.1887073     0.07647281
      3011.0000        29.0588       40.73817         0.4134      -167.1973      -34.66718       0.164642     0.09257846
      3011.5000        29.0545       40.72276         0.4027      -165.9231      -33.39297       0.164314      0.1279729
      3012.0000        29.5079       41.93626         0.4048       -164.478      -31.94788      0.1901332      0.1681146
      3012.5000         30.037       43.35304         0.4363       -162.814      -30.28387      0.2202775      0.2143368
      3013.0000        30.5663       44.77032         0.4791      -161.9072      -29.37708      0.2504324      0.2395257
