#------------------------------------------------------------------------------
# Created by    : vladimir.rabinovich
# Created on    : 09/19/2023 17:19:49
#------------------------------------------------------------------------------
~Version Information Section
VERS.           2.0     :   CWLS log ASCII Standard - VERSION 2.0
WRAP.           NO      :   One line per depth step
~Well Information Section
#MNEM       .UNIT                                         VALUE :DESCRIPTION
#------------------------------------------------------------------------------
STRT        .FT                                            1295 :START DEPTH
STOP        .FT                                            4592 :STOP DEPTH
STEP        .FT                                             0.5 :STEP      
NULL        .                                           -999.25 :NULL      
COMP        .                     FREEPORT-MCMORAN OIL & GAS CO :COMPANY   
WELL        .                                     ST TR 00662-L :WELL      
FLD         .                                         SIX-SIXTY :FIELD     
LOC         .                                                   :LOCATION  
CNTY        .                      MATAGORDA ISLAND LARGE BLOCK :LOCATION  
STAT        .                                             TEXAS :STATE     
CTRY        .                                     UNITED STATES :COUNTRY   
SRVC        .                                                   :SERVICE COMPANY
DATE        .                             9/13/2023 11:19:13 AM :LOG DATE  
API         .                                    42703300650000 :API NUMBER
UWI         .                                    42703300650000 :UNIQUE WELL ID
XCOORD      .                                  434889.841251994 :SURFACE X 
YCOORD      .                                  10179416.4588751 :SURFACE Y 
LAT         .                                        28.0002971 :LATITUDE  
LON         .                                       -96.7355909 :LONGITUDE 
ELEV        .FT                                              77 :ELEVATION VALUE
ELEV_TYPE   .                                                KB :ELEVATION REFERENCE TYPE
~Curve Information Section
#MNEM       .UNIT                                      API CODE :CURVE DESCRIPTION
#------------------------------------------------------------------------------
DEPT        .FT                                                 :DEPTH     
ASFL        .OHMM                                               :          
CILD        .MMHO                                               :          
ILD         .OHMM                                               :          
SFL         .OHMM                                               :          
SP          .MV                                                 :          
SP_NORM     .MV                                                 :SP Normalized
VSH_SP      .V/V                                                :Volume of Shale from SP
~A        DEPTH           ASFL           CILD            ILD            SFL             SP        SP_NORM         VSH_SP
# ...
      3037.0000         0.9839       1033.916         0.9463         0.9523       -26.9753      -2.954283      0.9555845
      3037.5000         1.0423       1006.632         0.9812         0.9756       -27.6763      -3.664154       0.939451
      3038.0000         1.0879        987.335         1.0161         0.9988       -28.4412      -4.437923      0.9218654
      3038.5000         1.1183       969.9121          1.051         1.0221       -29.2505      -5.256094      0.9032706
      3039.0000         1.1453       952.5029         1.0725          1.042       -30.3393      -6.353764      0.8783236
      3039.5000         1.1361       935.0801         1.0941         1.0597       -30.6545      -6.677834      0.8709583
      3040.0000         1.0903       920.3125         1.1128         1.0775       -29.7539      -5.786104      0.8912249
      3040.5000         1.0631       905.8779         1.1235         1.0978       -28.6768      -4.717875      0.9155028
      3041.0000         1.0418       891.4443         1.1342         1.1246       -26.9823      -3.032246      0.9538126
      3041.5000         1.0848       875.3457         1.1557         1.1514       -27.4567      -3.515514      0.9428292
      3042.0000         1.1524       856.2783         1.2002         1.1961       -29.0235      -5.091187      0.9070185
      3042.5000         1.2117       837.1982         1.2446          1.276       -30.5194      -6.595955      0.8728192
      3043.0000         1.2952       810.6689         1.3063         1.3541       -30.2992      -6.384626      0.8776221
      3043.5000         1.4079       779.3379         1.3812         1.4363       -28.5597      -4.653996      0.9169546
      3044.0000         1.5695        713.498         1.4559         1.5415       -26.8793      -2.982466       0.954944
      3044.5000         1.6455       640.9629         1.5292         1.6519       -25.6308      -1.742838      0.9831173
      3045.0000            1.7       580.2568         1.6025         1.7669       -24.8171     -0.9380074              1
      3045.5000         1.7735       540.6982         1.6777         1.8697         -24.66     -0.7897778              1
      3046.0000         1.8762       519.4893         1.7593         1.9318       -24.8624      -1.001047      0.9999762
      3046.5000         2.0452       501.7148         1.8408         1.9801       -24.5779     -0.7254181              1
      3047.0000         2.0861       488.9019         1.9471         2.0078       -24.1603     -0.3166866              1
      3047.5000         2.1048       479.2466         2.0213         2.0119       -23.7262      0.1085415              1
      3048.0000         2.0967        480.437         2.0514          2.016       -23.2361      0.5897713              1
      3048.5000         1.9753        481.627         2.0816         2.0201       -22.9319      0.8851013              1
      3049.0000         1.9182       494.8784         2.0741         2.0242        -22.857      0.9511299              1
      3049.5000         1.8802       517.1514         2.0081         2.0283       -22.6439       1.155361              1
      3050.0000          1.854       539.4238         1.8376         1.6829       -22.0665        1.72389              1
      3050.5000         1.8204       591.2451         1.6072         1.5998       -21.6076       2.173922              1
      3051.0000         1.7364       647.1992         1.4675         1.5572       -23.8801     -0.1074505              1
      3051.5000         1.6476       692.3877         1.3795         1.5298       -28.3006      -4.536821      0.9196177
      3052.0000         1.7338       737.3789         1.3112         1.6025        -32.832      -9.077091      0.8164297
      3052.5000         1.7807       781.3799         1.2471         1.6606       -35.3106      -11.56456      0.7598963
      3053.0000          1.819       824.9355         1.1891          1.718       -37.3031      -13.56593      0.7144107
      3053.5000         1.8573       866.4619         1.1319         1.7741       -42.4613        -18.733      0.5969772
      3054.0000         1.8861       905.1172         1.0842         1.7907       -46.1422      -22.42277      0.5131188
      3054.5000         1.8335        944.293         1.0365         1.7442       -47.1011      -23.39054       0.491124
      3055.0000         1.7809       987.1553         0.9931         1.6958       -47.9052      -24.20351      0.4726474
      3055.5000          1.733       1030.043         0.9509         1.6417       -49.1234      -25.43058      0.4447595
      3056.0000         1.6957        1078.82         0.9088         1.5876        -52.119      -28.43505      0.3764761
      3056.5000         1.6592        1128.76         0.8657         1.5335       -54.2335      -30.55842      0.3282176
      3057.0000         1.6104       1211.119         0.8219         1.4617       -56.2149      -32.54869      0.2829842
      3057.5000         1.5514       1292.936         0.7782         1.3892       -58.0976      -34.44026       0.239994
      3058.0000         1.4955       1387.965          0.743         1.3264       -59.9617      -36.31323      0.1974265
      3058.5000         1.4124        1486.98         0.7085          1.276       -61.7815      -38.14191      0.1558658
      3059.0000          1.262       1546.027         0.6741         1.2256       -63.6691      -40.03838      0.1127642
      3059.5000         1.1907        1603.49         0.6463         1.2104       -62.9832      -39.36134      0.1281513
      3060.0000         1.1906       1669.492         0.6201          1.226       -60.2245      -36.61151      0.1906475
      3060.5000         1.2252       1656.809         0.5958         1.2416        -56.057      -32.45288      0.2851617
      3061.0000         1.2489       1615.023          0.592         1.2571       -50.3596      -26.76436      0.4144464
      3061.5000         1.2655       1571.121         0.5883         1.2401       -47.6738      -24.08743      0.4752857
      3062.0000         1.3023       1526.303         0.6149         1.2069       -46.0804       -22.5029      0.5112978
      3062.5000         1.3216       1457.406         0.6436         1.1704       -45.4413      -21.87267      0.5256212
      3063.0000         1.2721       1402.541         0.6707         1.1372       -46.6979      -23.13814      0.4968605
      3063.5000          1.212        1366.51         0.6909         1.1293        -47.812      -24.26111      0.4713385
      3064.0000         1.1689       1340.197          0.711         1.1215       -48.8724      -25.33038      0.4470369
      3064.5000         1.1395       1347.602         0.7311          1.121       -49.8328      -26.29965      0.4250079
      3065.0000         1.1186       1366.014         0.7412         1.1259       -50.7378      -27.21352      0.4042382
      3065.5000         1.1163       1384.439         0.7497         1.1302        -51.763      -28.24759      0.3807366
      3066.0000          1.135       1400.283         0.7581         1.1318       -52.7642      -29.25766      0.3577805
      3066.5000         1.1464       1404.236          0.765         1.1334       -51.1937      -27.69603      0.3932721
      3067.0000         1.0968        1373.66         0.7618         1.1096       -50.0743       -26.5855      0.4185114
      3067.5000         1.0634       1348.803         0.7586         1.0792       -49.4991      -26.01917      0.4313825
      3068.0000         1.0296       1323.943         0.7518         1.0263       -48.4233      -24.95224      0.4556309
      3068.5000         0.8941        1294.84         0.7425         0.9735       -41.2078      -17.74561      0.6194179
      3069.0000         0.8336       1264.934         0.7305         0.9198       -34.0917      -10.63838      0.7809458
      3069.5000         0.7906       1246.533         0.7152         0.8659       -33.0569       -9.61245      0.8042625
      3070.0000         0.7521       1228.133         0.6743         0.8256       -33.4835      -10.04792      0.7943654
