#------------------------------------------------------------------------------
# Created by    : vladimir.rabinovich
# Created on    : 09/19/2023 17:20:49
#------------------------------------------------------------------------------
~Version Information Section
VERS.           2.0     :   CWLS log ASCII Standard - VERSION 2.0
WRAP.           NO      :   One line per depth step
~Well Information Section
#MNEM       .UNIT                                         VALUE :DESCRIPTION
#------------------------------------------------------------------------------
STRT        .FT                                             556 :START DEPTH
STOP        .FT                                            7001 :STOP DEPTH
STEP        .FT                                             0.5 :STEP      
NULL        .                                           -999.25 :NULL      
COMP        .                          HUMBLE OIL & REFINING CO :COMPANY   
WELL        .                                     ST TR 00598-L :WELL      
FLD         .                                           WILDCAT :FIELD     
LOC         .                                                   :LOCATION  
CNTY        .                      MATAGORDA ISLAND LARGE BLOCK :LOCATION  
STAT        .                                             TEXAS :STATE     
CTRY        .                                     UNITED STATES :COUNTRY   
SRVC        .                                                   :SERVICE COMPANY
DATE        .                             9/13/2023 11:12:05 AM :LOG DATE  
API         .                                    42703000080000 :API NUMBER
UWI         .                                    42703000080000 :UNIQUE WELL ID
XCOORD      .                                  502144.869554487 :SURFACE X 
YCOORD      .                                  10234432.9570627 :SURFACE Y 
LAT         .                                        28.1568958 :LATITUDE  
LON         .                                       -96.5324651 :LONGITUDE 
ELEV        .FT                                              15 :ELEVATION VALUE
ELEV_TYPE   .                                                KB :ELEVATION REFERENCE TYPE
~Curve Information Section
#MNEM       .UNIT                                      API CODE :CURVE DESCRIPTION
#------------------------------------------------------------------------------
DEPT        .FT                                                 :DEPTH     
ASN         .OHMM                                               :          
CALI        .IN                                                 :          
CILD        .MMHO                                               :          
DT          .US/F                                               :          
ILD         .OHMM                                               :          
SP          .MV                                                 :          
SP_NORM     .MV                                                 :SP Normalized
VSH_SP      .V/V                                                :Volume of Shale from SP
~A        DEPTH            ASN           CALI           CILD             DT            ILD             SP        SP_NORM         VSH_SP
# ...
      4391.0000          0.845         10.981       1182.008         148.25         0.8208       -48.2206        -2.0249              1
      4391.5000         0.8496        10.8456         1151.1       148.0278         0.8284       -48.4966        -2.3046              1
      4392.0000         0.8543        10.5738       1124.961       148.5076         0.8355       -48.7728        -2.5844              1
      4392.5000          0.859         10.487       1110.527       149.5117         0.8387       -49.0319        -2.8471              1
      4393.0000         0.8603        10.4935       1101.754       148.1282         0.8419       -49.0846        -2.9034              1
      4393.5000         0.8598        10.5301       1092.982       144.4998          0.845       -49.1373        -2.9597              1
      4394.0000         0.8594        10.5764       1084.217       139.3989         0.8482       -49.1901        -3.0161      0.9989267
      4394.5000          0.859        10.5974        1076.77       138.6689         0.8514       -49.2428        -3.0724       0.995475
      4395.0000         0.8586        10.5763       1074.906       140.6018         0.8546       -49.2789        -3.1121      0.9929938
      4395.5000         0.8597        10.5203       1095.311       143.7136         0.8539       -49.2964        -3.1333      0.9916688
      4396.0000         0.8607        10.4339       1115.582        149.426         0.8512       -49.3139        -3.1544        0.99035
      4396.5000         0.8618        10.4789       1129.496       150.9731         0.8485       -49.3314        -3.1755      0.9890313
      4397.0000         0.8628        10.4479        1143.41       149.4597         0.8417       -49.3489        -3.1966      0.9877125
      4397.5000         0.8639         10.349       1157.324       145.7974         0.8208       -49.4195        -3.2708       0.983075
      4398.0000         0.8623        10.3365       1174.855       140.2175         0.7999       -49.5515        -3.4064         0.9746
      4398.5000         0.8588        10.3137       1192.975         140.95          0.779       -49.6835         -3.542       0.966125
      4399.0000         0.8554        10.2671       1211.107       142.5171         0.7429       -49.8156        -3.6777      0.9576437
      4399.5000         0.8487        10.1429       1252.408       145.0139         0.7034       -49.9811        -3.8469      0.9470688
      4400.0000         0.8365         9.8897       1295.908       148.5276         0.6639       -50.2386         -4.108        0.93075
      4400.5000         0.8244         9.7861       1490.406       148.0464         0.6245        -50.496         -4.369      0.9144375
      4401.0000         0.8148         9.8088       1572.615       147.4846         0.5855       -50.7534          -4.63       0.898125
      4401.5000         0.8117         9.8827       1657.369       147.9224          0.561       -51.0109        -4.8911      0.8818063
      4402.0000         0.8085        10.0111       1757.674       146.3694         0.5817       -51.6688        -5.5526      0.8404625
      4402.5000         0.8088        10.0307       1818.316       146.0449         0.5995       -52.6522        -6.5396       0.778775
      4403.0000         0.8189         9.8621       1766.379       142.3057         0.6133       -53.6801        -7.5711      0.7143062
      4403.5000         0.8291         9.4574       1606.801       134.6416         0.6271       -54.7627        -8.6574      0.6464125
      4404.0000         0.8489         9.0864       1462.041       132.8232         0.6654       -56.0085        -9.9068       0.568325
      4404.5000         0.8837         9.0267       1349.068       130.2056         0.8284       -57.3713       -11.2732       0.482925
      4405.0000         0.9452         9.0952       1259.328       129.9619         0.9708        -57.814       -11.7195      0.4550313
      4405.5000         1.0194         9.1032        1179.27       126.8052         1.0291       -58.0701       -11.9792         0.4388
      4406.0000         1.0931         8.9583       1034.021        115.451         1.0416       -58.5934       -12.5061      0.4058688
      4406.5000         1.1507         8.8826       965.1865       108.5652         0.9928       -59.2462       -13.1625      0.3648437
      4407.0000         1.1553         8.8751       977.0957        97.0052         0.9419       -59.4069       -13.3268       0.354575
      4407.5000          1.042         8.8793       1033.482        96.6385         0.8034       -58.6099       -12.5335      0.4041563
      4408.0000         0.9531         8.8947       1181.227        95.9636         0.6778       -57.8128         -11.74        0.45375
      4408.5000         0.8662         9.0545       1546.744        99.2045         0.5675       -57.3232        -11.254       0.484125
      4409.0000          0.756         9.2615       1864.629       107.1432         0.4776       -57.8505       -11.7849      0.4509438
      4409.5000         0.6737         9.2977        2653.34       118.6893         0.4101       -59.5049       -13.4429      0.3473188
      4410.0000         0.6261          9.189        2926.82       126.6305         0.3525       -60.8915       -14.8331      0.2604312
      4410.5000         0.5973         9.1041           3093       125.2677         0.3199       -61.8493       -15.7945      0.2003437
      4411.0000         0.5771         9.0268       3159.219       125.6793         0.2873       -62.5407       -16.4896         0.1569
      4411.5000          0.557         9.0639       3227.246       123.9934         0.2959       -63.0626       -17.0151      0.1240562
      4412.0000         0.5428         9.1129       3260.762       123.6956         0.3106       -63.5488       -17.5049     0.09344375
      4412.5000         0.5342         9.1212       3250.652       124.3835         0.3254       -63.5022       -17.4619     0.09613121
      4413.0000         0.5255         9.1839       3037.148       123.6467         0.3478       -62.9855       -16.9488      0.1282001
      4413.5000         0.5169          9.422       2854.637       124.1105         0.3719       -61.8804       -15.8473      0.1970438
      4414.0000           0.52         9.7093       2633.094       126.8826          0.396       -60.0031       -13.9736        0.31415
      4414.5000         0.5279         9.9401       2439.527       132.6555         0.4112       -58.5818       -12.5559      0.4027563
      4415.0000         0.5359         9.9288       2387.258       133.5095         0.4107       -58.6702        -12.648          0.397
      4415.5000         0.5444         9.7705       2393.961       131.4492         0.4102        -60.355       -14.3364       0.291475
      4416.0000         0.5536         9.9144       2404.266       127.3167         0.4097       -61.6727       -15.6577      0.2088938
      4416.5000         0.5628        10.3101       2445.738       121.8878         0.4092       -62.4631       -16.4517      0.1592687
      4417.0000          0.572        11.0154       2486.816       119.0522         0.4014       -63.0997       -17.0919      0.1192563
      4417.5000         0.5811        11.7854        2525.43       120.4408         0.3929       -63.4426       -17.4384     0.09759998
      4418.0000         0.5748        12.0814       2564.039         122.65         0.3844        -63.785       -17.7844     0.07597494
      4418.5000         0.5674        12.2097       2610.941       122.2657         0.3759       -64.0785       -18.0815     0.05740631
      4419.0000           0.56        12.0777       2663.953       122.7441         0.3679       -64.2885       -18.2952     0.04404998
      4419.5000          0.553        12.0157        2719.07       121.4138         0.3674       -64.4984       -18.5087     0.03070629
      4420.0000         0.5489        11.7151       2773.941       119.5813         0.3669       -64.6176       -18.6315     0.02303123
