#------------------------------------------------------------------------------
# Created by    : vladimir.rabinovich
# Created on    : 09/19/2023 17:22:56
#------------------------------------------------------------------------------
~Version Information Section
VERS.           2.0     :   CWLS log ASCII Standard - VERSION 2.0
WRAP.           NO      :   One line per depth step
~Well Information Section
#MNEM       .UNIT                                         VALUE :DESCRIPTION
#------------------------------------------------------------------------------
STRT        .FT                                             513 :START DEPTH
STOP        .FT                                           16000 :STOP DEPTH
STEP        .FT                                             0.5 :STEP      
NULL        .                                           -999.25 :NULL      
COMP        .              PENNZOIL EXPLORATION & PRODUCTION CO :COMPANY   
WELL        .                                ST TR 00486-L SE/4 :WELL      
FLD         .                                           WILDCAT :FIELD     
LOC         .                                                   :LOCATION  
CNTY        .                      MATAGORDA ISLAND LARGE BLOCK :LOCATION  
STAT        .                                             TEXAS :STATE     
CTRY        .                                     UNITED STATES :COUNTRY   
SRVC        .                                                   :SERVICE COMPANY
DATE        .                             9/13/2023 11:19:05 AM :LOG DATE  
API         .                                    42703302080000 :API NUMBER
UWI         .                                    42703302080000 :UNIQUE WELL ID
XCOORD      .                                  648049.134083277 :SURFACE X 
YCOORD      .                                  10318924.3450998 :SURFACE Y 
LAT         .                                        28.3999658 :LATITUDE  
LON         .                                       -96.0869402 :LONGITUDE 
ELEV        .FT                                              47 :ELEVATION VALUE
ELEV_TYPE   .                                                KB :ELEVATION REFERENCE TYPE
~Curve Information Section
#MNEM       .UNIT                                      API CODE :CURVE DESCRIPTION
#------------------------------------------------------------------------------
DEPT        .FT                                                 :DEPTH     
SFL         .OHMM                                               :          
SP          .MV                                                 :          
SP_NORM     .MV                                                 :SP Normalized
VSH_SP      .V/V                                                :Volume of Shale from SP
~A        DEPTH            SFL             SP        SP_NORM         VSH_SP
       513.0000         0.2291       -84.5536     -0.6826248              1
       513.5000         0.4255        -84.144     -0.2730255              1
       514.0000         1.2157       -83.8254     0.04557037        0.99783
       514.5000         1.7735       -83.6311      0.2398682      0.9885777
       515.0000          1.854       -83.7267      0.1442719      0.9931299
       515.5000         1.9066       -84.0828     -0.2118301              1
       516.0000         2.1586       -82.6068       1.264175      0.9398012
       516.5000         2.8254       -78.5641        5.30687      0.7472919
       517.0000         3.3477       -77.0715       6.799469      0.6762158
       517.5000         3.5841       -77.5201       6.350868      0.6975777
       518.0000         3.4927       -80.2559       3.615074      0.8278536
       518.5000         3.2951       -83.0763      0.7946701      0.9621586
       519.0000         3.0852       -84.2765     -0.4055252              1
       519.5000         3.0003        -84.457     -0.5860291              1
       520.0000         2.9741       -84.4229     -0.5519257              1
       520.5000         2.9476       -84.3096     -0.4386292              1
       521.0000         2.9103        -84.084      -0.213028              1
       521.5000         2.8697       -83.7633      0.1076736      0.9948727
       522.0000         2.8672       -83.3632      0.5077744      0.9758202
       522.5000         2.8714       -82.8795      0.9914703      0.9527871
       523.0000         2.8853        -82.204       1.666969      0.9206205
       523.5000         2.8684       -81.1837       2.687271      0.8720347
       524.0000         2.8313       -80.2557       3.615273      0.8278441
       524.5000         2.7495       -80.1516       3.719368      0.8228872
       525.0000         2.7029        -80.995       2.875969      0.8630491
       525.5000         2.6955       -81.0461       2.824875      0.8654822
       526.0000         2.7292       -80.7748       3.096169      0.8525634
       526.5000         2.7708        -80.297       3.573975      0.8298107
       527.0000         2.8187       -80.0171       3.853874      0.8164822
       527.5000         2.8135        -79.671       4.199974      0.8000013
       528.0000         2.7874       -79.3132        4.55777      0.7829633
       528.5000         2.6685       -79.4713       4.399673      0.7904918
       529.0000         2.5801       -79.6246       4.246368       0.797792
       529.5000         2.5235       -79.9438        3.92717      0.8129919
       530.0000         2.5172       -80.3146       3.556374      0.8306489
       530.5000         2.6602       -80.5842       3.286774       0.843487
       531.0000         2.9016        -78.934       4.936974       0.764906
       531.5000         3.0442       -78.3801       5.490875      0.7385297
       532.0000         3.0402       -78.2671       5.603874      0.7331489
       532.5000          2.977       -78.3054       5.565575      0.7349727
       533.0000         2.8708       -78.9609       4.910072       0.766187
       533.5000          2.745       -80.2485       3.622475      0.8275012
       534.0000          2.638       -81.3776        2.49337      0.8812681
       534.5000         2.5653       -81.7251       2.145874      0.8978155
       535.0000         2.5242       -81.5697        2.30127      0.8904157
       535.5000         2.5104       -81.3107       2.560272      0.8780823
       536.0000         2.5073       -81.0148       2.856171      0.8639919
       536.5000         2.5065        -80.756       3.114975      0.8516679
       537.0000         2.5099       -80.5065       3.364471      0.8397871
       537.5000         2.5419       -80.1561       3.714874      0.8231012
       538.0000         2.5993       -79.7283        4.14267        0.80273
       538.5000         2.6917       -79.1638       4.707169      0.7758491
       539.0000         2.7307       -77.7231       6.147873      0.7072442
       539.5000         2.7672       -77.1383       6.732674      0.6793965
       540.0000         2.8148       -77.2146       6.656372      0.6830299
       540.5000         2.8949       -77.7051       6.165871      0.7063871
       541.0000         2.9821       -79.3932       4.477768       0.786773
       541.5000         3.0807       -80.5413       3.329674      0.8414441
       542.0000          3.101       -81.2333       2.637672      0.8743966
       542.5000         3.0875       -81.8276       2.043373      0.9026965
       543.0000         3.0354       -82.2092       1.661774      0.9208679
       543.5000         2.9609       -82.4692       1.401772       0.933249
       544.0000         2.8756       -82.6046       1.266373      0.9396966
       544.5000         2.7492        -82.623       1.247971      0.9405729
       545.0000         2.6483       -82.3119       1.559074      0.9257584
       545.5000          2.579       -80.9391        2.93187      0.8603871
       546.0000         2.5691       -79.8397       4.031273      0.8080346
       546.5000         2.5697       -79.2195       4.651474      0.7785012
       547.0000         2.5685       -78.8228       5.048172      0.7596108
       547.5000         2.5646       -78.5834       5.287575      0.7482107
       548.0000         2.5719       -78.9896       4.881371      0.7675538
       548.5000         2.6014       -80.7123       3.158669      0.8495872
       549.0000         2.6305       -82.4268       1.444168      0.9312301
       549.5000         2.6836       -83.1129      0.7580719      0.9639013
       550.0000         2.7591       -83.4517      0.4192734      0.9800346
       550.5000         2.8416       -83.6832      0.1877747      0.9910583
       551.0000         2.8929       -83.9023    -0.03132629              1
       551.5000         2.9012       -84.0652     -0.1942291              1
       552.0000         2.9041        -84.326     -0.4550247              1
       552.5000         2.9154       -84.6282      -0.757225              1
       553.0000         2.9508       -85.1001      -1.229126              1
       553.5000         3.1696       -85.7058      -1.834831              1
       554.0000         3.3537        -86.028      -2.157028              1
       554.5000         3.3654       -85.1608      -1.289825              1
       555.0000         3.1344       -82.8425       1.028473      0.9510251
       555.5000         2.7853       -81.4685       2.402473      0.8855965
       556.0000         2.5475       -80.6775       3.193474      0.8479298
       556.5000         2.4675       -80.7708       3.100174      0.8523726
       557.0000         2.4784       -81.8784       1.992569      0.9051158
       557.5000         2.6026       -83.1453      0.7256699      0.9654443
       558.0000         2.7675       -83.8977    -0.02672577              1
       558.5000         2.9601       -84.0741      -0.203125              1
       559.0000          3.123       -84.1567     -0.2857285              1
       559.5000         3.1726       -84.2129     -0.3259583              1
       560.0000         3.1137       -84.2349     0.02463531      0.9988269
       560.5000           3.02       -84.2301      0.4020233      0.9808561
       561.0000         2.9873       -83.9886       1.016113      0.9516137
       561.5000         3.1598       -83.4922       1.885101      0.9102333
       562.0000         3.3768       -82.6238       3.126099      0.8511382
       562.5000         3.4134       -81.3862        4.73629      0.7744624
       563.0000         3.1245        -79.906       6.589081      0.6862342
       563.5000         2.5837       -78.4329       8.434769      0.5983443
       564.0000         2.2414       -76.8922       10.34806      0.5072352
       564.5000          1.968       -75.0443       12.56856      0.4014972
       565.0000         1.8498       -72.8929       15.09254      0.2813074
       565.5000         1.8857       -71.3428       17.01524      0.1897507
