#------------------------------------------------------------------------------
# Created by    : vladimir.rabinovich
# Created on    : 09/19/2023 17:19:56
#------------------------------------------------------------------------------
~Version Information Section
VERS.           2.0     :   CWLS log ASCII Standard - VERSION 2.0
WRAP.           NO      :   One line per depth step
~Well Information Section
#MNEM       .UNIT                                         VALUE :DESCRIPTION
#------------------------------------------------------------------------------
STRT        .FT                                             748 :START DEPTH
STOP        .FT                                            7997 :STOP DEPTH
STEP        .FT                                             0.5 :STEP      
NULL        .                                           -999.25 :NULL      
COMP        .                                        EXXON CORP :COMPANY   
WELL        .                                     ST TR 00560-L :WELL      
FLD         .                                           WILDCAT :FIELD     
LOC         .                                                   :LOCATION  
CNTY        .                      MATAGORDA ISLAND LARGE BLOCK :LOCATION  
STAT        .                                             TEXAS :STATE     
CTRY        .                                     UNITED STATES :COUNTRY   
SRVC        .                                                   :SERVICE COMPANY
DATE        .                             9/13/2023 11:19:05 AM :LOG DATE  
API         .                                    42703302000000 :API NUMBER
UWI         .                                    42703302000000 :UNIQUE WELL ID
XCOORD      .                                  556028.985600478 :SURFACE X 
YCOORD      .                                   10283706.324983 :SURFACE Y 
LAT         .                                        28.2964478 :LATITUDE  
LON         .                                       -96.3697382 :LONGITUDE 
ELEV        .FT                                              92 :ELEVATION VALUE
ELEV_TYPE   .                                                KB :ELEVATION REFERENCE TYPE
~Curve Information Section
#MNEM       .UNIT                                      API CODE :CURVE DESCRIPTION
#------------------------------------------------------------------------------
DEPT        .FT                                                 :DEPTH     
ASFL        .OHMM                                               :          
CILD        .MMHO                                               :          
DT          .US/F                                               :          
GR          .GAPI                                               :          
GR_NORM     .GAPI                                               :GammaRay Normalized
ILD         .OHMM                                               :          
SP          .MV                                                 :          
SP_NORM     .MV                                                 :SP Normalized
VSH_GR      .V/V                                                :Volume of Shale from GR
VSH_SP      .V/V                                                :Volume of Shale from SP
~A        DEPTH           ASFL           CILD             DT             GR        GR_NORM            ILD             SP        SP_NORM         VSH_GR         VSH_SP
# ...
      2218.0000         2.6125       1663.369        -999.25        40.5592       74.37532         0.6288       -89.1782       1.490067       0.880326              1
      2218.5000         2.6382       1675.525        -999.25         41.711       76.54263         0.6186       -89.5529       1.092552       0.926439              1
      2219.0000         2.6639       1680.904        -999.25        42.9323       78.84073         0.6084       -89.9276      0.6950455      0.9753346              1
      2219.5000         2.7014        1676.57        -999.25        44.1906       81.20844         0.6048         -90.29      0.3098221              1              1
      2220.0000         2.7445       1634.936        -999.25        45.1884       83.08597         0.6112       -90.6042    -0.02719116              1              1
      2220.5000         2.7876       1590.066        -999.25        44.8183       82.38956         0.6175       -90.9186     -0.3644028              1              1
      2221.0000         2.7345       1545.197        -999.25        43.7357       80.35246         0.6239       -91.4436     -0.9122238              1              1
      2221.5000         2.6437       1510.613        -999.25        42.6526       78.31441         0.6303       -91.6824      -1.173836      0.9641365      0.9960492
      2222.0000         2.5147       1483.092        -999.25        41.7926       76.69616         0.6366       -90.9664     -0.4806442      0.9297055              1
      2222.5000         2.0781       1456.195        -999.25        41.1582       75.50244          0.643       -90.0695      0.3934326      0.9043072              1
      2223.0000         1.9506       1437.139        -999.25        40.8086       74.84459         0.6494       -89.0928       1.347328      0.8903104              1
      2223.5000         1.9092       1415.732        -999.25        40.8392       74.90219         0.6632       -88.2161        2.20121       0.891536              1
      2224.0000         1.9635       1387.477        -999.25        41.3945       75.94709         0.6871       -87.3763       3.018196      0.9137679              1
      2224.5000         1.9862       1359.074        -999.25        42.1218       77.31561         0.7111       -86.5677       3.803978      0.9428854              1
      2225.0000          1.996         1331.4        -999.25         43.136       79.22402         0.7351       -86.2257       4.123169      0.9834898              1
      2225.5000         2.0014       1305.049        -999.25        42.9767       78.92426          0.759       -87.0569        3.26915       0.977112              1
      2226.0000         2.0048       1274.271        -999.25         42.381       77.80336         0.7762       -89.9471      0.3561401       0.953263              1
      2226.5000         2.0062       1236.172        -999.25        41.7853       76.68243          0.791       -90.6969     -0.4164734      0.9294133              1
      2227.0000         2.0068       1214.723        -999.25         41.191       75.56415         0.8059       -91.2343     -0.9766922      0.9056202              1
      2227.5000         1.9929       1203.348        -999.25         40.623       74.49537         0.8208         -91.98      -1.745209      0.8828802      0.9830635
      2228.0000         1.9518       1210.027        -999.25         40.055       73.42657         0.8357        -92.204       -1.99202      0.8601399      0.9774541
      2228.5000         1.8478       1216.709        -999.25        39.4872       72.35816         0.8423       -92.3274      -2.138237      0.8374077       0.974131
      2229.0000         1.6751       1224.131        -999.25        38.9192       71.28938         0.8474       -92.4508      -2.284447      0.8146676       0.970808
      2229.5000          1.648       1236.576        -999.25        38.2869       70.09958         0.8526       -92.4988      -2.355263      0.7893527      0.9691986
      2230.0000         1.6245       1249.021        -999.25        37.6523       68.90547         0.8578       -92.5283      -2.407578      0.7639462      0.9680096
      2230.5000          1.604       1261.471        -999.25        37.0253       67.72566         0.8527        -92.558      -2.460091      0.7388439      0.9668161
      2231.0000         1.5908       1273.916        -999.25        36.9902       67.65961         0.8426       -92.9634      -2.888306      0.7374384      0.9570839
      2231.5000         1.5864       1286.359        -999.25        38.1063       69.75975         0.8325       -93.9397      -3.887413      0.7821224       0.934377
      2232.0000         1.5879       1287.385        -999.25        39.2679        71.9455         0.8224       -94.4814      -4.451935      0.8286277      0.9215469
      2232.5000         1.5921       1284.973        -999.25        40.3904       74.05767         0.8123       -94.7439      -4.737244      0.8735675      0.9150627
      2233.0000         1.5962       1259.041        -999.25        40.6996       74.63952          0.816       -95.0063      -5.022461      0.8859472      0.9085804
      2233.5000         1.6003       1224.762        -999.25        41.0087       75.22112         0.8221       -95.2474      -5.286377      0.8983216      0.9025823
      2234.0000         1.6045       1193.322        -999.25        41.5631       76.26433         0.8282       -95.4706      -5.532387      0.9205176      0.8969912
      2234.5000         1.6088       1161.873        -999.25        42.1843       77.43323         0.8343       -95.6937      -5.778305      0.9453878      0.8914022
      2235.0000         1.6163       1142.309        -999.25        43.1606       79.27031         0.8515       -95.9651      -6.072525      0.9844747      0.8847153
      2235.5000         1.6237       1125.896        -999.25         44.186       81.19978          0.874       -96.3522      -6.482437              1      0.8753992
      2236.0000         1.6249       1108.643        -999.25        44.8253       82.40273         0.8965       -96.7394      -6.892448              1      0.8660807
      2236.5000         1.6112        1091.16        -999.25        45.4204       83.52251         0.9178       -97.0903      -7.266167              1      0.8575871
      2237.0000          1.569       1075.574        -999.25        46.1985       84.98665         0.9299       -97.3042      -7.502876              1      0.8522074
      2237.5000         1.5217       1131.254        -999.25        45.7866       84.21158         0.9421       -97.5181      -7.739586              1      0.8468276
      2238.0000         1.4754        1244.08        -999.25        45.3749       83.43689         0.9511       -98.0828       -8.32711              1      0.8334748
      2238.5000         1.4363       1461.166        -999.25         44.963       82.66183         0.9314       -99.2432      -9.510323              1      0.8065836
      2239.0000         1.3755       1524.852        -999.25        43.5906       80.07942         0.9056      -101.3646      -11.65453              1      0.7578515
      2239.5000         1.2267       1616.254        -999.25        42.1989       77.46071         0.8467      -102.7887      -13.10145      0.9459725      0.7249671
      2240.0000         1.1656           2175        -999.25        37.2841       68.21265         0.7877      -103.9302      -14.26576      0.7492052      0.6985054
      2240.5000          1.153        2488.02        -999.25        33.9949       62.02342         0.7287      -105.7958      -16.15417      0.6175196       0.655587
      2241.0000         1.1401       2704.762        -999.25        31.8424       57.97311         0.6654      -108.5946      -18.97579      0.5313427      0.5914593
      2241.5000         1.1255       2907.891        -999.25        30.4101       55.27799         0.5935      -111.0438      -21.44781      0.4739998      0.5352771
      2242.0000         1.1109       3148.281        -999.25        29.3302       53.24598         0.5215      -117.5618      -27.98862      0.4307655      0.3866223
