#------------------------------------------------------------------------------
# Created by    : vladimir.rabinovich
# Created on    : 09/19/2023 17:22:51
#------------------------------------------------------------------------------
~Version Information Section
VERS.           2.0     :   CWLS log ASCII Standard - VERSION 2.0
WRAP.           NO      :   One line per depth step
~Well Information Section
#MNEM       .UNIT                                         VALUE :DESCRIPTION
#------------------------------------------------------------------------------
STRT        .FT                                             970 :START DEPTH
STOP        .FT                                           10993 :STOP DEPTH
STEP        .FT                                             0.5 :STEP      
NULL        .                                           -999.25 :NULL      
COMP        .                               AMOCO PRODUCTION CO :COMPANY   
WELL        .                                     ST TR 00558-L :WELL      
FLD         .                                           WILDCAT :FIELD     
LOC         .                                                   :LOCATION  
CNTY        .                      MATAGORDA ISLAND LARGE BLOCK :LOCATION  
STAT        .                                             TEXAS :STATE     
CTRY        .                                     UNITED STATES :COUNTRY   
SRVC        .                                                   :SERVICE COMPANY
DATE        .                             9/13/2023 11:19:13 AM :LOG DATE  
API         .                                    42703301770000 :API NUMBER
UWI         .                                    42703301770000 :UNIQUE WELL ID
XCOORD      .                                   593347.98828382 :SURFACE X 
YCOORD      .                                   10274817.073936 :SURFACE Y 
LAT         .                                        28.2748406 :LATITUDE  
LON         .                                       -96.2531821 :LONGITUDE 
ELEV        .FT                                              93 :ELEVATION VALUE
ELEV_TYPE   .                                                KB :ELEVATION REFERENCE TYPE
~Curve Information Section
#MNEM       .UNIT                                      API CODE :CURVE DESCRIPTION
#------------------------------------------------------------------------------
DEPT        .FT                                                 :DEPTH     
GR          .GAPI                                               :          
GR_NORM     .GAPI                                               :GammaRay Normalized
ILD         .OHMM                                               :          
SP          .MV                                                 :          
SP_NORM     .MV                                                 :SP Normalized
VSH_GR      .V/V                                                :Volume of Shale from GR
VSH_SP      .V/V                                                :Volume of Shale from SP
~A        DEPTH             GR        GR_NORM            ILD             SP        SP_NORM         VSH_GR         VSH_SP
# ...
      7636.5000        53.6595        78.4146         0.9615       -80.1913     -0.6732254      0.9662682              1
      7637.0000        52.2253       74.62939         0.9701       -80.6368      -1.118729      0.8857316              1
      7637.5000         51.588        72.9393         0.9732       -80.7976      -1.279526      0.8497723              1
      7638.0000        52.3544        74.9397         0.9757       -80.7659      -1.247826       0.892334              1
      7638.5000        51.7711       73.39159         0.9556       -80.5918      -1.073723      0.8593956              1
      7639.0000        50.9232       71.14785         0.9359       -80.1967      -0.678627      0.8116564              1
      7639.5000        50.1609       69.12914         0.9208        -79.802     -0.2839279       0.768705              1
      7640.0000        51.4547       72.51608         0.9095       -79.4755     0.04257202      0.8407676              1
      7640.5000         54.272       79.90844         0.9088       -79.4299     0.08817291      0.9980519              1
      7641.0000        55.1841       82.29187          0.907       -79.7751     -0.2570267              1              1
      7641.5000         55.754       83.77563         0.9039       -80.2266     -0.7085266              1              1
      7642.0000        55.7824       83.83571         0.9007       -81.0096      -1.491524              1              1
      7642.5000        55.5087       83.10158         0.8979       -81.7089      -2.190826              1      0.9964662
      7643.0000        54.5122       80.46715         0.8956       -82.2432      -2.725128              1      0.9865717
      7643.5000        53.5156       77.83247         0.8933       -82.6454      -3.127327      0.9538823      0.9791236
      7644.0000         53.375       77.44823         0.8911       -82.8215      -3.303429      0.9457071      0.9758624
      7644.5000        53.2831       77.19209         0.8894       -83.0316      -3.513527      0.9402573      0.9719718
      7645.0000        53.1544       76.83913         0.8877        -83.325      -3.806923      0.9327475      0.9665385
      7645.5000         52.899       76.15312         0.8882       -84.0055      -4.487427      0.9181516      0.9539365
      7646.0000        52.5881       75.32117         0.8909       -85.5146      -5.996529      0.9004505      0.9259902
      7646.5000        51.5416       72.55528         0.8937       -86.3467      -6.828629      0.8416017      0.9105809
      7647.0000        50.6163       70.10803         0.8931       -86.2515      -6.733429      0.7895326      0.9123439
      7647.5000        50.0806       68.68507         0.8892       -86.1851      -6.667023      0.7592569      0.9135737
      7648.0000        51.0219       71.14529         0.8853       -86.6571      -7.139023      0.8116018      0.9048329
      7648.5000        52.6487       75.40771         0.8767       -87.1687      -7.650627      0.9022918      0.8953587
      7649.0000        54.7441       80.90211         0.8725       -87.6133      -8.095222              1      0.8871255
      7649.5000         55.799       83.66101         0.8887       -87.6844      -8.166328              1      0.8858087
      7650.0000        55.6003       83.12403         0.9044       -87.5944      -8.076324              1      0.8874755
      7650.5000        55.2751       82.25452         0.9191       -87.6351      -8.117027              1      0.8867217
      7651.0000        54.8696       81.17387          0.934       -87.8679      -8.349823              1      0.8824107
      7651.5000        54.4679        80.1032         0.9545       -87.0327      -7.514626              1      0.8978773
      7652.0000        54.2399        79.4892         0.9774       -86.2246      -6.706528      0.9891319      0.9128421
      7652.5000        54.0118       78.87493         1.0005       -85.7693      -6.251228      0.9760624      0.9212735
      7653.0000        53.8074       78.32299         1.0127       -85.3135      -5.795425      0.9643189      0.9297143
      7653.5000        53.6548       77.90723         1.0249        -84.863      -5.344925      0.9554731      0.9380569
      7654.0000        53.5023       77.49176         1.0276       -84.4635      -4.945427      0.9466332      0.9454551
      7654.5000        53.2695       76.86515         1.0277        -84.064      -4.545929      0.9333011      0.9528531
      7655.0000        53.0108        76.1704         1.0046        -83.774      -4.255928      0.9185192      0.9582236
      7655.5000        52.7349        75.4305         0.9617       -83.5021      -3.984024      0.9027765      0.9632588
      7656.0000        52.4275       74.60777         0.9207       -83.4106      -3.892525      0.8852718      0.9649532
      7656.5000        52.1204       73.78582         0.8886       -83.4258      -3.907722      0.8677834      0.9646718
      7657.0000        51.6236       72.46513         0.8611       -83.8298      -4.311729      0.8396837      0.9571902
      7657.5000        51.0938        71.0577         0.8391       -84.0829      -4.564827      0.8097383      0.9525032
      7658.0000        50.3904       69.19383         0.8242       -84.0309      -4.512825      0.7700815      0.9534662
      7658.5000        49.6638         67.269         0.8211       -83.7174      -4.199326      0.7291278      0.9592717
      7659.0000        48.7124       64.75311         0.8228       -83.7667      -4.248627      0.6755981      0.9583588
      7659.5000        48.6153        64.4833         0.8267       -84.0078      -4.489723      0.6698574       0.953894
      7660.0000        49.2488       66.13424         0.8378       -84.4193      -4.901222      0.7049838      0.9462737
      7660.5000        50.1882       68.58946         0.8491       -84.6221      -5.104027      0.7572226       0.942518
      7661.0000        51.1277       71.04492         0.8612       -84.6727      -5.154625      0.8094664       0.941581
      7661.5000        51.7253       72.60149         0.8744       -84.1759      -4.657829       0.842585      0.9507809
      7662.0000        52.3175        74.1439         0.8876       -83.7813      -4.263229      0.8754021      0.9580883
      7662.5000         52.425       74.41198         0.8984       -83.6139      -4.095825       0.881106      0.9611884
      7663.0000        52.0184       73.32838         0.9061       -83.6965      -4.178429      0.8580507      0.9596587
      7663.5000        51.2145       71.20035         0.9062       -83.8838      -4.365723      0.8127733      0.9561903
      7664.0000        50.4047       69.05674         0.9065       -84.0708      -4.552727      0.7671646      0.9527273
      7664.5000        50.7365       69.91452         0.9091       -84.2582      -4.740128      0.7854154      0.9492569
      7665.0000        53.1411       76.22184         0.9116       -84.0554      -4.537323      0.9196136      0.9530125
      7665.5000        55.2531       81.75993         0.9142       -83.8285      -4.310425              1      0.9572144
      7666.0000        55.6443       82.77383         0.9199       -83.8475       -4.32943              1      0.9568624
      7666.5000        54.6228       80.07367         0.9266       -83.6095      -4.091423              1      0.9612699
      7667.0000        53.1125       76.08842         0.9333       -83.2362      -3.718124       0.916775      0.9681829
      7667.5000         52.022       73.20684         0.9398       -82.8269      -3.308823      0.8554647      0.9757625
      7668.0000        51.2859       71.25703         0.9462       -82.5786      -3.060524      0.8139793      0.9803607
      7668.5000        49.8113       67.36562         0.9526       -82.5275      -3.009422      0.7311833       0.981307
      7669.0000        48.1226        62.9113         0.9619       -82.9888      -3.470726      0.6364107      0.9727643
      7669.5000        47.1605       60.36735         0.9717       -84.0608      -4.542725       0.582284      0.9529125
