#------------------------------------------------------------------------------
# Created by    : vladimir.rabinovich
# Created on    : 09/19/2023 17:19:49
#------------------------------------------------------------------------------
~Version Information Section
VERS.           2.0     :   CWLS log ASCII Standard - VERSION 2.0
WRAP.           NO      :   One line per depth step
~Well Information Section
#MNEM       .UNIT                                         VALUE :DESCRIPTION
#------------------------------------------------------------------------------
STRT        .FT                                            1295 :START DEPTH
STOP        .FT                                            4592 :STOP DEPTH
STEP        .FT                                             0.5 :STEP      
NULL        .                                           -999.25 :NULL      
COMP        .                     FREEPORT-MCMORAN OIL & GAS CO :COMPANY   
WELL        .                                     ST TR 00662-L :WELL      
FLD         .                                         SIX-SIXTY :FIELD     
LOC         .                                                   :LOCATION  
CNTY        .                      MATAGORDA ISLAND LARGE BLOCK :LOCATION  
STAT        .                                             TEXAS :STATE     
CTRY        .                                     UNITED STATES :COUNTRY   
SRVC        .                                                   :SERVICE COMPANY
DATE        .                             9/13/2023 11:19:13 AM :LOG DATE  
API         .                                    42703300650000 :API NUMBER
UWI         .                                    42703300650000 :UNIQUE WELL ID
XCOORD      .                                  434889.841251994 :SURFACE X 
YCOORD      .                                  10179416.4588751 :SURFACE Y 
LAT         .                                        28.0002971 :LATITUDE  
LON         .                                       -96.7355909 :LONGITUDE 
ELEV        .FT                                              77 :ELEVATION VALUE
ELEV_TYPE   .                                                KB :ELEVATION REFERENCE TYPE
~Curve Information Section
#MNEM       .UNIT                                      API CODE :CURVE DESCRIPTION
#------------------------------------------------------------------------------
DEPT        .FT                                                 :DEPTH     
ASFL        .OHMM                                               :          
CILD        .MMHO                                               :          
ILD         .OHMM                                               :          
SFL         .OHMM                                               :          
SP          .MV                                                 :          
SP_NORM     .MV                                                 :SP Normalized
VSH_SP      .V/V                                                :Volume of Shale from SP
~A        DEPTH           ASFL           CILD            ILD            SFL             SP        SP_NORM         VSH_SP
# ...
      4544.5000         0.5578       4289.156         0.1773         0.5059       -89.3115       -57.9862     0.03413223
      4545.0000         0.5725       4321.758         0.1711         0.5071       -90.1265       -58.8012     0.02031863
      4545.5000         0.5501       4311.281         0.1656         0.5083       -90.2356       -58.9103     0.01846947
      4546.0000         0.5178       4300.813         0.1601         0.4967       -89.0962       -57.7709     0.03778141
      4546.5000         0.4862       4290.344         0.1545         0.4807       -87.9082       -56.5829     0.05791693
      4547.0000         0.4596       4279.875          0.149         0.4648       -86.6102       -55.2849     0.07991701
      4547.5000         0.4476       4268.617         0.1435         0.4489        -85.194       -53.8687      0.1039204
      4548.0000         0.4401       4257.102         0.1399         0.4401       -84.4806       -53.1553      0.1160119
      4548.5000         0.4378       4245.578         0.1398         0.4386       -84.7871       -53.4618       0.110817
      4549.0000         0.4367         4234.5         0.1397         0.4371       -85.3617       -54.0364       0.101078
      4549.5000         0.4362       4239.172         0.1395         0.4357       -85.9854       -54.6601     0.09050686
      4550.0000         0.4373       4243.844         0.1394         0.4342        -86.788       -55.4627      0.0769034
      4550.5000         0.4395        4245.57         0.1393         0.4327       -87.7231       -56.3978     0.06105429
      4551.0000         0.4468       4241.039         0.1392         0.4397       -86.5177       -55.1924     0.08148478
      4551.5000         0.4542       4230.383         0.1391         0.4507       -84.9053      -53.57999      0.1088137
      4552.0000         0.4646       4215.078         0.1393         0.4617       -83.7258       -52.4005      0.1288051
      4552.5000         0.4759       4199.773         0.1409         0.4727       -82.6672       -51.3419      0.1467475
      4553.0000         0.4851       4184.453         0.1424         0.4799       -81.7469       -50.4216      0.1623458
      4553.5000         0.4931       4183.992          0.144         0.4813       -81.3435       -50.0182      0.1691831
      4554.0000         0.5005       4186.328         0.1455         0.4828       -82.7351       -51.4098      0.1455967
      4554.5000         0.4921       4188.656         0.1471         0.4675       -85.7084      -54.38309     0.09520178
      4555.0000         0.4811       4190.984         0.1486         0.4499       -85.0663        -53.741      0.1060848
      4555.5000           0.47       4172.281         0.1501         0.4338       -84.7828       -53.4575      0.1108899
      4556.0000         0.4454       4147.484         0.1516         0.4259       -85.3245       -53.9992      0.1017085
      4556.5000         0.4242       4117.188          0.153          0.418       -85.8661      -54.54079     0.09252891
      4557.0000          0.417       4083.363         0.1544         0.4101       -85.6301      -54.30479     0.09652891
      4557.5000         0.4317       4058.875         0.1558         0.4035       -85.2976       -53.9723      0.1021644
      4558.0000         0.4478       4068.258         0.1572         0.4082       -84.9651       -53.6398         0.1078
      4558.5000         0.4639       4080.863         0.1587         0.4129       -84.5453         -53.22      0.1149152
      4559.0000          0.481       4093.941         0.1601         0.4176       -84.1176       -52.7923      0.1221645
      4559.5000         0.4988       4107.031         0.1614         0.4223       -83.7267       -52.4014      0.1287899
      4560.0000         0.5142       4117.453         0.1625          0.427       -83.4125       -52.0872      0.1341153
      4560.5000         0.5169       4126.141         0.1635         0.4316       -83.0985       -51.7732      0.1394373
      4561.0000         0.5052       4134.836         0.1646         0.4387       -82.9015      -51.57619      0.1427764
      4561.5000         0.4934       4133.867         0.1656         0.4481          -82.8       -51.4747      0.1444966
      4562.0000          0.481        4112.75         0.1667         0.4575       -82.6985       -51.3732       0.146217
      4562.5000         0.4677       4091.641         0.1677         0.4541       -82.6086      -51.28329      0.1477408
      4563.0000         0.4543        4070.68         0.1675         0.4417        -82.304       -50.9787      0.1529034
      4563.5000         0.4412        4050.57         0.1659         0.4294        -81.713       -50.3877      0.1629204
      4564.0000         0.4284       4056.461         0.1643          0.416       -80.8463        -49.521      0.1776102
      4564.5000         0.4193       4079.871         0.1627         0.4023        -80.879       -49.5537       0.177056
      4565.0000         0.4135       4105.461          0.161         0.3886        -82.571       -51.2457       0.148378
      4565.5000         0.4154       4133.227         0.1598         0.3748       -84.1034       -52.7781      0.1224051
      4566.0000         0.4228       4158.195         0.1597         0.3766       -85.1884       -53.8631      0.1040153
      4566.5000         0.4318       4170.148         0.1596         0.3879       -85.1342       -53.8089      0.1049339
      4567.0000         0.4408       4127.266         0.1595         0.3993       -84.6715       -53.3462      0.1127763
      4567.5000         0.4359        4076.68         0.1593         0.4022       -84.2089       -52.8836       0.120617
      4568.0000         0.4288       3992.215         0.1592          0.397        -84.396       -53.0707      0.1174457
      4568.5000         0.4205       3953.266         0.1613         0.3918       -85.1342       -53.8089      0.1049339
      4569.0000         0.4061       3914.313         0.1638         0.3814       -86.0952       -54.7699     0.08864581
      4569.5000         0.3917       3859.742         0.1664         0.3636       -86.1168       -54.7915     0.08827972
      4570.0000         0.3779       3802.379         0.1689         0.3458       -84.8016       -53.4763      0.1105713
      4570.5000         0.3645        3746.25         0.1734          0.328       -83.6309       -52.3056      0.1304136
      4571.0000         0.3562       3669.137         0.1814         0.3122       -82.6987       -51.3734      0.1462136
      4571.5000         0.3678       3611.613         0.1894          0.307       -82.0658       -50.7405      0.1569407
      4572.0000         0.3794       3592.063         0.1975         0.3017       -81.3756       -50.0503       0.168639
      4572.5000         0.3909       3618.355         0.2018         0.2978        -80.652       -49.3267      0.1809034
      4573.0000         0.4032       3661.762         0.2017          0.317       -81.3756       -50.0503       0.168639
      4573.5000         0.4177       3752.539         0.2016         0.3362       -83.0214       -51.6961      0.1407441
      4574.0000         0.4316        3819.75         0.2003         0.3553       -83.9355       -52.6102      0.1252509
      4574.5000         0.4379       3882.363         0.1931           0.37       -82.6068      -51.28149      0.1477713
      4575.0000         0.4328       3950.914         0.1858         0.3767        -81.573       -50.2477      0.1652933
      4575.5000         0.4224       4029.461         0.1785         0.3829       -80.7421       -49.4168      0.1793762
      4576.0000         0.3986       4187.297         0.1713         0.3718       -80.4861       -49.1608      0.1837153
      4576.5000         0.3747       4324.008          0.164         0.3607       -81.2676       -49.9423      0.1704695
      4577.0000         0.3922       4419.773         0.1567         0.3635       -82.0498      -50.72449      0.1572119
      4577.5000         0.4113       4505.555         0.1495         0.3797       -82.8622       -51.5369      0.1434425
