#------------------------------------------------------------------------------
# Created by    : vladimir.rabinovich
# Created on    : 09/19/2023 17:20:09
#------------------------------------------------------------------------------
~Version Information Section
VERS.           2.0     :   CWLS log ASCII Standard - VERSION 2.0
WRAP.           NO      :   One line per depth step
~Well Information Section
#MNEM       .UNIT                                         VALUE :DESCRIPTION
#------------------------------------------------------------------------------
STRT        .FT                                            1853 :START DEPTH
STOP        .FT                                            6238 :STOP DEPTH
STEP        .FT                                             0.5 :STEP      
NULL        .                                           -999.25 :NULL      
COMP        .               LOUISIANA LAND & EXPLORATION CO THE :COMPANY   
WELL        .                                          SL 79258 :WELL      
FLD         .                                           WILDCAT :FIELD     
LOC         .                                                   :LOCATION  
CNTY        .                      MATAGORDA ISLAND LARGE BLOCK :LOCATION  
STAT        .                                             TEXAS :STATE     
CTRY        .                                     UNITED STATES :COUNTRY   
SRVC        .                                                   :SERVICE COMPANY
DATE        .                             9/13/2023 11:12:01 AM :LOG DATE  
API         .                                    42703301870000 :API NUMBER
UWI         .                                    42703301870000 :UNIQUE WELL ID
XCOORD      .                                  470651.272343367 :SURFACE X 
YCOORD      .                                  10209272.4173218 :SURFACE Y 
LAT         .                                        28.0852496 :LATITUDE  
LON         .                                       -96.6277134 :LONGITUDE 
ELEV        .FT                                              82 :ELEVATION VALUE
ELEV_TYPE   .                                                KB :ELEVATION REFERENCE TYPE
~Curve Information Section
#MNEM       .UNIT                                      API CODE :CURVE DESCRIPTION
#------------------------------------------------------------------------------
DEPT        .FT                                                 :DEPTH     
ASFL        .OHMM                                               :          
CILD        .MMHO                                               :          
ILD         .OHMM                                               :          
SP          .MV                                                 :          
SP_NORM     .MV                                                 :SP Normalized
VSH_SP      .V/V                                                :Volume of Shale from SP
~A        DEPTH           ASFL           CILD            ILD             SP        SP_NORM         VSH_SP
# ...
      3601.0000         0.9156       1925.828         0.5468      -114.7246      -43.21013     0.06199714
      3601.5000         0.9562       1963.471         0.5373      -113.4456      -41.92725     0.09050547
      3602.0000          0.986       1953.551         0.5279      -112.2744      -40.75217      0.1166184
      3602.5000         1.0314       1938.721         0.5184      -111.3867       -39.8606       0.136431
      3603.0000         1.0187       1923.881          0.509      -111.8207      -40.29073      0.1268728
      3603.5000         0.9811       1989.002         0.4996      -112.6492      -41.11535      0.1085478
      3604.0000         0.8273       2028.389         0.4899      -113.4777      -41.93997     0.09022284
      3604.5000          0.811       2067.754         0.4801      -114.5267       -42.9851     0.06699778
      3605.0000         0.8177       2109.277         0.4703      -115.2202      -43.67472     0.05167287
      3605.5000         0.8334       2154.809         0.4605      -114.8192      -43.26984     0.06067013
      3606.0000          0.849       2232.434         0.4508      -114.1279      -42.57467     0.07611847
      3606.5000         0.8716       2333.766         0.4452      -113.4366      -41.87949     0.09156681
      3607.0000          0.898       2368.609         0.4401      -112.7454      -41.18443      0.1070128
      3607.5000         0.9244       2290.422          0.435      -112.0125      -40.44765      0.1233856
      3608.0000          0.985       2238.281           0.43      -111.0687      -39.49998       0.144445
      3608.5000         1.1134        2188.18         0.4735      -110.1471       -38.5745      0.1650111
      3609.0000         1.2453       1993.498         0.5459      -112.4568      -40.88033      0.1137706
      3609.5000         1.2929       1786.604          0.608      -112.2959      -40.71555      0.1174323
      3610.0000         1.3613       1605.461         0.6697      -109.7662      -38.18197       0.173734
      3610.5000         1.4368       1530.518         0.7249      -109.3507       -37.7626      0.1830534
      3611.0000         1.3808       1462.209         0.7752      -110.3419      -38.74992      0.1611128
      3611.5000         1.2724       1371.293         0.7833      -111.3831      -39.78725      0.1380612
      3612.0000         1.1864        1303.18         0.7672      -112.5586      -40.95887      0.1120251
      3612.5000         1.0987       1278.117         0.7391      -114.1403       -42.5367     0.07696228
      3613.0000         1.0649       1313.992         0.7099       -115.015      -43.40752     0.05761058
      3613.5000           1.04        1410.51         0.6789      -114.4365      -42.82515     0.07055223
      3614.0000         1.0262       1500.836         0.6478      -114.8923      -43.27708     0.06050941
      3614.5000         1.0186       1607.723         0.6168      -115.7969       -44.1778     0.04049344
      3615.0000         1.0091       1738.738         0.5904      -116.3994      -44.77642     0.02719065
      3615.5000         0.9989       1881.352         0.5652      -117.0023      -45.37544     0.01387906
      3616.0000         0.9888       2006.766         0.5721      -117.5454      -45.91467    0.001896159
      3616.5000         0.9764       1981.629         0.5828      -117.5719      -45.93729    0.001393466
      3617.0000         1.0057       1952.168         0.5936       -117.269      -45.63052    0.008210754
      3617.5000         1.0414       1914.254         0.6158      -116.9661      -45.32375     0.01502787
      3618.0000         1.0752       1876.314          0.642      -116.4432      -44.79697     0.02673391
      3618.5000         1.1874       1827.492         0.6682      -115.4102       -43.7601     0.04977553
      3619.0000         1.2859       1754.711         0.6945      -113.7507      -42.09673     0.08673944
      3619.5000          1.262       1681.928         0.7207      -109.6638      -38.00595      0.1776455
      3620.0000         1.1415       1572.732         0.7488      -104.4712      -32.80947      0.2931229
      3620.5000         1.1074       1426.678         0.7872       -97.2172       -25.5516      0.4544089
      3621.0000          1.075       1283.523         0.8017       -86.4791      -14.80962      0.6931195
      3621.5000         1.0402       1224.797          0.769       -82.7079      -11.03455      0.7770101
      3622.0000         0.9641       1224.133         0.7363       -83.1283      -11.45107       0.767754
      3622.5000         0.9463       1276.176         0.7036       -89.5045      -17.82339      0.6261468
      3623.0000         1.0252       1348.295         0.6709       -98.7557      -27.07072      0.4206508
      3623.5000         1.1029       1449.039         0.6382      -110.4331      -38.74425      0.1612389
      3624.0000         1.2706       1513.121         0.6253      -112.1665      -40.47377      0.1228051
      3624.5000         1.3461       1574.551         0.6158      -113.0603       -41.3637      0.1030289
      3625.0000         1.3833       1628.043         0.6063       -113.653      -41.95252     0.08994395
      3625.5000         1.2134       1671.314         0.5929      -114.0142      -42.30984     0.08200344
      3626.0000         1.0725       1710.063         0.5732      -114.3644      -42.65617     0.07430725
      3626.5000         1.0216        1735.68         0.5535      -114.6219       -42.9098     0.06867116
      3627.0000         0.9847       1759.883         0.5266      -114.8799      -43.16392     0.06302405
      3627.5000         0.9304       1858.256         0.4842       -115.297      -43.57714     0.05384132
      3628.0000          0.865       2033.795         0.4419      -115.8961      -44.17237     0.04061398
      3628.5000         0.7896       2187.613         0.4052      -116.4954      -44.76779     0.02738241
      3629.0000         0.7221       2322.563         0.3742      -117.0945      -45.36301     0.01415524
      3629.5000         0.6766       2522.082         0.3432      -117.7278      -45.99245   0.0001678467
      3630.0000         0.6544        2953.07         0.3121      -118.3683      -46.62907              0
      3630.5000         0.6291       3116.621         0.3098      -118.7678       -47.0247              0
      3631.0000          0.649        3404.27         0.3104      -118.4928      -46.74582              0
      3631.5000         0.6689       3403.512         0.3109      -117.6896      -45.93874    0.001361254
      3632.0000         0.6888        3380.25         0.3115      -116.8865      -45.13177     0.01929406
      3632.5000         0.7087       3331.867         0.3163      -116.0833      -44.32469     0.03722907
      3633.0000         0.7269       3283.512         0.3211      -115.3346      -43.57212     0.05395287
      3633.5000         0.7449       3240.191          0.326      -116.0586      -44.29224     0.03795014
      3634.0000         0.7697       3198.027         0.3308      -117.0559      -45.28567     0.01587406
      3634.5000         0.7523       3155.887         0.3356       -118.054      -46.27989              0
      3635.0000         0.7161       3134.227         0.3404      -118.2463      -46.46832              0
      3635.5000          0.676       3118.895         0.3453      -118.3063      -46.52444              0
      3636.0000         0.6223       3099.285         0.3501      -117.6736      -45.88787     0.00249176
      3636.5000         0.6099       3063.301         0.3549      -116.7915      -45.00189     0.02218018
      3637.0000         0.6194       2987.125         0.3598      -115.9094      -44.11592     0.04186842
      3637.5000         0.6331       2928.082         0.3631      -115.1721      -43.37474      0.0583391
      3638.0000         0.6499       2898.375         0.3657      -116.0198      -44.21857      0.0395874
      3638.5000         0.6693       2868.691         0.3683      -116.8667      -45.06159     0.02085351
