#------------------------------------------------------------------------------
# Created by    : vladimir.rabinovich
# Created on    : 09/19/2023 17:22:51
#------------------------------------------------------------------------------
~Version Information Section
VERS.           2.0     :   CWLS log ASCII Standard - VERSION 2.0
WRAP.           NO      :   One line per depth step
~Well Information Section
#MNEM       .UNIT                                         VALUE :DESCRIPTION
#------------------------------------------------------------------------------
STRT        .FT                                             970 :START DEPTH
STOP        .FT                                           10993 :STOP DEPTH
STEP        .FT                                             0.5 :STEP      
NULL        .                                           -999.25 :NULL      
COMP        .                               AMOCO PRODUCTION CO :COMPANY   
WELL        .                                     ST TR 00558-L :WELL      
FLD         .                                           WILDCAT :FIELD     
LOC         .                                                   :LOCATION  
CNTY        .                      MATAGORDA ISLAND LARGE BLOCK :LOCATION  
STAT        .                                             TEXAS :STATE     
CTRY        .                                     UNITED STATES :COUNTRY   
SRVC        .                                                   :SERVICE COMPANY
DATE        .                             9/13/2023 11:19:13 AM :LOG DATE  
API         .                                    42703301770000 :API NUMBER
UWI         .                                    42703301770000 :UNIQUE WELL ID
XCOORD      .                                   593347.98828382 :SURFACE X 
YCOORD      .                                   10274817.073936 :SURFACE Y 
LAT         .                                        28.2748406 :LATITUDE  
LON         .                                       -96.2531821 :LONGITUDE 
ELEV        .FT                                              93 :ELEVATION VALUE
ELEV_TYPE   .                                                KB :ELEVATION REFERENCE TYPE
~Curve Information Section
#MNEM       .UNIT                                      API CODE :CURVE DESCRIPTION
#------------------------------------------------------------------------------
DEPT        .FT                                                 :DEPTH     
GR          .GAPI                                               :          
GR_NORM     .GAPI                                               :GammaRay Normalized
ILD         .OHMM                                               :          
SP          .MV                                                 :          
SP_NORM     .MV                                                 :SP Normalized
VSH_GR      .V/V                                                :Volume of Shale from GR
VSH_SP      .V/V                                                :Volume of Shale from SP
~A        DEPTH             GR        GR_NORM            ILD             SP        SP_NORM         VSH_GR         VSH_SP
# ...
     10283.0000        53.6804       79.80096         0.8971       -67.4063        -3.1698      0.9957652      0.9582214
     10283.5000        54.7151       81.55523         0.8789       -66.9276      -2.710907              1      0.9746104
     10284.0000        55.9005        83.5647         0.8768         -66.91      -2.713127              1      0.9745312
     10284.5000        57.2626       85.87342         0.8991        -66.905      -2.727936              1      0.9740023
     10285.0000        58.1378       87.35757          0.997        -67.316      -3.158752              1       0.958616
     10285.5000        55.6232       83.10109         1.1284       -67.7271      -3.589661              1      0.9432264
     10286.0000        52.4592       77.74481         1.2594       -69.0719      -4.954285      0.9520172      0.8944898
     10286.5000        49.9692       73.52997         1.3859       -70.9861      -6.888298      0.8623397      0.8254179
     10287.0000        48.0048       70.20524         1.4491       -73.0221      -8.944115      0.7916008      0.7519959
     10287.5000        46.6134       67.85088         1.4344       -73.6936      -9.635429       0.741508      0.7273061
     10288.0000        46.2346       67.21136         1.3857       -71.5978      -7.559441      0.7279014      0.8014485
     10288.5000        47.2305       68.89992         1.3569       -68.8759      -4.857353       0.763828      0.8979517
     10289.0000        49.1423       72.13957         1.3516          -69.6      -5.601269      0.8327569      0.8713832
     10289.5000        51.6658       76.41512          1.347       -71.1294      -7.150486       0.923726       0.816054
     10290.0000        52.7269       78.21412         1.3614       -73.3997      -9.440594      0.9620025      0.7342645
     10290.5000        47.3165       69.05355         1.4533       -76.9795      -13.04021      0.7670968      0.6057068
     10291.0000        38.3503        53.8712         1.5432       -81.3479      -17.42843      0.4440681      0.4489847
     10291.5000         35.865       49.66432         1.5967       -84.3374      -20.43774        0.35456      0.3415091
     10292.0000        33.6138       45.85389         1.5916       -84.6959      -20.81606       0.273487       0.327998
     10292.5000          36.84       51.31948         1.5274       -83.0063      -19.14627      0.3897761      0.3876332
     10293.0000        43.1393       61.98938         1.4511       -79.6273      -15.78708      0.6167953      0.5076042
     10293.5000        47.1158       68.72562         1.4068       -75.8372       -12.0168      0.7601195      0.6422573
     10294.0000        50.5905       74.61205         1.3946       -72.4534      -8.652813      0.8853627      0.7623996
     10294.5000        54.2563       80.82211          1.346       -69.9823      -6.201527              1      0.8499455
     10295.0000        48.9416        71.8236         1.2387        -70.489      -6.728043      0.8260341      0.8311414
     10295.5000        45.3235       65.69833          1.159       -71.2883      -7.547157      0.6957092      0.8018872
     10296.0000        43.7776       63.08232         1.1681        -71.501      -7.779671      0.6400493      0.7935832
     10296.5000        44.4967       64.30212         1.2689       -70.7411      -7.039581      0.6660025       0.820015
     10297.0000        45.3671       65.77814         1.3127       -72.1665      -8.484798      0.6974072      0.7684001
     10297.5000        45.7106       66.36185         1.1764       -74.6376      -10.97572      0.7098265      0.6794386
     10298.0000        46.6188       67.90189         1.0859       -75.2994      -11.65733      0.7425935      0.6550954
     10298.5000        49.2905       72.42844         1.0388       -71.0912      -7.468945      0.8389029      0.8046805
     10299.0000        52.1151       77.21392         1.0134        -68.932      -5.329559      0.9407217      0.8810872
     10299.5000        51.8762       76.81135         1.0229        -69.729       -6.14637      0.9321563      0.8519154
     10300.0000        41.5239        59.2816         1.0697       -71.4688      -7.905991       0.559183      0.7890717
     10300.5000        37.4661       52.41168         1.1787       -79.8567       -16.3137      0.4130145      0.4887965
     10301.0000        35.4993       49.08288         1.2931       -86.6005      -23.07732      0.3421889      0.2472386
     10301.5000        34.1922       46.87129         1.3831       -88.5697      -25.06633      0.2951338      0.1762024
     10302.0000         33.308       45.37589         1.4565       -90.3787      -26.89515      0.2633168      0.1108877
     10302.5000        33.2211       45.23072         1.4956       -91.3099      -27.84616       0.260228     0.07692296
     10303.0000        33.4777       45.66726         1.5332       -90.6296      -27.18568      0.2695161      0.1005116
     10303.5000        34.4837       47.37292         1.5681       -89.4347      -26.01059      0.3058069      0.1424789
     10304.0000         36.037       50.00545         1.5815       -87.1262       -23.7219       0.361818      0.2242178
     10304.5000         38.575       54.30557         1.5076       -84.8512      -21.46671        0.45331      0.3047602
     10305.0000        43.2827       62.28009         1.4205       -82.6527      -19.28804      0.6229805      0.3825701
     10305.5000        47.0441       68.65205         1.3372       -80.4254      -17.08055      0.7585543       0.461409
     10306.0000        49.1996        72.3044         1.2156       -75.9949      -12.66986      0.8362638      0.6189334
     10306.5000        50.7314       74.90051         1.0908       -72.0925      -8.787273      0.8915003      0.7575974
     10307.0000        52.6696       78.18486         1.0015       -70.9407      -7.655289        0.96138      0.7980254
     10307.5000        54.9875       82.11223         0.9324       -69.6646      -6.399002              1      0.8428928
     10308.0000        57.8074       86.88975         0.8935       -67.1195      -3.873718              1      0.9330815
     10308.5000        60.4553       91.37598         0.8968       -66.6669      -3.440933              1      0.9485381
     10309.0000        57.3439       86.10879         0.9321       -66.9904      -3.784252              1      0.9362767
     10309.5000        52.1916       77.38535         0.9692       -71.6743      -8.487965      0.9443691       0.768287
     10310.0000        43.5981       62.83415         1.0068         -76.75      -13.58348      0.6347692      0.5863044
     10310.5000        37.4231       52.37873         1.0434       -81.2045      -18.05779      0.4123133      0.4265075
     10311.0000        36.5024       50.82151         1.0777       -86.3376      -23.21071      0.3791811      0.2424747
     10311.5000        36.4218       50.68701         1.1387       -89.2722      -26.16512      0.3763194      0.1369599
     10312.0000        37.3323       52.23095         1.2075       -91.1218      -28.03454       0.409169     0.07019506
     10312.5000        37.4506       52.43328         1.2331       -91.8759      -28.80845      0.4134741     0.04255527
     10313.0000        36.5174       50.85488         1.2296       -92.4291      -29.38147      0.3798911      0.0220905
     10313.5000        35.6332        49.3595         1.2202        -92.907      -29.87918      0.3480744    0.004315104
     10314.0000        34.7478       47.86204         1.2101       -93.3407      -30.33269      0.3162136              0
     10314.5000        33.8934       46.41711         1.2149       -93.6317      -30.64351      0.2854704              0
     10315.0000        33.3008       45.41552         1.2405       -93.8295      -30.86112      0.2641601              0
     10315.5000        32.7094       44.41598         1.2663       -93.8805      -30.93194      0.2428932              0
     10316.0000        32.4518       43.98173         1.2927       -93.7075      -30.77875      0.2336538              0
