#------------------------------------------------------------------------------
# Created by    : vladimir.rabinovich
# Created on    : 09/19/2023 17:20:46
#------------------------------------------------------------------------------
~Version Information Section
VERS.           2.0     :   CWLS log ASCII Standard - VERSION 2.0
WRAP.           NO      :   One line per depth step
~Well Information Section
#MNEM       .UNIT                                         VALUE :DESCRIPTION
#------------------------------------------------------------------------------
STRT        .FT                                             695 :START DEPTH
STOP        .FT                                            9139 :STOP DEPTH
STEP        .FT                                             0.5 :STEP      
NULL        .                                           -999.25 :NULL      
COMP        .                   COASTAL STATES GAS TRANSMISSION :COMPANY   
WELL        .                                     ST TR 00592-L :WELL      
FLD         .                                           WILDCAT :FIELD     
LOC         .                                                   :LOCATION  
CNTY        .                      MATAGORDA ISLAND LARGE BLOCK :LOCATION  
STAT        .                                             TEXAS :STATE     
CTRY        .                                     UNITED STATES :COUNTRY   
SRVC        .                                                   :SERVICE COMPANY
DATE        .                             9/13/2023 11:12:01 AM :LOG DATE  
API         .                                    42703000420000 :API NUMBER
UWI         .                                    42703000420000 :UNIQUE WELL ID
XCOORD      .                                  562172.631053371 :SURFACE X 
YCOORD      .                                   10240692.584136 :SURFACE Y 
LAT         .                                        28.1787665 :LATITUDE  
LON         .                                       -96.3469802 :LONGITUDE 
ELEV        .FT                                              11 :ELEVATION VALUE
ELEV_TYPE   .                                                KB :ELEVATION REFERENCE TYPE
~Curve Information Section
#MNEM       .UNIT                                      API CODE :CURVE DESCRIPTION
#------------------------------------------------------------------------------
DEPT        .FT                                                 :DEPTH     
ASN         .OHMM                                               :          
CALI        .IN                                                 :          
CILD        .MMHO                                               :          
DT          .US/F                                               :          
ILD         .OHMM                                               :          
SP          .MV                                                 :          
SP_NORM     .MV                                                 :SP Normalized
VSH_SP      .V/V                                                :Volume of Shale from SP
~A        DEPTH            ASN           CALI           CILD             DT            ILD             SP        SP_NORM         VSH_SP
# ...
      7421.0000         0.9417        10.1681       1320.025       108.7192         0.6662       -46.1112      0.5953903              1
      7421.5000         0.9286        10.1398       1328.172       111.1321         0.6696       -46.1136      0.5929871              1
      7422.0000         0.9239        10.0977       1335.588       113.5449         0.6729       -46.1161      0.5904884              1
      7422.5000         0.9282        10.0557       1343.094       114.7959         0.6762       -46.1185       0.588089              1
      7423.0000         0.9381        10.0136       1350.648       113.1113         0.6803        -46.121      0.5855904              1
      7423.5000         0.9452         9.9933       1358.217       111.2113         0.6866       -46.1234      0.5831871              1
      7424.0000         0.9517        10.0127       1368.223       110.6193         0.6929       -46.1258      0.5807877              1
      7424.5000         0.9523        10.0599       1368.121       109.9678         0.6993       -46.1282      0.5783882              1
      7425.0000         0.9517        10.1072       1344.689        108.791         0.7056       -46.1307      0.5758896              1
      7425.5000         0.9461        10.1522       1324.275       111.2659          0.712       -46.1331      0.5734901              1
      7426.0000         0.9339        10.1881       1303.859        109.222         0.7183       -46.1371      0.5694885              1
      7426.5000           0.93         10.224       1283.445       106.5863         0.7246        -46.178      0.5285873              1
      7427.0000         0.9373          10.26       1266.576       107.0087         0.7312       -46.2189        0.48769              1
      7427.5000         0.9447        10.3049       1250.107       108.2288         0.7379       -46.2598      0.4467888              1
      7428.0000          0.952        10.3627       1233.641       109.6246         0.7446       -46.3007      0.4058876              1
      7428.5000         0.9616        10.3835       1198.693       110.5288         0.7513       -46.4957      0.2108879              1
      7429.0000         0.9788        10.3212       1161.385       108.7985          0.758        -46.723    -0.01641083              1
      7429.5000         0.9961        10.2788       1111.051        105.588         0.7647       -46.9506     -0.2440109              1
      7430.0000         1.0173        10.4668       1072.986       102.5707         0.7714       -47.2735     -0.5669098              1
      7430.5000         1.0521        10.6324       1035.426       102.5806         0.7823       -47.9218       -1.21521      0.9963524
      7431.0000         1.1342        10.7359       1023.472       103.3795         0.7979       -48.5707      -1.864113       0.985354
      7431.5000         1.1641        10.8356       1013.139       101.1686         0.8134       -48.8452      -2.138611      0.9807015
      7432.0000         1.1674        10.9241       1005.169       100.7313          0.829         -49.05       -2.34341      0.9772303
      7432.5000         1.1637        10.9974       997.1992        101.005         0.8446       -49.2548       -2.54821      0.9737592
      7433.0000         1.1605         11.028       993.3936       102.6426         0.8586       -49.3671      -2.660511      0.9718558
      7433.5000         1.1598        11.0423       990.6025       104.5067         0.8687       -49.4272      -2.720612      0.9708371
      7434.0000         1.1592        10.9764       987.8115       104.1301         0.8788       -49.4872      -2.780613      0.9698201
      7434.5000         1.1585         10.908       984.2705       100.5951         0.8889       -49.3457      -2.639111      0.9722185
      7435.0000         1.1579        10.8397       979.5752        99.4419         0.8989       -49.1624      -2.455811      0.9753252
      7435.5000         1.1573        10.8329       974.8799        98.9434         0.9073       -48.9794      -2.272812      0.9784269
      7436.0000         1.1616        10.8748       970.1846        99.5355         0.9137       -48.7961      -2.089512      0.9815337
      7436.5000          1.166        10.9122       965.4893       100.1758         0.9202       -48.6132      -1.906612      0.9846337
      7437.0000         1.1715         10.937        959.751       100.8298         0.9267       -48.4077      -1.701111      0.9881167
      7437.5000         1.1789        10.9501       953.9873       100.4391         0.9332       -48.1871      -1.480511      0.9918557
      7438.0000         1.1862        10.9062       948.2236        99.9077         0.9397       -47.9661       -1.25951      0.9956015
      7438.5000         1.1935        10.8625         942.46        99.7522         0.9321       -47.7455       -1.03891      0.9993405
      7439.0000         1.2006        10.8192       936.6963       100.2749         0.8912       -47.5245     -0.8179131              1
      7439.5000         1.2064        10.7834       930.8389         100.03         0.8926       -47.3039     -0.5973129              1
      7440.0000         1.2123        10.7476       924.4648       100.3591         0.8985       -47.0829     -0.3763123              1
      7440.5000         1.2131        10.7117       918.0977        100.666         0.9044       -46.9195     -0.2129097              1
      7441.0000         1.2139        10.6789       911.7246       100.8967         0.9103        -46.873     -0.1664124              1
      7441.5000         1.2147        10.6615       905.7344       100.6487         0.9162       -46.8267     -0.1201096              1
      7442.0000         1.2155        10.6441       901.9199       100.2693         0.9221       -46.7802    -0.07361221              1
      7442.5000         1.2169        10.6268       898.0986        99.8247         0.9275       -46.7339    -0.02730942              1
      7443.0000         1.2182        10.6094       894.2764       100.4371         0.9289       -46.6874     0.01918793              1
      7443.5000         1.2196        10.5977       890.4619       100.8057         0.9303       -46.6409     0.06568909              1
      7444.0000         1.2209        10.5906       886.6396       100.3523         0.9317       -46.6283     0.07828903              1
      7444.5000         1.2222        10.5834       882.5166         99.219         0.9332       -46.6307     0.07588959              1
      7445.0000         1.2237        10.5762       878.2803        97.7996         0.9346       -46.6332     0.07338715              1
      7445.5000         1.2297         10.569       874.0439        97.6273         0.9325       -46.6356      0.0709877              1
      7446.0000         1.2358        10.5615       880.6943        98.3545          0.929       -46.6264     0.08018875              1
      7446.5000         1.2419        10.5537       891.4922        99.0469         0.9255       -46.4642      0.2423897              1
      7447.0000          1.237        10.5459       902.2783        99.6389         0.9221       -46.3021      0.4044876              1
      7447.5000         1.2296        10.5381       913.0635        99.6506         0.9186         -46.14      0.5665894              1
      7448.0000         1.2223        10.5302       928.9023        99.0977         0.9088        -45.978      0.7285881              1
      7448.5000         1.2149        10.5187       949.1416        98.5439         0.8985       -45.8508      0.8557892              1
      7449.0000         1.2013         10.507       969.4053       101.4559         0.8882       -45.7435       0.963089              1
      7449.5000         1.1865        10.4953       986.9795       104.0645          0.878        -45.636       1.070587              1
      7450.0000         1.1717        10.4836       1003.648       103.8365         0.8672       -45.5287       1.177887              1
