#------------------------------------------------------------------------------
# Created by    : vladimir.rabinovich
# Created on    : 09/19/2023 17:22:56
#------------------------------------------------------------------------------
~Version Information Section
VERS.           2.0     :   CWLS log ASCII Standard - VERSION 2.0
WRAP.           NO      :   One line per depth step
~Well Information Section
#MNEM       .UNIT                                         VALUE :DESCRIPTION
#------------------------------------------------------------------------------
STRT        .FT                                             513 :START DEPTH
STOP        .FT                                           16000 :STOP DEPTH
STEP        .FT                                             0.5 :STEP      
NULL        .                                           -999.25 :NULL      
COMP        .              PENNZOIL EXPLORATION & PRODUCTION CO :COMPANY   
WELL        .                                ST TR 00486-L SE/4 :WELL      
FLD         .                                           WILDCAT :FIELD     
LOC         .                                                   :LOCATION  
CNTY        .                      MATAGORDA ISLAND LARGE BLOCK :LOCATION  
STAT        .                                             TEXAS :STATE     
CTRY        .                                     UNITED STATES :COUNTRY   
SRVC        .                                                   :SERVICE COMPANY
DATE        .                             9/13/2023 11:19:05 AM :LOG DATE  
API         .                                    42703302080000 :API NUMBER
UWI         .                                    42703302080000 :UNIQUE WELL ID
XCOORD      .                                  648049.134083277 :SURFACE X 
YCOORD      .                                  10318924.3450998 :SURFACE Y 
LAT         .                                        28.3999658 :LATITUDE  
LON         .                                       -96.0869402 :LONGITUDE 
ELEV        .FT                                              47 :ELEVATION VALUE
ELEV_TYPE   .                                                KB :ELEVATION REFERENCE TYPE
~Curve Information Section
#MNEM       .UNIT                                      API CODE :CURVE DESCRIPTION
#------------------------------------------------------------------------------
DEPT        .FT                                                 :DEPTH     
SFL         .OHMM                                               :          
SP          .MV                                                 :          
SP_NORM     .MV                                                 :SP Normalized
VSH_SP      .V/V                                                :Volume of Shale from SP
~A        DEPTH            SFL             SP        SP_NORM         VSH_SP
# ...
     13869.0000         0.5835       -39.3936      -1.869312      0.9874012
     13869.5000         0.6051       -39.7012      -2.176018      0.9829563
     13870.0000         0.6326       -39.6466      -2.120522      0.9837605
     13870.5000          0.634       -38.9695      -1.442528      0.9935865
     13871.0000         0.6073       -38.5317      -1.003834      0.9999444
     13871.5000         0.5832       -38.4672     -0.9384384              1
     13872.0000         0.5733       -38.2353     -0.7056427              1
     13872.5000         0.5638       -37.9781     -0.4475479              1
     13873.0000         0.5827       -38.0212     -0.4897499              1
     13873.5000         0.6299       -38.3729     -0.8405571              1
     13874.0000         0.6628       -38.8442      -1.310963      0.9954933
     13874.5000         0.6432       -38.3741     -0.8399658              1
     13875.0000         0.5853       -38.7289      -1.193874      0.9971902
     13875.5000         0.5364       -38.5837      -1.047775      0.9993076
     13876.0000         0.5052        -38.265     -0.7281837              1
     13876.5000          0.496       -38.0132     -0.4754868              1
     13877.0000          0.494       -37.8666     -0.3279915              1
     13877.5000         0.5059        -37.972     -0.4324989              1
     13878.0000         0.5262       -38.2799      -0.739502              1
     13878.5000         0.5474       -38.9385      -1.397209      0.9942433
     13879.0000         0.5802       -38.9728      -1.430614      0.9937592
     13879.5000         0.5951        -38.358     -0.8149185              1
     13880.0000         0.5905       -37.9835     -0.4395256              1
     13880.5000         0.5815       -37.8791     -0.3342285              1
     13881.0000         0.5981         -37.67     -0.1242332              1
     13881.5000         0.6519       -37.5425    0.004161835              1
     13882.0000         0.6781       -37.6517     -0.1041412              1
     13882.5000         0.6579       -37.8948     -0.3463478              1
     13883.0000         0.6146       -38.1819     -0.6325531              1
     13883.5000         0.5673       -38.7487       -1.19846      0.9971238
     13884.0000         0.5522       -38.8279      -1.276764      0.9959889
     13884.5000         0.5506       -38.5276     -0.9755669              1
     13885.0000          0.547       -38.5093     -0.9563751              1
     13885.5000         0.5438       -38.7338      -1.179977      0.9973916
     13886.0000         0.5672       -38.8178      -1.263084      0.9961872
     13886.5000         0.5966       -38.8694      -1.313789      0.9954523
     13887.0000         0.6122       -38.9474      -1.390892      0.9943349
     13887.5000          0.612       -38.9403        -1.3829      0.9944507
     13888.0000         0.5979        -38.727      -1.168705       0.997555
     13888.5000         0.5766       -38.2191     -0.6599083              1
     13889.0000         0.5469       -37.7504     -0.1903152              1
     13889.5000         0.5121       -37.2605      0.3004799              1
     13890.0000         0.4946       -36.8357      0.7261734              1
     13890.5000         0.5132       -36.7346      0.8281708              1
     13891.0000         0.5324       -37.0478      0.5158691              1
     13891.5000         0.5494       -37.2701      0.2944603              1
     13892.0000         0.5593       -37.4031      0.1623573              1
     13892.5000         0.5576       -37.5618    0.004550934              1
     13893.0000         0.5442       -37.7466     -0.1793556              1
     13893.5000         0.5289       -37.8945     -0.3263588              1
     13894.0000         0.5178       -38.0021     -0.4330673              1
     13894.5000         0.5141       -38.1683     -0.5983696              1
     13895.0000         0.5188       -38.3586     -0.7877769              1
     13895.5000         0.5186       -38.5655     -0.9937782              1
     13896.0000         0.5118        -38.559     -0.9863815              1
     13896.5000         0.5116       -38.1063     -0.5327911              1
     13897.0000         0.5243       -37.9318     -0.3573952              1
     13897.5000         0.5539       -38.0207     -0.4454002              1
     13898.0000         0.6018       -38.0368     -0.4606056              1
     13898.5000         0.6058       -37.5712    0.005889893              1
     13899.0000         0.5803       -37.4713      0.1066856              1
     13899.5000         0.5555       -37.4769      0.1019821              1
     13900.0000         0.5592       -37.6611    -0.08132553              1
     13900.5000         0.5588       -37.8616     -0.2809296              1
     13901.0000         0.5459       -37.8741     -0.2925339              1
     13901.5000         0.5366       -37.8347      -0.252243              1
     13902.0000         0.5354       -37.9007     -0.3173447              1
     13902.5000         0.5386       -38.2278     -0.6435509              1
     13903.0000         0.5499       -38.6644      -1.079254      0.9988514
     13903.5000         0.5768       -39.0773      -1.491261      0.9928803
     13904.0000         0.6051       -39.4476      -1.860668      0.9875265
     13904.5000         0.6211       -39.6854      -2.097569      0.9840932
     13905.0000         0.5949        -39.676      -2.087273      0.9842424
     13905.5000         0.5509       -39.4364      -1.846783      0.9877278
     13906.0000         0.5043         -39.06      -1.469486      0.9931958
     13906.5000         0.4706       -39.8041      -2.212692      0.9824247
     13907.0000          0.448       -39.6323      -2.039997      0.9849276
     13907.5000         0.4452       -39.6931      -2.099899      0.9840595
     13908.0000         0.5019       -40.7219      -3.127808      0.9691622
     13908.5000         0.8016       -42.0067      -4.411709       0.950555
     13909.0000         1.2388       -42.3784      -4.782516      0.9451809
     13909.5000         1.4438       -42.0389       -4.44212      0.9501142
     13910.0000         1.1336       -41.4536      -3.855927      0.9586098
     13910.5000         0.6899       -40.4056      -2.807034      0.9738111
     13911.0000         0.5569       -40.1532      -2.553734      0.9774821
     13911.5000         0.5051       -40.1603      -2.559944      0.9773921
     13912.0000         0.4915       -39.9281      -2.326847      0.9807703
     13912.5000         0.4894       -39.4072       -1.80505      0.9883326
     13913.0000         0.4916       -38.9806      -1.377556      0.9945282
     13913.5000         0.5052       -38.7034      -1.099461      0.9985585
     13914.0000         0.5429        -38.505     -0.9001694              1
     13914.5000         0.5994       -38.2911     -0.6853714              1
     13915.0000         0.6751       -38.0269     -0.4202766              1
     13915.5000         0.6758       -37.7225     -0.1149826              1
     13916.0000         0.6468       -37.4056      0.2028122              1
     13916.5000         0.5925       -37.1352      0.4741058              1
     13917.0000         0.5539       -37.2022      0.4080009              1
     13917.5000         0.5361       -37.5463     0.06480026              1
     13918.0000         0.5415       -37.7321     -0.1201096              1
     13918.5000         0.5571       -37.7601      -0.147213              1
     13919.0000         0.5903       -37.9047     -0.2909164              1
     13919.5000         0.6325       -38.3047     -0.6900215              1
     13920.0000         0.6577        -38.652      -1.036427      0.9994721
     13920.5000         0.5791       -38.8101      -1.193634      0.9971937
     13921.0000         0.5222       -38.8637      -1.246338      0.9964299
     13921.5000         0.4943       -38.8039      -1.185642      0.9973095
