#------------------------------------------------------------------------------
# Created by    : vladimir.rabinovich
# Created on    : 09/19/2023 17:20:46
#------------------------------------------------------------------------------
~Version Information Section
VERS.           2.0     :   CWLS log ASCII Standard - VERSION 2.0
WRAP.           NO      :   One line per depth step
~Well Information Section
#MNEM       .UNIT                                         VALUE :DESCRIPTION
#------------------------------------------------------------------------------
STRT        .FT                                            1957 :START DEPTH
STOP        .FT                                            6608 :STOP DEPTH
STEP        .FT                                             0.5 :STEP      
NULL        .                                           -999.25 :NULL      
COMP        .                            HIGHLAND RESOURCES INC :COMPANY   
WELL        .                                     ST TR 00691-L :WELL      
FLD         .                                           WILDCAT :FIELD     
LOC         .                                                   :LOCATION  
CNTY        .                      MATAGORDA ISLAND LARGE BLOCK :LOCATION  
STAT        .                                             TEXAS :STATE     
CTRY        .                                     UNITED STATES :COUNTRY   
SRVC        .                                                   :SERVICE COMPANY
DATE        .                             9/13/2023 11:12:01 AM :LOG DATE  
API         .                                    42703000470000 :API NUMBER
UWI         .                                    42703000470000 :UNIQUE WELL ID
XCOORD      .                                  404407.912506245 :SURFACE X 
YCOORD      .                                  10154689.9311845 :SURFACE Y 
LAT         .                                        27.9298131 :LATITUDE  
LON         .                                       -96.8274765 :LONGITUDE 
ELEV        .FT                                              63 :ELEVATION VALUE
ELEV_TYPE   .                                                KB :ELEVATION REFERENCE TYPE
~Curve Information Section
#MNEM       .UNIT                                      API CODE :CURVE DESCRIPTION
#------------------------------------------------------------------------------
DEPT        .FT                                                 :DEPTH     
ASN         .OHMM                                               :          
CILD        .MMHO                                               :          
ILD         .OHMM                                               :          
SP          .MV                                                 :          
SP_NORM     .MV                                                 :SP Normalized
VSH_SP      .V/V                                                :Volume of Shale from SP
~A        DEPTH            ASN           CILD            ILD             SP        SP_NORM         VSH_SP
# ...
      5643.0000         1.0395       2686.426         0.4219      -143.2578       -89.5931     0.05877063
      5643.5000         1.0745       2640.113         0.4306      -143.6487       -89.9812     0.05455216
      5644.0000         1.0999       2593.801         0.4394      -143.5195       -89.8492     0.05598699
      5644.5000         1.1253       2547.488         0.4481      -141.2092       -87.5361     0.08112932
      5645.0000          1.146       2501.125         0.4568      -138.8987       -85.2229      0.1062728
      5645.5000         1.1077       2315.727         0.4655      -136.5884       -82.9098      0.1314152
      5646.0000         1.0128       2220.117         0.4816      -134.2781       -80.5967      0.1565576
      5646.5000         0.9308       2120.223         0.5063      -131.9675       -78.2833      0.1817032
      5647.0000         0.8638       2009.023          0.531      -129.6572       -75.9702      0.2068457
      5647.5000         0.7964       1986.938         0.5557      -127.3469       -73.6571      0.2319881
      5648.0000         0.7135       1973.906         0.5804      -120.3064       -66.6138      0.3085456
      5648.5000         0.6769       1948.807         0.6091       -96.0278       -42.3325      0.5724728
      5649.0000         0.6647       1867.238         0.6494       -87.3772       -33.6791      0.6665315
      5649.5000         0.6977       1785.668         0.6897       -85.5468       -31.8459      0.6864576
      5650.0000         0.7308         1704.1         0.7301       -84.3618       -30.6581      0.6993685
      5650.5000         0.7639       1622.529         0.7704       -83.4467       -29.7402      0.7093456
      5651.0000         0.8021       1540.961         0.8107       -83.0797       -29.3704      0.7133652
      5651.5000         0.8517       1459.391          0.851       -83.3864       -29.6743       0.710062
      5652.0000         0.9013       1377.723         0.8913       -83.6932       -29.9784      0.7067565
      5652.5000          0.951       1296.152         0.9377       -83.9999       -30.2823      0.7450252
      5653.0000         1.0005       1214.584         0.9933       -84.3153       -30.5949      0.7421038
      5653.5000           1.05       1133.016         1.0489       -84.6483       -30.9251      0.7390177
      5654.0000         1.0982       1051.445         1.1044       -84.9816       -31.2556       0.735929
      5654.5000         1.1452        969.877         1.1599       -85.3147       -31.5859      0.7328421
      5655.0000         1.1886       888.3076         1.2155       -85.6477       -31.9161      0.7297561
      5655.5000          1.232       806.9375          1.271       -85.9807       -32.2464      0.7266692
      5656.0000         1.2784       787.5166         1.3266       -86.3137       -32.5766      0.7235832
      5656.5000         1.3264       768.0947         1.3754       -85.9802       -32.2403      0.7267262
      5657.0000          1.378       733.2861         1.4072       -84.9167        -31.174      0.7366916
      5657.5000         1.4423       697.1084         1.4373       -83.8533       -30.1078      0.7466561
      5658.0000         1.4901       665.4609         1.4476       -83.6106       -29.8623      0.7489505
      5658.5000         1.5135       644.3467         1.4578       -83.9392       -30.1881      0.7459056
      5659.0000         1.5298       643.4502         1.4681       -84.2676       -30.5138      0.7428617
      5659.5000         1.5466       646.6191         1.4784       -85.3049       -31.5483      0.7331935
      5660.0000         1.5629       648.6455         1.4887       -86.4703       -32.7109      0.7223281
      5660.5000         1.5688       647.6104         1.4949       -87.6348       -33.8726       0.711471
      5661.0000         1.5747       646.5742         1.4681       -88.8002       -35.0352      0.7006056
      5661.5000         1.5806       645.5391         1.4412       -89.9656       -36.1978      0.6897402
      5662.0000         1.5865       644.5039         1.4143        -91.131       -37.3604      0.6788747
      5662.5000         1.5924       659.8965         1.3875       -92.2908       -38.5175      0.6680607
      5663.0000          1.603       677.3135         1.3606       -91.6525       -37.8764      0.6740524
      5663.5000         1.6161       694.7305         1.3338       -90.6724       -36.8935      0.6832383
      5664.0000         1.6293       713.0928         1.3069       -89.6886       -35.9069      0.6924589
      5664.5000         1.6028       742.2246           1.28       -88.7039       -34.9194      0.7016879
      5665.0000         1.5655       771.3818         1.2532         -87.72       -33.9327      0.7109093
      5665.5000         1.5132       800.5381         1.2263       -86.7362       -32.9461      0.7201299
      5666.0000         1.4602       829.6699         1.1994       -85.9233       -32.1304      0.7277533
      5666.5000         1.4072       858.8271         1.1671       -85.6866        -31.891      0.7299907
      5667.0000         1.3576        887.959         1.1304       -85.4501       -31.6517      0.7322271
      5667.5000         1.3108       908.6748         1.0936       -85.2273       -31.4261      0.7343355
      5668.0000         1.2603       927.0127         1.0568        -85.467        -31.663      0.7321215
      5668.5000         1.2003       945.3516           1.02        -85.707       -31.9002      0.7299047
      5669.0000         1.1838       963.6895         0.9897       -85.9469       -32.1373      0.7276888
      5669.5000         1.1734       980.7822         0.9696       -86.1866       -32.3742      0.7254748
      5670.0000         1.1664       957.1533         0.9777       -86.4265       -32.6114       0.723258
      5670.5000         1.1594       933.5488         0.9858       -86.6663       -32.8484       0.721043
      5671.0000         1.1721       909.9199         0.9939       -86.9061       -33.0854       0.718828
      5671.5000         1.2014       873.7168         1.0021       -87.1459       -33.3224      0.7166131
      5672.0000         1.2704       835.6211         1.0102       -88.0081       -34.1818      0.7085813
      5672.5000         1.3394       819.3867         1.0183       -88.8872       -35.0581      0.7003916
      5673.0000         1.4513       874.0654         1.0103       -89.7664       -35.9345      0.6922009
      5673.5000         1.4666       928.6934         0.9884       -90.6445       -36.8099      0.6840196
      5674.0000         1.4878       981.7783         0.9666       -92.3519       -38.5145      0.6680888
      5674.5000         1.5485       1030.082         0.9448        -95.509       -41.6688      0.6386093
      5675.0000         1.5716       1078.436          0.923       -98.9736       -45.1306      0.6062561
      5675.5000          1.576        1126.74            0.9      -102.2012       -48.3554      0.5761178
      5676.0000         1.5805       1175.145         0.8736       -104.858       -51.0094       0.551314
      5676.5000         1.5727       1298.941         0.8472      -107.7372       -53.8858      0.5244318
      5677.0000          1.539       1310.943         0.8208      -111.5243       -57.6702      0.4890636
      5677.5000         1.4994       1292.145         0.7944      -117.4531       -63.5962      0.4336804
      5678.0000         1.4071       1273.346         0.7679      -120.8918       -67.0321      0.4015692
      5678.5000         1.3096       1247.227         0.7543      -123.2189       -69.3564      0.3798467
      5679.0000         1.2418       1219.963         0.7635      -124.0869       -70.2216      0.3717607
      5679.5000          1.217       1192.697         0.7728      -123.2338       -69.3657      0.3797598
      5680.0000         1.1937       1165.459          0.782      -118.4203       -64.5494       0.424772
      5680.5000         1.1727       1138.193         0.7913      -106.3884       -52.5147      0.5372458
