#------------------------------------------------------------------------------
# Created by    : vladimir.rabinovich
# Created on    : 09/19/2023 17:19:49
#------------------------------------------------------------------------------
~Version Information Section
VERS.           2.0     :   CWLS log ASCII Standard - VERSION 2.0
WRAP.           NO      :   One line per depth step
~Well Information Section
#MNEM       .UNIT                                         VALUE :DESCRIPTION
#------------------------------------------------------------------------------
STRT        .FT                                            1295 :START DEPTH
STOP        .FT                                            4592 :STOP DEPTH
STEP        .FT                                             0.5 :STEP      
NULL        .                                           -999.25 :NULL      
COMP        .                     FREEPORT-MCMORAN OIL & GAS CO :COMPANY   
WELL        .                                     ST TR 00662-L :WELL      
FLD         .                                         SIX-SIXTY :FIELD     
LOC         .                                                   :LOCATION  
CNTY        .                      MATAGORDA ISLAND LARGE BLOCK :LOCATION  
STAT        .                                             TEXAS :STATE     
CTRY        .                                     UNITED STATES :COUNTRY   
SRVC        .                                                   :SERVICE COMPANY
DATE        .                             9/13/2023 11:19:13 AM :LOG DATE  
API         .                                    42703300650000 :API NUMBER
UWI         .                                    42703300650000 :UNIQUE WELL ID
XCOORD      .                                  434889.841251994 :SURFACE X 
YCOORD      .                                  10179416.4588751 :SURFACE Y 
LAT         .                                        28.0002971 :LATITUDE  
LON         .                                       -96.7355909 :LONGITUDE 
ELEV        .FT                                              77 :ELEVATION VALUE
ELEV_TYPE   .                                                KB :ELEVATION REFERENCE TYPE
~Curve Information Section
#MNEM       .UNIT                                      API CODE :CURVE DESCRIPTION
#------------------------------------------------------------------------------
DEPT        .FT                                                 :DEPTH     
ASFL        .OHMM                                               :          
CILD        .MMHO                                               :          
ILD         .OHMM                                               :          
SFL         .OHMM                                               :          
SP          .MV                                                 :          
SP_NORM     .MV                                                 :SP Normalized
VSH_SP      .V/V                                                :Volume of Shale from SP
~A        DEPTH           ASFL           CILD            ILD            SFL             SP        SP_NORM         VSH_SP
# ...
      2166.0000         1.3289       804.8594         1.2298         1.3009       -30.7982      -3.480759      0.9329525
      2166.5000         1.4131        784.708         1.2553         1.3288       -28.4819      -1.162174      0.9956169
      2167.0000         1.4764       765.3437         1.2807         1.3568       -27.2186      0.1034107              1
      2167.5000         1.4974       802.3291         1.2566         1.3835       -30.1919      -2.867607      0.9495241
      2168.0000         1.4714        878.167         1.2215         1.3354       -34.9824      -7.655823      0.8201129
      2168.5000         1.4329       984.8291         1.1707         1.2873       -43.7283      -16.39944       0.583799
      2169.0000         1.3866       1127.672          1.089         1.2392       -46.9533      -19.62216      0.4966985
      2169.5000         1.3226       1250.518         1.0041         1.1647        -49.079      -21.74557      0.4393089
      2170.0000         1.1567       1427.463         0.9176         1.0895       -50.8248      -23.48909      0.3921869
      2170.5000         1.0808       1713.197         0.7918         1.0496       -53.8733       -26.5353      0.3098567
      2171.0000         1.0456       1816.938         0.6836         1.0241       -56.6159      -29.27562      0.2357941
      2171.5000          1.019       1907.861         0.6262         0.9986       -57.8317      -30.48914      0.2029963
      2172.0000         0.9821       1959.014         0.5957         0.9791       -58.8301      -31.48525      0.1760742
      2172.5000          0.966         2001.9         0.5736          0.967       -59.6518      -32.30467      0.1539279
      2173.0000         0.9602       2037.797         0.5515         0.9548       -60.3442      -32.99479      0.1352761
      2173.5000         0.9661       2075.375         0.5298         0.9427        -61.007       -33.6553      0.1174242
      2174.0000         0.9719       2117.012         0.5082         0.9337       -61.6594      -34.30542     0.09985352
      2174.5000         0.9775       2161.223         0.4865         0.9355       -62.2275      -34.87123     0.08456122
      2175.0000         0.9744       2213.641         0.4669         0.9374       -62.7925      -35.43395     0.06935264
      2175.5000         0.9711        2282.66         0.4537         0.9393       -63.3533      -35.99247     0.05425768
      2176.0000         0.9676       2347.375         0.4405         0.9412        -64.004      -36.64088     0.03673296
      2176.5000          0.964       2405.137         0.4238         0.9399       -64.6715       -37.3061     0.01875408
      2177.0000           0.96       2458.465         0.4043         0.9386       -65.2732      -37.90552    0.002553579
      2177.5000         0.9531       2519.543         0.3848          0.937       -64.2925      -36.92253     0.02912068
      2178.0000         0.9396       2575.496         0.3652         0.9322       -63.1537      -35.78145     0.05996085
      2178.5000          0.926       2624.434         0.3546         0.9273       -62.0652      -34.69067     0.08944146
      2179.0000         0.9132       2663.586         0.3448         0.9225       -60.9968      -33.61998      0.1183789
      2179.5000         0.9004       2696.871         0.3351         0.9041       -58.5232       -31.1441      0.1852946
      2180.0000         0.8856       2680.648         0.3328         0.8822       -54.5889      -27.20751      0.2916888
      2180.5000         0.8674       2520.262         0.3532         0.8604       -51.3552      -23.97153      0.3791478
      2181.0000         0.8495       2440.426         0.3924         0.8453       -46.7325      -19.34654      0.5041475
      2181.5000          0.859       2327.676         0.4339         0.8358       -40.8278      -13.43956      0.6637957
      2182.0000         0.8956        2101.98         0.4755         0.8279       -24.7912       2.599321              1
      2182.5000         0.9258       1788.182         0.5219          0.859       -22.9616       4.431206              1
      2183.0000         0.9587       1381.332         0.5922         0.8902       -20.9118        6.48329              1
      2183.5000         1.0054       1184.393         0.6653         0.9227       -22.4842       4.913174              1
      2184.0000         1.0309       972.3564         0.7496         0.9659       -23.3829       4.016756              1
      2184.5000          1.056       881.0508         0.8345         1.0091       -24.1386       3.263342              1
      2185.0000         1.0792        849.708         0.9196         1.0521        -24.947       2.457224              1
      2185.5000          1.102       828.5859         0.9865         1.0943       -25.9158       1.490707              1
      2186.0000         1.1243       813.4961         1.0293         1.1365       -26.8136       0.595192              1
      2186.5000         1.1382       808.7666         1.0659         1.1605       -26.8713      0.5397758              1
      2187.0000         1.1482       814.2598         1.0838         1.1785       -25.3297       2.083658              1
      2187.5000         1.1392       820.8926         1.2028          1.212       -23.6547       3.760944              1
      2188.0000         1.1303       827.5215         1.2017         1.2043       -22.9733       4.444626              1
      2188.5000         1.1152       834.1543         1.2005         1.1927       -22.6603       4.759911              1
      2189.0000         1.0976       839.8916         1.1993         1.1812       -22.6653       4.757195              1
      2189.5000         1.0844        839.875          1.203         1.1724       -23.3064       4.118378              1
      2190.0000         1.0713       839.6807         1.2078         1.1642       -24.5673       2.859762              1
      2190.5000         1.0696       833.4814         1.2087          1.156       -25.8275       1.601847              1
      2191.0000         1.0733       827.2822         1.2015         1.1609       -27.0884      0.3432293              1
      2191.5000         1.0794       830.7109         1.1942         1.1665       -27.5859     -0.1519852              1
      2192.0000         1.0851       848.1982          1.186         1.1721       -26.6702      0.7659969              1
      2192.5000         1.0726       881.9541          1.154         1.1777        -25.479        1.95948              1
      2193.0000         1.0546       928.4297          1.122         1.1574       -25.8664       1.574366              1
      2193.5000         1.0359       1004.231         1.0483         1.1257       -31.7303      -4.287252      0.9111553
      2194.0000         1.0216       1154.447          0.972          1.094       -33.7419       -6.29657      0.8568495
      2194.5000         1.0131       1320.207         0.9059         1.0554       -35.1107      -7.663082      0.8199167
      2195.0000         1.0045       1538.529         0.8415         1.0153       -40.2677       -12.8178         0.6806
      2195.5000          0.996       1915.037         0.7791         0.9793       -47.9933      -20.54112      0.4718617
      2196.0000         0.9871       2067.801          0.718         0.9645       -55.1564      -27.70193      0.2783262
      2196.5000         0.9781       2121.566         0.6606         0.9497       -59.7064      -32.24965      0.1554149
      2197.0000         0.9661       2175.336         0.6278         0.9348       -61.5237      -34.06467      0.1063604
      2197.5000         0.9515       2229.105         0.5949           0.92       -62.7031      -35.24178      0.0745465
      2198.0000         0.9524       2252.297          0.562         0.9116       -63.7561       -36.2925     0.04614877
      2198.5000         0.9604       2273.258          0.532         0.9149       -64.0596      -36.59372     0.03800768
      2199.0000         0.9684        2295.98         0.5024         0.9182       -63.3869      -35.91873     0.05625049
