#------------------------------------------------------------------------------
# Created by    : vladimir.rabinovich
# Created on    : 09/19/2023 17:20:46
#------------------------------------------------------------------------------
~Version Information Section
VERS.           2.0     :   CWLS log ASCII Standard - VERSION 2.0
WRAP.           NO      :   One line per depth step
~Well Information Section
#MNEM       .UNIT                                         VALUE :DESCRIPTION
#------------------------------------------------------------------------------
STRT        .FT                                            1000 :START DEPTH
STOP        .FT                                            6719 :STOP DEPTH
STEP        .FT                                             0.5 :STEP      
NULL        .                                           -999.25 :NULL      
COMP        .                                 CALIFORNIA CO THE :COMPANY   
WELL        .                                     ST TR 00695-L :WELL      
FLD         .                                           WILDCAT :FIELD     
LOC         .                                                   :LOCATION  
CNTY        .                      MATAGORDA ISLAND LARGE BLOCK :LOCATION  
STAT        .                                             TEXAS :STATE     
CTRY        .                                     UNITED STATES :COUNTRY   
SRVC        .                                                   :SERVICE COMPANY
DATE        .                             9/13/2023 11:12:01 AM :LOG DATE  
API         .                                    42703000270000 :API NUMBER
UWI         .                                    42703000270000 :UNIQUE WELL ID
XCOORD      .                                   404842.11633791 :SURFACE X 
YCOORD      .                                  10151340.1845366 :SURFACE Y 
LAT         .                                        27.9206537 :LATITUDE  
LON         .                                       -96.8258101 :LONGITUDE 
ELEV        .FT                                              11 :ELEVATION VALUE
ELEV_TYPE   .                                                KB :ELEVATION REFERENCE TYPE
~Curve Information Section
#MNEM       .UNIT                                      API CODE :CURVE DESCRIPTION
#------------------------------------------------------------------------------
DEPT        .FT                                                 :DEPTH     
ASN         .OHMM                                               :          
CILD        .MMHO                                               :          
ILD         .OHMM                                               :          
SP          .MV                                                 :          
SP_NORM     .MV                                                 :SP Normalized
VSH_SP      .V/V                                                :Volume of Shale from SP
~A        DEPTH            ASN           CILD            ILD             SP        SP_NORM         VSH_SP
# ...
      3280.0000         1.9656       1131.721         0.7968       -75.4817       -30.1987      0.5138155
      3280.5000         1.9015       1234.457         0.7473       -82.2799       -36.9969      0.3966052
      3281.0000         1.8349       1337.193         0.7149       -85.1854       -39.9024      0.3465103
      3281.5000         1.7358       1446.428         0.6972       -87.6772       -42.3942      0.3035483
      3282.0000         1.5436       1566.311         0.6794       -88.6211       -43.3381      0.2872741
      3282.5000         1.4862       1742.436         0.6629       -88.7133       -43.4303      0.2856845
      3283.0000         1.4608       1780.855         0.6507       -86.0289       -40.7459      0.3319673
      3283.5000         1.5249       1814.264         0.6385       -83.3434       -38.0604       0.378269
      3284.0000         1.5164        1782.23         0.6263       -80.6591       -35.3761        0.42455
      3284.5000         1.5079       1729.762         0.6272       -78.1635       -32.8805      0.4675776
      3285.0000         1.5188       1669.871         0.6336       -75.6979       -30.4149      0.5100879
      3285.5000         1.5364       1608.529           0.64       -74.2751       -28.9921       0.534619
      3286.0000         1.5573       1547.188         0.6464       -73.1898       -27.9068       0.553331
      3286.5000         1.5894       1489.672         0.6523       -73.5328       -28.2498      0.5474172
      3287.0000         1.6215       1437.178         0.6572       -74.1202       -28.8372      0.5372897
      3287.5000         1.6762       1405.846          0.662       -74.7075       -29.4245      0.5271638
      3288.0000         1.6746       1392.197         0.6669       -75.2661       -29.9831      0.5175328
      3288.5000         1.2566       1378.549         0.6717       -75.7413       -30.4583      0.5093397
      3289.0000         1.1553       1401.809         0.6766       -70.3381       -25.0551      0.6024983
      3289.5000         1.0872       1444.553         0.6728       -64.1422       -18.8592      0.7093241
      3290.0000         1.0212       1487.271         0.6668       -54.7604        -9.4774      0.8710793
      3290.5000         0.9301       1528.041         0.6608       -53.8875        -8.6045      0.8861293
      3291.0000         0.8943       1558.123         0.6524       -53.0139        -7.7309      0.9011914
      3291.5000         0.8836       1588.207         0.6427       -52.1411        -6.8581      0.9162397
      3292.0000          0.873       1608.018         0.6329       -53.1539        -7.8709      0.8987776
      3292.5000         0.8623       1616.703         0.6232       -55.1209        -9.8379      0.8648638
      3293.0000         0.8517       1554.463         0.6227       -57.0866       -11.8036      0.8309724
      3293.5000         0.8994       1483.322         0.6756       -59.0648       -13.7818      0.7968655
      3294.0000         0.9946       1412.182         0.7285       -58.4494       -13.1664      0.8074759
      3294.5000         1.0906       1341.043         0.7814       -57.3034       -12.0204      0.8272345
      3295.0000         1.1854       1269.852         0.8342       -56.1569       -10.8739      0.8470017
      3295.5000         1.2802       1183.164         0.8871       -55.1771        -9.8941      0.8638948
      3296.0000         1.3384       1066.281           0.94       -55.3568       -10.0738      0.8607966
      3296.5000         1.3809       979.2939         0.9929       -56.1384       -10.8554      0.8473207
      3297.0000         1.4077       922.8516         1.0457       -56.9204       -11.6374      0.8338379
      3297.5000         1.4321       866.4346         1.0986       -57.7021       -12.4191      0.8203604
      3298.0000         1.4602       817.1914         1.1456       -58.4838       -13.2008      0.8068827
      3298.5000         1.4897       769.0479         1.1923       -59.2657       -13.9827      0.7934017
      3299.0000         1.5193       774.2227          1.239       -63.5524       -18.2694      0.7194931
      3299.5000         1.6544       804.2178         1.2857       -69.1328       -23.8498      0.6232793
      3300.0000         1.6906       839.1631         1.3324       -70.1541       -24.8711      0.6056707
      3300.5000         1.7267       874.1338         1.3451       -70.6068       -25.3238      0.5978655
      3301.0000         1.7504       937.1494         1.2588       -71.0594       -25.7764      0.5900621
      3301.5000         1.6372       1017.188          1.145       -71.5431       -26.2601      0.5817224
      3302.0000         1.4315       1084.953         0.9027       -72.2692       -26.9862      0.5692034
      3302.5000         1.3202       1113.273         0.8432       -72.9952       -27.7122      0.5566862
      3303.0000         1.2701       1141.607         0.8355       -73.7209       -28.4379      0.5441741
      3303.5000         1.2337        1167.18         0.8279        -74.447        -29.164      0.5316552
      3304.0000         1.2466        1189.17         0.8338       -74.9497       -29.6667      0.5229879
      3304.5000         1.3045       1180.852         0.8413       -67.0339       -21.7509      0.6594672
      3305.0000         1.3486       1172.529         0.8488       -57.9202       -12.6372         0.8166
      3305.5000         1.3926       1164.211         0.8563        -61.198        -15.915      0.7600862
      3306.0000         1.4367       1155.893          0.861       -65.4293       -20.1463      0.6871328
      3306.5000         1.4862        1147.57          0.849       -69.6608       -24.3778      0.6141759
      3307.0000         1.4249       1676.445          0.837       -73.8071       -28.5241       0.542688
      3307.5000         1.3635       1824.174         0.7197       -76.3234       -31.0404      0.4993035
      3308.0000         1.3021       1772.182          0.596        -78.141        -32.858      0.4679655
      3308.5000           1.23       1862.818         0.4692        -80.183          -34.9      0.4327586
      3309.0000         1.1214       1970.766         0.4145       -82.2262       -36.9432      0.3975311
      3309.5000         1.0573        2422.02         0.3868       -84.7593       -39.4763      0.3538569
      3310.0000         1.0063       2583.699         0.3613       -87.6722       -42.3892      0.3036345
      3310.5000         0.9665       2681.734         0.2946       -90.5852       -45.3022      0.2534103
      3311.0000         0.9384       3167.016         0.2682       -93.4969       -48.2139      0.2032086
      3311.5000         0.9136       3263.402         0.2626       -99.4504       -54.1674      0.1005621
      3312.0000         0.8925       3187.961         0.2569      -106.8722       -61.5892              0
      3312.5000         0.8753       3114.723         0.2559      -104.9901       -59.7071    0.005050002
      3313.0000         0.8691       3048.383         0.2648      -102.7595       -57.4765      0.0435086
      3313.5000         0.8963        2982.09         0.2737      -101.4036       -56.1206     0.06688618
      3314.0000          0.923       2915.699         0.2826      -103.2806       -57.9976     0.03452413
      3314.5000          0.949       2849.461         0.2914      -103.6105       -58.3275     0.02883622
      3315.0000         0.8725       2788.543         0.3003      -101.1387       -55.8557     0.07145342
      3315.5000         0.7778       2741.426         0.3092       -98.6655       -53.3825      0.1140948
      3316.0000         0.7514       2768.473         0.3181       -95.8088       -50.5258      0.1633483
      3316.5000         0.8386       2835.637         0.3239       -92.6322       -47.3492      0.2181172
      3317.0000         0.9559       2893.652         0.3298        -89.458        -44.175      0.2728449
      3317.5000         1.0695        2945.07         0.3356       -86.8212       -41.5382      0.3183069
