#------------------------------------------------------------------------------
# Created by    : vladimir.rabinovich
# Created on    : 09/19/2023 17:20:49
#------------------------------------------------------------------------------
~Version Information Section
VERS.           2.0     :   CWLS log ASCII Standard - VERSION 2.0
WRAP.           NO      :   One line per depth step
~Well Information Section
#MNEM       .UNIT                                         VALUE :DESCRIPTION
#------------------------------------------------------------------------------
STRT        .FT                                             556 :START DEPTH
STOP        .FT                                            7001 :STOP DEPTH
STEP        .FT                                             0.5 :STEP      
NULL        .                                           -999.25 :NULL      
COMP        .                          HUMBLE OIL & REFINING CO :COMPANY   
WELL        .                                     ST TR 00598-L :WELL      
FLD         .                                           WILDCAT :FIELD     
LOC         .                                                   :LOCATION  
CNTY        .                      MATAGORDA ISLAND LARGE BLOCK :LOCATION  
STAT        .                                             TEXAS :STATE     
CTRY        .                                     UNITED STATES :COUNTRY   
SRVC        .                                                   :SERVICE COMPANY
DATE        .                             9/13/2023 11:12:05 AM :LOG DATE  
API         .                                    42703000080000 :API NUMBER
UWI         .                                    42703000080000 :UNIQUE WELL ID
XCOORD      .                                  502144.869554487 :SURFACE X 
YCOORD      .                                  10234432.9570627 :SURFACE Y 
LAT         .                                        28.1568958 :LATITUDE  
LON         .                                       -96.5324651 :LONGITUDE 
ELEV        .FT                                              15 :ELEVATION VALUE
ELEV_TYPE   .                                                KB :ELEVATION REFERENCE TYPE
~Curve Information Section
#MNEM       .UNIT                                      API CODE :CURVE DESCRIPTION
#------------------------------------------------------------------------------
DEPT        .FT                                                 :DEPTH     
ASN         .OHMM                                               :          
CALI        .IN                                                 :          
CILD        .MMHO                                               :          
DT          .US/F                                               :          
ILD         .OHMM                                               :          
SP          .MV                                                 :          
SP_NORM     .MV                                                 :SP Normalized
VSH_SP      .V/V                                                :Volume of Shale from SP
~A        DEPTH            ASN           CALI           CILD             DT            ILD             SP        SP_NORM         VSH_SP
# ...
      6544.5000         1.2739         9.2275       918.9434       106.3774          0.989       -41.2312        -5.5299      0.8319095
      6545.0000         1.2788         9.2301        903.959       107.2489         1.0179       -41.2997        -5.5907      0.8290143
      6545.5000         1.2838         9.2111        883.584       108.3204         1.0468       -41.2649        -5.5483      0.8310333
      6546.0000         1.3039         9.1893       841.0947       110.6274         1.0757       -41.1841        -5.4598      0.8352476
      6546.5000         1.3301         9.1847       798.6543       109.8123         1.1446       -41.1033        -5.3714      0.8394572
      6547.0000         1.3564         9.1896        756.165       109.7286         1.2174       -41.0225        -5.2829      0.8436714
      6547.5000         1.4065         9.1912       709.8086       109.9346         1.2903        -40.961        -5.2138      0.8469619
      6548.0000         1.4665         9.1909        663.501        105.689         1.3632       -40.9476        -5.1928      0.8479619
      6548.5000         1.5602         9.1882       622.8975       103.4844         1.4361       -40.9343        -5.1718      0.8489619
      6549.0000         1.5929         9.1727        605.665       101.9191         1.4945       -40.9244        -5.1543      0.8497952
      6549.5000         1.6186         9.1161       588.4316       101.9965         1.5386       -40.9512        -5.1734      0.8488857
      6550.0000         1.6399         8.8798       571.2236        102.047         1.5827       -40.9778        -5.1924       0.847981
      6550.5000         1.6567         8.6736       568.3701       100.8842         1.5554       -41.0045        -5.2115      0.8470714
      6551.0000         1.6659         8.6316       569.2061        99.1327         1.4974       -41.0312        -5.2305      0.8461667
      6551.5000         1.6572         8.4628       605.0117        97.9094         1.4395       -40.9946        -5.1863      0.8482714
      6552.0000         1.5874         8.4221       649.6768       100.7905         1.3417       -40.9503        -5.1343      0.8507476
      6552.5000           1.45         8.4953       700.2861         103.04         1.2393       -40.9058        -5.0822      0.8532286
      6553.0000         1.4011          8.621       775.4033        108.705          1.137       -40.8306        -4.9994      0.8571714
      6553.5000         1.3475          9.032       842.4004       112.3196         1.0346       -40.6793        -4.8404      0.8647429
      6554.0000         1.2912         9.1912       876.4785        113.224         0.9984       -40.5278        -4.6813       0.872319
      6554.5000         1.2555          9.234       910.5566       114.6158         0.9701       -40.3763        -4.5221         0.8799
      6555.0000         1.2316         9.1605        941.252       113.3437         0.9417       -40.2249        -4.3631      0.8874714
      6555.5000           1.22          9.087       958.0732       110.1907         0.9699       -40.0706        -4.2011      0.8951857
      6556.0000         1.2256         9.0675       929.8193       110.8596         1.0051       -39.9158        -4.0387      0.9029191
      6556.5000         1.2492         9.0479        901.373       110.6024         1.0403       -39.7611        -3.8764      0.9106476
      6557.0000         1.2728         9.0291       872.9258       108.5377         1.0755        -39.618        -3.7256      0.9178286
      6557.5000         1.2999         9.0109       844.4062       107.8967         1.1175       -39.6265        -3.7265      0.9177857
      6558.0000         1.3354         9.0161       815.8867       106.0835         1.1765       -39.6351        -3.7274      0.9177428
      6558.5000         1.3709         9.0303       787.3672       103.7815         1.2356       -39.6437        -3.7284      0.9176952
      6559.0000         1.4044         9.0478       758.8477       103.6367         1.2945       -39.6632        -3.7403      0.9171286
      6559.5000          1.433         9.0494       733.2891       104.4531         1.2721       -39.8266         -3.896      0.9097143
      6560.0000         1.4492         9.0491       719.8145        103.241         1.2387       -39.9897        -4.0515      0.9023095
      6560.5000         1.4338         9.0463       737.4102       103.1112         1.2053       -40.1531        -4.2072      0.8948953
      6561.0000         1.4183         9.0321       776.1768       101.5482          1.172       -40.3251        -4.3716      0.8870667
      6561.5000         1.4029         9.0203       814.8955        100.803          1.137       -40.5192         -4.558      0.8781905
      6562.0000         1.3722         9.0156       852.5996        102.296         1.1004       -40.7134        -4.7446      0.8693048
      6562.5000         1.3249         9.0118       890.3027       106.0085         1.0638       -40.8539        -4.8775      0.8629762
      6563.0000         1.3003          9.011       928.0068       111.1716         1.0272        -40.938        -4.9539      0.8593381
      6563.5000         1.2789         9.0095       946.6895       112.8832         1.0672       -41.0222        -5.0305      0.8556905
      6564.0000         1.2697         9.0042       910.8955       110.8121         1.1445       -41.0979        -5.0985      0.8524524
      6564.5000         1.2928         9.0004       874.8838         110.52         1.2055       -41.1524        -5.1454      0.8502191
      6565.0000          1.316         8.9873       838.8232       111.2959         1.2587        -41.207        -5.1924       0.847981
      6565.5000         1.3413         8.8963        797.542        111.726         1.3119       -41.2615        -5.2392      0.8457524
      6566.0000          1.396         8.5058        756.165       113.4486         1.3651       -41.3299           -5.3      0.8428571
      6566.5000         1.4506         8.3567       714.8359       111.9756         1.4183       -41.5354        -5.4978      0.8334381
      6567.0000         1.4922          8.412       685.1807       108.9946         1.4716        -41.741        -5.6958      0.8240095
      6567.5000         1.5273         8.4684       663.4531       105.4343         1.4695       -41.9468         -5.894      0.8145714
      6568.0000         1.5608         8.5745       648.9639       102.8365         1.4589       -42.0961        -6.0356      0.8078285
      6568.5000         1.5724         8.7158       645.5107       103.2548         1.4502       -42.2213        -6.1532      0.8022286
      6569.0000         1.5827         8.9122       643.7852       103.5793         1.4425       -42.3463        -6.2705      0.7966428
      6569.5000         1.5734         8.9729       649.1992       103.0051         1.4324       -42.4399        -6.3565      0.7925476
      6570.0000         1.5641         8.7003       654.6133        104.488         1.4211       -42.4617        -6.3706      0.7918762
      6570.5000         1.5545         8.4564       660.0264       105.9886         1.4098       -42.4835        -6.3848         0.7912
      6571.0000           1.54         8.3586       665.4463       106.8275         1.3985       -42.5052        -6.3989      0.7905286
      6571.5000         1.5255         8.3542       670.8604       110.9095         1.3872       -42.4321        -6.3181      0.7943762
      6572.0000         1.5109         8.3212       663.5498       110.1643         1.3976        -42.349        -6.2274      0.7986953
      6572.5000         1.5115         8.2476       656.1602       109.6282         1.4118       -42.2657        -6.1364      0.8030286
      6573.0000           1.52          8.226       648.7764       108.9684         1.4259       -42.1891        -6.0522      0.8070381
      6573.5000         1.5285         8.2783       641.3926        107.564           1.44       -42.1703        -6.0258      0.8082952
