#------------------------------------------------------------------------------
# Created by    : vladimir.rabinovich
# Created on    : 09/19/2023 17:20:45
#------------------------------------------------------------------------------
~Version Information Section
VERS.           2.0     :   CWLS log ASCII Standard - VERSION 2.0
WRAP.           NO      :   One line per depth step
~Well Information Section
#MNEM       .UNIT                                         VALUE :DESCRIPTION
#------------------------------------------------------------------------------
STRT        .FT                                            1401 :START DEPTH
STOP        .FT                                            4951 :STOP DEPTH
STEP        .FT                                             0.5 :STEP      
NULL        .                                           -999.25 :NULL      
COMP        .                      GULF ENERGY EXPLORATION CORP :COMPANY   
WELL        .                                ST TR 00596-L NE/4 :WELL      
FLD         .                        SHERMAN OFFSHORE SOUTHWEST :FIELD     
LOC         .                                                   :LOCATION  
CNTY        .                      MATAGORDA ISLAND LARGE BLOCK :LOCATION  
STAT        .                                             TEXAS :STATE     
CTRY        .                                     UNITED STATES :COUNTRY   
SRVC        .                                                   :SERVICE COMPANY
DATE        .                             9/13/2023 11:12:01 AM :LOG DATE  
API         .                                    42703301240000 :API NUMBER
UWI         .                                    42703301240000 :UNIQUE WELL ID
XCOORD      .                                    480210.3272994 :SURFACE X 
YCOORD      .                                  10243409.1849528 :SURFACE Y 
LAT         .                                        28.1797739 :LATITUDE  
LON         .                                       -96.6012532 :LONGITUDE 
ELEV        .FT                                              82 :ELEVATION VALUE
ELEV_TYPE   .                                                KB :ELEVATION REFERENCE TYPE
~Curve Information Section
#MNEM       .UNIT                                      API CODE :CURVE DESCRIPTION
#------------------------------------------------------------------------------
DEPT        .FT                                                 :DEPTH     
ASN         .OHMM                                               :          
CILD        .MMHO                                               :          
ILD         .OHMM                                               :          
SP          .MV                                                 :          
SP_NORM     .MV                                                 :SP Normalized
VSH_SP      .V/V                                                :Volume of Shale from SP
~A        DEPTH            ASN           CILD            ILD             SP        SP_NORM         VSH_SP
# ...
      4669.0000         0.5763       3099.538         0.2809        -63.689       -44.8211      0.1920547
      4669.5000         0.5744       3205.326         0.2814       -64.9625       -46.0946      0.1680264
      4670.0000         0.5704       3311.115         0.2753       -65.5543       -46.6864      0.1568604
      4670.5000         0.5665       3416.903         0.2728       -66.8369        -47.969      0.1326603
      4671.0000         0.5626       3522.691         0.2704       -67.9215       -49.0536      0.1121962
      4671.5000         0.5566       3597.249          0.268       -69.2042       -50.3363     0.08799434
      4672.0000         0.5527       3640.907         0.2657       -69.8951       -51.0272     0.07495851
      4672.5000         0.5468       3664.698         0.2634       -70.2867       -51.4188     0.06756981
      4673.0000         0.5429       3688.488         0.2612       -70.2822       -51.4143     0.06765474
      4673.5000         0.5389       3712.279          0.259       -70.2777       -51.4098     0.06773959
      4674.0000          0.539        3736.07         0.2568       -70.2731       -51.4052      0.0678264
      4674.5000          0.535       3759.861         0.2547       -70.2686       -51.4007     0.06791133
      4675.0000         0.5311       3783.652         0.2526       -70.3632       -51.4953     0.06612641
      4675.5000         0.5311       3807.442         0.2505       -70.4577       -51.5898     0.06434336
      4676.0000         0.5332       3831.233         0.2485       -70.3541       -51.4862     0.06629814
      4676.5000         0.5332       3855.024         0.2465       -70.2505       -51.3826     0.06825285
      4677.0000         0.5372       3878.815         0.2446       -70.1469        -51.279     0.07020756
      4677.5000         0.5372       3902.606          0.242       -70.0434       -51.1755      0.0721604
      4678.0000         0.5432       3926.396         0.2407       -69.7416       -50.8737     0.07785473
      4678.5000         0.5452       3950.187         0.2397         -69.44       -50.5721     0.08354525
      4679.0000         0.5493       3973.978         0.2388       -64.2749        -45.407          0.181
      4679.5000         0.5533       3997.769         0.2411       -62.3951       -43.5272      0.2164679
      4680.0000         0.5592       4025.781         0.2434       -62.4767       -43.6088      0.2149283
      4680.5000         0.5632        4025.78         0.2458        -62.487       -43.6191       0.214734
      4681.0000         0.5653       3510.184         0.2482       -63.5846       -44.7167      0.1940245
      4681.5000         0.5673       3514.162         0.2507       -64.6821       -45.8142       0.173317
      4682.0000         0.5693       3565.423         0.2532       -65.7797       -46.9118      0.1526075
      4682.5000         0.5713       3616.683         0.2558       -66.8773       -48.0094      0.1318981
      4683.0000         0.5694       3667.944         0.2585       -67.9748       -49.1069      0.1111906
      4683.5000         0.5674       3719.205         0.2611       -69.0724       -50.2045     0.09048116
      4684.0000         0.5615       3770.466         0.2639       -70.1699        -51.302     0.06977362
      4684.5000         0.5536       3821.727         0.2654       -71.2675       -52.3996     0.04906413
      4685.0000         0.5418       3863.196         0.2636       -71.9595       -53.0916     0.03600758
      4685.5000         0.5378       3814.032         0.2621        -71.955       -53.0871     0.03609243
      4686.0000         0.5319       3764.868         0.2589       -71.8514       -52.9835     0.03804714
      4686.5000          0.528       3715.704         0.2558       -71.7479         -52.88     0.03999998
      4687.0000          0.526       3684.787         0.2528       -71.6443       -52.7764     0.04195469
      4687.5000         0.5221        3680.83         0.2498       -71.4416       -52.5737     0.04577925
      4688.0000         0.5221       3684.802         0.2457        -71.338       -52.4701     0.04773396
      4688.5000         0.5202       3680.845         0.2457       -71.0361       -52.1682     0.05343016
      4689.0000         0.5202       3696.712         0.2457       -70.8334       -51.9655     0.05725472
      4689.5000         0.5203       3712.577         0.2469       -70.6306       -51.7627     0.06108115
      4690.0000         0.5223         3799.8         0.2481       -70.4279         -51.56     0.06490564
      4690.5000         0.5243       3791.879         0.2496        -70.126       -51.2581     0.07060191
      4691.0000         0.5263       3831.525         0.2496       -69.8241       -50.9562     0.07629812
      4691.5000         0.5303        3855.31         0.2482       -69.6213       -50.7534     0.08012455
      4692.0000         0.5343        3910.81         0.2456       -69.4185       -50.5506     0.08395098
      4692.5000         0.5403       3934.595         0.2431       -69.3149        -50.447     0.08590569
      4693.0000         0.5443       3942.524         0.2407       -69.3103       -50.4424     0.08599242
      4693.5000         0.5483        3958.38         0.2383       -69.4049        -50.537     0.08420757
      4694.0000         0.5563       3966.308          0.236          -69.5       -50.6321     0.08241323
      4694.5000         0.5642       3966.311         0.2337       -69.8915       -51.0236     0.07502639
      4695.0000         0.5702       3974.239         0.2315       -70.1844       -51.3165     0.06949997
      4695.5000         0.5802       4013.872         0.2293       -70.7747       -51.9068     0.05836228
      4696.0000         0.5901       4133.927         0.2271       -71.3651       -52.4972     0.04722264
      4696.5000          0.606       4141.951          0.225       -71.8563       -52.9884     0.03795473
      4697.0000          0.614       4149.975          0.222       -72.0524       -53.1845     0.03425469
      4697.5000          0.618       4154.034         0.2216       -72.5437       -53.6758      0.0249849
      4698.0000         0.6358       4158.094         0.2216       -72.7375       -53.8696     0.02132833
      4698.5000         0.6279       4162.153          0.222       -72.7308       -53.8629     0.02145472
      4699.0000         0.6088       4162.249         0.2265       -72.7308       -53.8629     0.02145472
      4699.5000         0.5897       4162.344         0.2312        -71.416       -52.5481     0.04626227
      4700.0000         0.5765       4158.477         0.2361       -70.1011       -51.2332      0.0710717
      4700.5000         0.5858       4152.535         0.2412       -68.7863       -49.9184     0.09587925
      4701.0000         0.5944       3459.883         0.2465       -67.6552       -48.7873      0.1172208
      4701.5000         0.6029       3232.973          0.252       -67.2574       -48.3895      0.1247264
      4702.0000         0.6115       3006.063         0.2579       -66.2606       -47.3927       0.143534
      4702.5000         0.6201       2779.153         0.3598       -65.2637       -46.3958      0.1623434
      4703.0000         0.6287       2552.243         0.3918       -64.2669        -45.399       0.181151
      4703.5000         0.6373       2371.995         0.4216         -63.27       -44.4021      0.1999604
      4704.0000         0.6458       2375.848         0.4209       -61.8881       -43.0202       0.226034
      4704.5000         0.6446       2470.787           0.38       -61.5895       -42.7216      0.2316679
      4705.0000         0.6388       2565.725         0.3507       -61.4894       -42.6215      0.2335566
      4705.5000         0.6285       2660.664          0.341       -62.9163       -44.0484      0.2066339
      4706.0000         0.6183       2755.602         0.3216       -64.3433       -45.4754      0.1797094
      4706.5000         0.6081       2850.541         0.3022       -65.7703       -46.9024      0.1527849
