#------------------------------------------------------------------------------
# Created by    : vladimir.rabinovich
# Created on    : 09/19/2023 17:20:49
#------------------------------------------------------------------------------
~Version Information Section
VERS.           2.0     :   CWLS log ASCII Standard - VERSION 2.0
WRAP.           NO      :   One line per depth step
~Well Information Section
#MNEM       .UNIT                                         VALUE :DESCRIPTION
#------------------------------------------------------------------------------
STRT        .FT                                             556 :START DEPTH
STOP        .FT                                            7001 :STOP DEPTH
STEP        .FT                                             0.5 :STEP      
NULL        .                                           -999.25 :NULL      
COMP        .                          HUMBLE OIL & REFINING CO :COMPANY   
WELL        .                                     ST TR 00598-L :WELL      
FLD         .                                           WILDCAT :FIELD     
LOC         .                                                   :LOCATION  
CNTY        .                      MATAGORDA ISLAND LARGE BLOCK :LOCATION  
STAT        .                                             TEXAS :STATE     
CTRY        .                                     UNITED STATES :COUNTRY   
SRVC        .                                                   :SERVICE COMPANY
DATE        .                             9/13/2023 11:12:05 AM :LOG DATE  
API         .                                    42703000080000 :API NUMBER
UWI         .                                    42703000080000 :UNIQUE WELL ID
XCOORD      .                                  502144.869554487 :SURFACE X 
YCOORD      .                                  10234432.9570627 :SURFACE Y 
LAT         .                                        28.1568958 :LATITUDE  
LON         .                                       -96.5324651 :LONGITUDE 
ELEV        .FT                                              15 :ELEVATION VALUE
ELEV_TYPE   .                                                KB :ELEVATION REFERENCE TYPE
~Curve Information Section
#MNEM       .UNIT                                      API CODE :CURVE DESCRIPTION
#------------------------------------------------------------------------------
DEPT        .FT                                                 :DEPTH     
ASN         .OHMM                                               :          
CALI        .IN                                                 :          
CILD        .MMHO                                               :          
DT          .US/F                                               :          
ILD         .OHMM                                               :          
SP          .MV                                                 :          
SP_NORM     .MV                                                 :SP Normalized
VSH_SP      .V/V                                                :Volume of Shale from SP
~A        DEPTH            ASN           CALI           CILD             DT            ILD             SP        SP_NORM         VSH_SP
       556.0000         0.0222        13.3042            395       162.0415         0.3257        -999.25        -999.25        -999.25
       556.5000         0.0602         13.481       518.5713       183.6079         0.4828        -999.25        -999.25        -999.25
       557.0000         0.1157        13.6242       968.6836       188.9504           0.72        -999.25        -999.25        -999.25
       557.5000         0.2187        13.7104       854.5391       189.1282         1.2842        -999.25        -999.25        -999.25
       558.0000         0.6756        13.7827       749.1846       186.8137          2.015        -999.25        -999.25        -999.25
       558.5000         1.0431        13.9074       572.3789       180.7917         2.3854        -999.25        -999.25        -999.25
       559.0000         1.1763        13.9753       295.7588       176.9749         2.6095        -999.25        -999.25        -999.25
       559.5000         1.3846        13.9982        167.908       174.5669         2.8107        -999.25        -999.25        -999.25
       560.0000         1.4901        14.0459        52.9193       169.3799          2.972        -999.25        -999.25        -999.25
       560.5000         1.6734        14.0947        88.0089       165.5107         3.0881        -999.25        -999.25        -999.25
       561.0000         1.7522        14.1699       297.5308       159.5347         3.1559        -999.25        -999.25        -999.25
       561.5000         1.8027        14.2647       306.7339       156.7588         3.0371        -999.25        -999.25        -999.25
       562.0000         1.8662         14.336       315.9375       157.1841         2.9149        -999.25        -999.25        -999.25
       562.5000         1.8475        14.4066       325.1416       160.5569         2.7138        -999.25        -999.25        -999.25
       563.0000         1.8206        14.5177       342.7202       164.8726         2.4569        -999.25        -999.25        -999.25
       563.5000         1.7878        14.6315       371.0361       171.4119         2.1079        -999.25        -999.25        -999.25
       564.0000         1.7513        14.8279       399.3525       175.0364         1.9025        -999.25        -999.25        -999.25
       564.5000         1.7093         14.925       431.6758        178.261         1.8445        -999.25        -999.25        -999.25
       565.0000         1.6789        14.7679       466.4902       182.0173         1.7935        -999.25        -999.25        -999.25
       565.5000         1.6536        14.5036         501.54       185.7737          1.757        -999.25        -999.25        -999.25
       566.0000         1.6382        14.2323       537.6104       189.4507         1.7468        -999.25        -999.25        -999.25
       566.5000          1.644         14.039       568.1143       190.4973         1.7367        -999.25        -999.25        -999.25
       567.0000         1.6702        13.8684       579.3818        186.188         1.9448        -999.25        -999.25        -999.25
       567.5000         1.6877        13.7579       539.5244        182.186         2.1577        -999.25        -999.25        -999.25
       568.0000         1.7051        13.6339        498.291       179.9028         2.3981        -999.25        -999.25        -999.25
       568.5000         1.7131          13.53       457.0605       177.7449          2.571        -999.25        -999.25        -999.25
       569.0000         1.7195          13.45        419.208        173.436         2.6453        -999.25        -999.25        -999.25
       569.5000         1.7258        13.4299       384.5679       166.2087         2.6836        -999.25        -999.25        -999.25
       570.0000         1.7299         13.445       361.1284         161.21         2.6518        -999.25        -999.25        -999.25
       570.5000         1.7331        13.5895       355.1816        157.863         2.5736        -999.25        -999.25        -999.25
       571.0000         1.7319        13.7685       368.8047       156.2554         2.4519        -999.25        -999.25        -999.25
       571.5000         1.7225        14.0459       386.8188       155.8088         2.3302        -999.25        -999.25        -999.25
       572.0000         1.7094        14.2928       407.6665       157.5273         2.2083        -999.25        -999.25        -999.25
       572.5000         1.6897        14.6008       429.1479       160.1951         2.0788        -999.25        -999.25        -999.25
       573.0000         1.6699        14.9119       450.6313       160.8999         1.9493        -999.25        -999.25        -999.25
       573.5000         1.6544        15.0651       472.1143       160.9038         1.8903        -999.25        -999.25        -999.25
       574.0000         1.6427         15.181       493.4937       161.3281          1.832        -999.25        -999.25        -999.25
       574.5000          1.632         15.246       514.8486       164.7666         1.8588        -999.25        -999.25        -999.25
       575.0000          1.628        15.2428       536.2041       168.4338         1.9454        -999.25        -999.25        -999.25
       575.5000          1.624        15.1343       511.9751       169.4736         2.0321        -999.25        -999.25        -999.25
       576.0000         1.6183        14.8774       476.2744       168.6707         2.1106        -999.25        -999.25        -999.25
       576.5000          1.612        14.4441       440.5737       167.7942         2.1698        -999.25        -999.25        -999.25
       577.0000         1.6057        14.1798       431.4185       170.0364         2.1891        -999.25        -999.25        -999.25
       577.5000         1.5994        14.0882       424.9717       171.6384         2.1339        -999.25        -999.25        -999.25
       578.0000         1.5933        14.1951       418.5254       173.6792         2.0788        -999.25        -999.25        -999.25
       578.5000         1.5872        14.6267       427.4487       173.6675         2.0146        -999.25        -999.25        -999.25
       579.0000         1.5822        14.9296       441.2002       172.3657         1.9499        -999.25        -999.25        -999.25
       579.5000         1.5825        15.0876       460.1875       171.9265         1.8852        -999.25        -999.25        -999.25
       580.0000         1.5827        15.1757       488.1768       172.5349         1.8401       -88.0183        -1.5013              1
       580.5000         1.5829        15.1726        516.166       173.5715         1.8337       -87.4957        -1.3251              1
       581.0000         1.5831        15.0519       541.2344       173.7979         1.8273       -87.0452         -1.221              1
       581.5000         1.5836        14.7273       525.8945       174.0676         1.9126       -86.6259        -1.1481              1
       582.0000         1.5892         14.321       481.4521       174.3203         2.0262         -86.14        -1.0087              1
       582.5000         1.5948        14.0506       457.2729       173.9312         2.0955       -85.6096        -0.8247              1
       583.0000         1.6004        13.8794       437.5244       173.8989          2.112       -84.9358        -0.4973              1
       583.5000          1.606         13.756       425.5127       172.5569         2.1285       -84.2588        -0.1667              1
       584.0000         1.6116        13.6865       432.6987       168.8665         2.1164         -83.58         0.1657              1
       584.5000         1.6171        13.7032       439.5527       166.7642         2.0922       -82.9596         0.4397              1
       585.0000          1.613        13.9598       443.5225        168.302         2.0681       -82.3617         0.6912              1
