#------------------------------------------------------------------------------
# Created by    : vladimir.rabinovich
# Created on    : 09/19/2023 17:20:46
#------------------------------------------------------------------------------
~Version Information Section
VERS.           2.0     :   CWLS log ASCII Standard - VERSION 2.0
WRAP.           NO      :   One line per depth step
~Well Information Section
#MNEM       .UNIT                                         VALUE :DESCRIPTION
#------------------------------------------------------------------------------
STRT        .FT                                             695 :START DEPTH
STOP        .FT                                            9139 :STOP DEPTH
STEP        .FT                                             0.5 :STEP      
NULL        .                                           -999.25 :NULL      
COMP        .                   COASTAL STATES GAS TRANSMISSION :COMPANY   
WELL        .                                     ST TR 00592-L :WELL      
FLD         .                                           WILDCAT :FIELD     
LOC         .                                                   :LOCATION  
CNTY        .                      MATAGORDA ISLAND LARGE BLOCK :LOCATION  
STAT        .                                             TEXAS :STATE     
CTRY        .                                     UNITED STATES :COUNTRY   
SRVC        .                                                   :SERVICE COMPANY
DATE        .                             9/13/2023 11:12:01 AM :LOG DATE  
API         .                                    42703000420000 :API NUMBER
UWI         .                                    42703000420000 :UNIQUE WELL ID
XCOORD      .                                  562172.631053371 :SURFACE X 
YCOORD      .                                   10240692.584136 :SURFACE Y 
LAT         .                                        28.1787665 :LATITUDE  
LON         .                                       -96.3469802 :LONGITUDE 
ELEV        .FT                                              11 :ELEVATION VALUE
ELEV_TYPE   .                                                KB :ELEVATION REFERENCE TYPE
~Curve Information Section
#MNEM       .UNIT                                      API CODE :CURVE DESCRIPTION
#------------------------------------------------------------------------------
DEPT        .FT                                                 :DEPTH     
ASN         .OHMM                                               :          
CALI        .IN                                                 :          
CILD        .MMHO                                               :          
DT          .US/F                                               :          
ILD         .OHMM                                               :          
SP          .MV                                                 :          
SP_NORM     .MV                                                 :SP Normalized
VSH_SP      .V/V                                                :Volume of Shale from SP
~A        DEPTH            ASN           CALI           CILD             DT            ILD             SP        SP_NORM         VSH_SP
# ...
      2376.5000         0.8962        15.9943       968.4854       132.7476         1.0141       -50.3259      -1.224102      0.9922723
      2377.0000         0.8773        15.9859       1102.336       123.4847         0.9165       -51.2545      -2.152702      0.9602516
      2377.5000         0.8613         15.983       1421.836       121.2317         0.8287       -52.5342        -3.4324      0.9161242
      2378.0000         0.8457        15.9801       1651.389       120.9547          0.778       -54.4703        -5.3685      0.8493621
      2378.5000         0.8272        15.9785       1887.389       122.2876         0.7273       -56.6612      -7.559402      0.7738137
      2379.0000         0.7906        15.9783       1967.818       124.8381         0.6815        -58.438      -9.336201      0.7125448
      2379.5000         0.7606         15.978       2037.281       139.6384         0.6369       -59.7704       -10.6686      0.6665999
      2380.0000         0.7352        15.9753       2102.637       146.7979         0.6102        -61.007       -11.9052      0.6239586
      2380.5000          0.704        15.9724       2205.023         151.52         0.5876       -62.4173       -13.3155      0.5753275
      2381.0000         0.6659        15.9695       2319.625       155.2283         0.5672       -63.5613       -14.4595      0.5358793
      2381.5000         0.6239        15.9691       2375.504       148.1951         0.5478       -64.5474       -15.4456      0.5018758
      2382.0000         0.5839        15.9688       2427.375       143.8821         0.5296       -65.7224       -16.6206      0.4613587
      2382.5000         0.5609        15.9648       2207.457       139.1228         0.5172       -67.0015       -17.8997      0.4172516
      2383.0000         0.5715        15.9107       2172.301       144.9478          0.508       -68.1223       -19.0205      0.3786034
      2383.5000         0.5874          15.54       2109.086       147.2698         0.5091       -69.1924       -20.0906      0.3417035
      2384.0000         0.6033        15.2658       1905.494       149.0283         0.5122        -69.923       -20.8212      0.3165104
      2384.5000         0.6214         15.153       1918.676       146.7747         0.5117       -70.6927       -21.5909      0.2899688
      2385.0000         0.6462        15.0658       1979.262       140.1021         0.5069       -71.5627       -22.4609       0.259969
      2385.5000         0.6384        15.0134       2107.926       133.4319         0.4918       -72.4325       -23.3307      0.2299757
      2386.0000         0.6124        15.1365       2254.832       126.7592         0.4714       -73.3026       -24.2008      0.1999725
      2386.5000         0.5864        15.3237       2360.242       122.4437          0.451       -74.2347       -25.1329      0.1678309
      2387.0000         0.5647        15.5061       2450.871       127.8845         0.4318        -75.174       -26.0722      0.1354412
      2387.5000         0.5451        15.6638       2531.625       133.3252         0.4127       -76.1489       -27.0471       0.101824
      2388.0000         0.5267        15.8358       2654.914       139.8689         0.3936       -77.3823       -28.2805     0.05929302
      2388.5000          0.511        15.9622       2821.313       142.0229         0.3835       -78.3079       -29.2061     0.02737585
      2389.0000         0.4953        15.9804       2936.039       142.4387         0.3744       -78.9651       -29.8633     0.00471365
      2389.5000         0.4811        15.9787       2966.332       140.7366         0.3654       -79.1224       -30.0206              0
      2390.0000         0.4697        15.9771       3007.754       136.4824         0.3564       -78.8577       -29.7559    0.008417327
      2390.5000         0.4602        15.9722       3053.785       135.1948         0.3463       -78.5928        -29.491     0.01755182
      2391.0000         0.4543        15.9669       3100.473       137.3555          0.334        -78.328       -29.2262     0.02668262
      2391.5000         0.4483         15.958         3149.5       139.5869         0.3216       -77.9716       -28.8698     0.03897226
      2392.0000         0.4423        15.9455       3198.504       141.3127         0.3093       -77.6089       -28.5071     0.05147921
      2392.5000         0.4355        15.9304        3245.34       143.9849         0.2998       -77.2461       -28.1443     0.06398957
      2393.0000          0.428         15.906       3310.281        145.623         0.2965       -76.8834       -27.7816     0.07649652
      2393.5000         0.4207         15.854       3346.781       146.5146         0.2932       -76.3746       -27.2728     0.09404124
      2394.0000         0.4139        15.7839       3391.566       146.7371           0.29       -75.7339       -26.6321      0.1161344
      2394.5000         0.4072        15.7788       3422.516       145.8362         0.2867       -75.1963       -26.0945      0.1346725
      2395.0000         0.4057        15.8462        3361.25       144.8303         0.2834       -74.7563       -25.6545      0.1498447
      2395.5000         0.4057        15.9652       3307.148        143.804          0.286       -74.3165       -25.2147      0.1650104
      2396.0000         0.4056        15.9572       3279.523       142.3359         0.2889       -73.8767       -24.7749      0.1801758
      2396.5000         0.4074        15.9409       3251.898       140.7583         0.2919       -73.5024       -24.4006      0.1930826
      2397.0000         0.4105        15.8622       3224.332       139.6294         0.2948       -73.1926       -24.0908      0.2037656
      2397.5000         0.4135        15.7288       3202.223       138.9541         0.2978       -72.8829       -23.7811      0.2144449
      2398.0000         0.4166         15.532       3180.113       140.7192         0.3008       -72.5732       -23.4714      0.2251242
      2398.5000         0.4208        15.5352       3163.004       142.3848         0.3037       -72.6777       -23.5759      0.2215208
      2399.0000          0.425        15.6029       3149.109         143.21         0.3049       -72.8308        -23.729      0.2162412
      2399.5000         0.4292        15.8313       3147.082       143.7896         0.3048       -72.9838        -23.882      0.2109654
      2400.0000         0.4307        15.8579       3161.941       145.6914         0.3046       -73.1368        -24.035      0.2056895
      2400.5000         0.4321         15.836       3176.797       147.3508         0.3044       -73.4142       -24.3124      0.1961241
      2401.0000         0.4336        15.7099       3204.082       147.2896         0.3043       -73.8164       -24.7146      0.1822552
      2401.5000         0.4344        15.7003        3234.41       145.8086         0.3041       -74.2185       -25.1167      0.1683897
      2402.0000         0.4351        15.7451       3261.582       144.1082         0.3039       -74.6207       -25.5189      0.1545208
      2402.5000         0.4357        15.7672       3238.691       143.4878         0.3038       -74.9857       -25.8839      0.1419344
      2403.0000         0.4364          15.76       3190.219       143.5671         0.3026       -75.3434       -26.2416         0.1296
      2403.5000          0.437          15.78       3136.633       143.1777         0.3012       -75.7008        -26.599      0.1172759
      2404.0000         0.4366         15.856       3065.043       142.4683         0.2998       -76.0585       -26.9567      0.1049413
      2404.5000         0.4362        15.9534       3025.871       141.7366         0.2984       -76.3263       -27.2245     0.09570681
      2405.0000         0.4358        15.9734       2995.039       141.0991          0.297       -76.3295       -27.2277     0.09559657
      2405.5000         0.4354        15.9753       2966.383       140.6228         0.2956       -76.3328        -27.231     0.09548266
