#------------------------------------------------------------------------------
# Created by    : vladimir.rabinovich
# Created on    : 09/19/2023 17:19:56
#------------------------------------------------------------------------------
~Version Information Section
VERS.           2.0     :   CWLS log ASCII Standard - VERSION 2.0
WRAP.           NO      :   One line per depth step
~Well Information Section
#MNEM       .UNIT                                         VALUE :DESCRIPTION
#------------------------------------------------------------------------------
STRT        .FT                                             748 :START DEPTH
STOP        .FT                                            7997 :STOP DEPTH
STEP        .FT                                             0.5 :STEP      
NULL        .                                           -999.25 :NULL      
COMP        .                                        EXXON CORP :COMPANY   
WELL        .                                     ST TR 00560-L :WELL      
FLD         .                                           WILDCAT :FIELD     
LOC         .                                                   :LOCATION  
CNTY        .                      MATAGORDA ISLAND LARGE BLOCK :LOCATION  
STAT        .                                             TEXAS :STATE     
CTRY        .                                     UNITED STATES :COUNTRY   
SRVC        .                                                   :SERVICE COMPANY
DATE        .                             9/13/2023 11:19:05 AM :LOG DATE  
API         .                                    42703302000000 :API NUMBER
UWI         .                                    42703302000000 :UNIQUE WELL ID
XCOORD      .                                  556028.985600478 :SURFACE X 
YCOORD      .                                   10283706.324983 :SURFACE Y 
LAT         .                                        28.2964478 :LATITUDE  
LON         .                                       -96.3697382 :LONGITUDE 
ELEV        .FT                                              92 :ELEVATION VALUE
ELEV_TYPE   .                                                KB :ELEVATION REFERENCE TYPE
~Curve Information Section
#MNEM       .UNIT                                      API CODE :CURVE DESCRIPTION
#------------------------------------------------------------------------------
DEPT        .FT                                                 :DEPTH     
ASFL        .OHMM                                               :          
CILD        .MMHO                                               :          
DT          .US/F                                               :          
GR          .GAPI                                               :          
GR_NORM     .GAPI                                               :GammaRay Normalized
ILD         .OHMM                                               :          
SP          .MV                                                 :          
SP_NORM     .MV                                                 :SP Normalized
VSH_GR      .V/V                                                :Volume of Shale from GR
VSH_SP      .V/V                                                :Volume of Shale from SP
~A        DEPTH           ASFL           CILD             DT             GR        GR_NORM            ILD             SP        SP_NORM         VSH_GR         VSH_SP
# ...
      3663.5000         0.9899       1499.713        84.6781        -999.25        -999.25         0.7105       -89.4781      -11.63379        -999.25      0.6061559
      3664.0000         0.9568       1324.998       109.7493        -999.25        -999.25         0.7811       -87.3003      -9.455986        -999.25      0.6868153
      3664.5000          0.926       1232.596       118.2426        -999.25        -999.25         0.8552       -84.4767      -6.632385        -999.25      0.7913932
      3665.0000         0.8963       1140.098       122.3215        -999.25        -999.25          0.928       -82.7767      -4.932388        -999.25       0.854356
      3665.5000         0.8906       978.3105       126.4054        -999.25        -999.25              1        -82.174      -4.329689        -999.25      0.8766782
      3666.0000         0.9384       898.0537       130.1709        -999.25        -999.25         1.0516       -81.8883      -4.043983        -999.25      0.8872599
      3666.5000         1.0117       823.4277       126.6233        -999.25        -999.25         1.0981       -81.6029      -3.758583        -999.25      0.8978302
      3667.0000         1.0586       788.4404       125.5405        -999.25        -999.25         1.1446       -81.3173      -3.472984        -999.25       0.908408
      3667.5000         1.1005       755.9512       126.7843        -999.25        -999.25         1.2152       -81.1387      -3.294388        -999.25      0.9150227
      3668.0000          1.144       732.8633       135.7263        -999.25        -999.25         1.3993       -81.0125      -3.168182        -999.25      0.9196969
      3668.5000         1.3406       709.7627       137.5576        -999.25        -999.25         1.4441       -80.8861      -3.041786        -999.25      0.9243783
      3669.0000         1.4461       679.7578       134.5583        -999.25        -999.25           1.47       -80.7596      -2.915283        -999.25      0.9290636
      3669.5000         1.5067       638.1855       131.5396        -999.25        -999.25         1.4463       -82.3572      -4.512886        -999.25      0.8698931
      3670.0000         1.5665       660.7588       126.5033        -999.25        -999.25         1.4226       -84.0632      -6.218887        -999.25      0.8067079
      3670.5000         1.6387       689.6982       115.4147        -999.25        -999.25         1.3172       -85.7693      -7.924988        -999.25      0.7435189
      3671.0000         1.7136       771.9141        90.1941        -999.25        -999.25         1.1912       -87.8365      -9.992188        -999.25       0.666956
      3671.5000         1.7554       864.0215        85.0747        -999.25        -999.25         1.0464       -94.2498      -16.40549        -999.25      0.4294264
      3672.0000         1.7067       1150.871        85.6964        -999.25        -999.25         0.9817       -96.9882      -19.14388        -999.25      0.3280043
      3672.5000         1.5971       1300.758        88.1572        -999.25        -999.25         0.9171       -98.1427      -20.29839        -999.25       0.285245
      3673.0000         1.5437       1388.777        91.3669        -999.25        -999.25         0.8689       -98.8596      -21.01528        -999.25      0.2586933
      3673.5000         1.4995       1437.402        95.0126        -999.25        -999.25         0.8224       -99.6396      -21.79529        -999.25      0.2298041
      3674.0000         1.4601       1470.307        97.9395        -999.25        -999.25         0.7791      -100.4727      -22.62839        -999.25      0.1989486
      3674.5000         1.4133       1499.295        99.8615        -999.25        -999.25         0.7389      -101.1252      -23.28088        -999.25      0.1747821
      3675.0000         1.3699       1531.859       101.1543        -999.25        -999.25         0.6987      -101.7498      -23.90549        -999.25      0.1516486
      3675.5000         1.3773       1570.738        102.024        -999.25        -999.25         0.6865      -101.9808      -24.13648        -999.25      0.1430932
      3676.0000         1.4846       1573.971        92.5031        -999.25        -999.25         0.6844      -102.2113      -24.36699        -999.25       0.134556
      3676.5000          1.509       1558.791        86.2279        -999.25        -999.25         0.6823      -102.4419      -24.59759        -999.25      0.1260153
      3677.0000         1.5338       1543.611        85.0511        -999.25        -999.25         0.6906      -102.6224      -24.77808        -999.25      0.1193302
      3677.5000         1.5601       1528.443        84.9805        -999.25        -999.25         0.6994      -102.7749      -24.93059        -999.25      0.1136819
      3678.0000         1.5821       1513.264        89.1193        -999.25        -999.25         0.7082      -102.9275      -25.08318        -999.25      0.1080303
      3678.5000         1.6028       1492.135        93.8422        -999.25        -999.25         0.7171      -103.0668      -25.22249        -999.25      0.1028708
      3679.0000         1.5637           1505        99.2163        -999.25        -999.25         0.7206      -103.0823      -25.23798        -999.25      0.1022969
      3679.5000         1.4227       1580.998       106.0522        -999.25        -999.25         0.6911      -103.0978      -25.25349        -999.25      0.1017227
      3680.0000         1.3507       1811.535       111.0861        -999.25        -999.25         0.6616      -103.1133      -25.26898        -999.25      0.1011488
      3680.5000         1.3057       1969.209       112.7754        -999.25        -999.25         0.6261      -103.1289      -25.28458        -999.25       0.100571
      3681.0000         1.2725       2039.672       116.4055        -999.25        -999.25         0.5856       -103.145      -25.30068        -999.25     0.09997474
      3681.5000          1.221       2095.078       116.7385        -999.25        -999.25         0.5451       -103.162      -25.31769        -999.25     0.09934489
      3682.0000         1.2296       2143.336       117.0715        -999.25        -999.25         0.5054       -103.179      -25.33469        -999.25     0.09871532
      3682.5000         1.2672       2141.547        118.163        -999.25        -999.25          0.485      -103.1959      -25.35159        -999.25     0.09808943
      3683.0000         1.2976       2110.453       119.8413        -999.25        -999.25         0.4645      -103.2485      -25.40418        -999.25     0.09614139
      3683.5000         1.3206       2079.336       114.6901        -999.25        -999.25         0.4801      -103.5201      -25.67579        -999.25     0.08608189
      3684.0000         1.3463       2058.672       112.4565        -999.25        -999.25         0.5036      -103.7919      -25.94759        -999.25     0.07601533
      3684.5000         1.3757       2039.721         111.28        -999.25        -999.25         0.5271      -104.2972      -26.45289        -999.25     0.05730043
      3685.0000         1.4424        2020.76       110.0271        -999.25        -999.25         0.5506      -104.8633      -27.01898        -999.25       0.036334
      3685.5000         1.4637       1996.605       110.0835        -999.25        -999.25         0.5679      -105.3171      -27.47279        -999.25     0.01952645
      3686.0000         1.3985       1946.781       110.6156        -999.25        -999.25         0.5741       -105.795      -27.95068        -999.25    0.001826534
      3686.5000         1.2696       1893.896       111.1476        -999.25        -999.25         0.5804        -106.39      -28.54568        -999.25              0
      3687.0000         1.2411       1912.211       111.6195        -999.25        -999.25         0.5866      -106.6777      -28.83338        -999.25              0
      3687.5000         1.2298       1984.486       112.0419        -999.25        -999.25         0.5722      -106.9171      -29.07278        -999.25              0
