#------------------------------------------------------------------------------
# Created by    : vladimir.rabinovich
# Created on    : 09/19/2023 17:20:46
#------------------------------------------------------------------------------
~Version Information Section
VERS.           2.0     :   CWLS log ASCII Standard - VERSION 2.0
WRAP.           NO      :   One line per depth step
~Well Information Section
#MNEM       .UNIT                                         VALUE :DESCRIPTION
#------------------------------------------------------------------------------
STRT        .FT                                             695 :START DEPTH
STOP        .FT                                            9139 :STOP DEPTH
STEP        .FT                                             0.5 :STEP      
NULL        .                                           -999.25 :NULL      
COMP        .                   COASTAL STATES GAS TRANSMISSION :COMPANY   
WELL        .                                     ST TR 00592-L :WELL      
FLD         .                                           WILDCAT :FIELD     
LOC         .                                                   :LOCATION  
CNTY        .                      MATAGORDA ISLAND LARGE BLOCK :LOCATION  
STAT        .                                             TEXAS :STATE     
CTRY        .                                     UNITED STATES :COUNTRY   
SRVC        .                                                   :SERVICE COMPANY
DATE        .                             9/13/2023 11:12:01 AM :LOG DATE  
API         .                                    42703000420000 :API NUMBER
UWI         .                                    42703000420000 :UNIQUE WELL ID
XCOORD      .                                  562172.631053371 :SURFACE X 
YCOORD      .                                   10240692.584136 :SURFACE Y 
LAT         .                                        28.1787665 :LATITUDE  
LON         .                                       -96.3469802 :LONGITUDE 
ELEV        .FT                                              11 :ELEVATION VALUE
ELEV_TYPE   .                                                KB :ELEVATION REFERENCE TYPE
~Curve Information Section
#MNEM       .UNIT                                      API CODE :CURVE DESCRIPTION
#------------------------------------------------------------------------------
DEPT        .FT                                                 :DEPTH     
ASN         .OHMM                                               :          
CALI        .IN                                                 :          
CILD        .MMHO                                               :          
DT          .US/F                                               :          
ILD         .OHMM                                               :          
SP          .MV                                                 :          
SP_NORM     .MV                                                 :SP Normalized
VSH_SP      .V/V                                                :Volume of Shale from SP
~A        DEPTH            ASN           CALI           CILD             DT            ILD             SP        SP_NORM         VSH_SP
# ...
      9102.5000          0.838        10.1658       1322.439       108.0449         0.6943       -61.2667      -21.45302      0.6533387
      9103.0000         0.8448        10.1783        1335.84       109.4563         0.6842        -62.029      -22.22021      0.6403355
      9103.5000         0.8515        10.7643        1349.24       114.0668         0.6744       -62.7862       -22.9823      0.6274187
      9104.0000         0.8582        11.3779       1361.447       119.5934         0.6677       -63.0521      -23.25309       0.622829
      9104.5000         0.8635        12.1018       1370.711       120.3585         0.6609       -62.2645      -22.47037      0.6360954
      9105.0000         0.8403        10.5485       1393.941       118.3578         0.6542       -59.6105      -19.82126      0.6809955
      9105.5000         0.8233        10.4026       1430.949       109.8698         0.6465       -56.6272      -16.84285      0.7314771
      9106.0000         0.8079        10.6764       1515.072       112.0908          0.636        -52.912      -13.13254      0.7943637
      9106.5000         0.7931        11.0706       1584.463       115.3246         0.6255        -51.033      -11.25843      0.8261283
      9107.0000         0.7792        11.2811       1609.555       118.8407         0.6151       -49.4666      -9.696915      0.8525947
      9107.5000         0.7654        11.0291       1578.479        120.059          0.608       -48.3485      -8.583706      0.8714626
      9108.0000         0.7599        10.7446       1547.455        117.776         0.6009       -47.3336      -7.573692      0.8885815
      9108.5000         0.7687         10.563       1512.258       114.6759         0.5982       -47.0367      -7.281685      0.8935308
      9109.0000         0.7794         10.733       1522.125       110.0653         0.5978       -46.5505      -6.800369      0.9016886
      9109.5000         0.7917        10.7326        1531.98       109.4216         0.5975       -46.0225       -6.27726      0.9105549
      9110.0000         0.7873         11.201       1547.404       117.1965          0.597        -45.514      -5.773651      0.9190907
      9110.5000         0.7757        12.0404       1579.686       120.3065         0.5942        -45.005      -5.269539       0.927635
      9111.0000         0.7641        12.4243       1612.168       123.1021         0.5913       -44.4472      -4.716629      0.9370063
      9111.5000         0.7525        11.6052       1645.758       121.8021         0.5884       -43.5723      -3.846615      0.9517523
      9112.0000         0.7409        11.3921       1681.559        119.108         0.5896       -42.5947      -2.873905      0.9682389
      9112.5000         0.7303         11.538       1714.795       115.2701         0.5916       -41.5564      -1.840492      0.9857544
      9113.0000           0.72        11.6402        1747.43       116.9019         0.5936       -41.1607      -1.449684      0.9923782
      9113.5000         0.7096        11.4833       1790.572       118.0223         0.5994       -40.7643       -1.05817      0.9990141
      9114.0000         0.6993        11.4748       1834.469       118.0768         0.6106       -40.4836     -0.7823601              1
      9114.5000          0.688        11.7876       1855.033       121.5792         0.6218       -40.3747     -0.6783485              1
      9115.0000         0.6825        12.1605       1881.432       123.1224         0.6272       -40.2658      -0.574337              1
      9115.5000         0.6783        12.3184       1910.371       123.9513         0.6287       -40.1569     -0.4703255              1
      9116.0000         0.6742        12.2277       1921.432        124.553         0.6302       -40.1336     -0.4519119              1
      9116.5000         0.6751        12.1325       1917.203       124.2089         0.6317       -40.1362      -0.459404              1
      9117.0000          0.679        12.2237       1912.973        121.609         0.6323       -40.1388     -0.4668922              1
      9117.5000          0.683        11.9546       1898.955       119.7717         0.6287       -40.1414     -0.4743805              1
      9118.0000         0.6869        11.9486       1879.246       119.4882         0.6251        -40.144     -0.4818726              1
      9118.5000         0.6926        12.0336       1856.215       118.5337         0.6215       -40.1467       -0.48946              1
      9119.0000         0.6965         12.182       1834.744       118.9719         0.6179       -40.1493     -0.4969482              1
      9119.5000         0.6991        12.0329        1816.09        117.672         0.6137       -40.1519     -0.5044365              1
      9120.0000         0.7009        11.9225        1802.74       118.1016         0.6064       -40.1545     -0.5119247              1
      9120.5000         0.6983        12.2462       1797.422       119.0548          0.599       -40.1589     -0.5212135              1
      9121.0000         0.6957         12.457       1793.494       119.6206         0.5917       -40.1791     -0.5463028              1
      9121.5000         0.6931         12.566       1789.566       118.7268         0.5843       -40.1992     -0.5712929              1
      9122.0000         0.6887        12.2302       1786.941       117.8434          0.577       -40.2192       -0.59618              1
      9122.5000         0.6843        11.9584       1789.641       117.9907         0.5701       -40.2394     -0.6212692              1
      9123.0000         0.6819        12.1298       1792.344       117.0629         0.5639       -40.2513     -0.6380577              1
      9123.5000         0.6831        12.4116       1799.861       116.8597         0.5578        -40.254      -0.645649              1
      9124.0000         0.6843        12.5316       1808.699       119.2294         0.5517       -40.2566     -0.6531334              1
      9124.5000         0.6855        12.7408       1821.295       119.7358         0.5471       -40.2592     -0.6606255              1
      9125.0000         0.6899         12.444        1824.16       117.8403         0.5518       -40.1322     -0.5385132              1
      9125.5000         0.6972        12.0444       1780.564       115.7975         0.5565       -39.9806     -0.3917999              1
      9126.0000         0.7044        11.5437       1729.176       114.0271         0.5612       -39.8619     -0.2779922              1
      9126.5000         0.7118        11.4008       1687.994       112.3037         0.5659       -39.8645     -0.2854767              1
      9127.0000         0.7192        11.4376       1669.441       112.7272         0.5705       -39.8671     -0.2929688              1
      9127.5000         0.7263         11.475       1651.816       113.0466         0.5748       -39.8698     -0.3005562              1
      9128.0000         0.7327        11.5011       1636.279       114.5471         0.5791       -39.8724     -0.3080444              1
      9128.5000         0.7326        11.4682       1624.211       115.2313         0.5834       -39.7965     -0.2370377              1
      9129.0000         0.7326        11.5387       1614.041       115.1533         0.5877       -39.6989     -0.1443214              1
      9129.5000         0.7324        11.7946       1603.734       115.2039         0.5922       -39.6564     -0.1067123              1
      9130.0000         0.7317        11.8459       1602.037       115.6118         0.5986       -39.7127     -0.1679001              1
      9130.5000         0.7311        11.8358       1620.969       115.9994          0.605        -39.769     -0.2290916              1
      9131.0000         0.7305        11.9762       1663.984       116.2965         0.6114       -39.7387     -0.2036781              1
      9131.5000         0.7299        12.0181       1685.154       116.0919         0.6134       -39.5412    -0.01106644              1
