#------------------------------------------------------------------------------
# Created by    : vladimir.rabinovich
# Created on    : 09/19/2023 17:20:46
#------------------------------------------------------------------------------
~Version Information Section
VERS.           2.0     :   CWLS log ASCII Standard - VERSION 2.0
WRAP.           NO      :   One line per depth step
~Well Information Section
#MNEM       .UNIT                                         VALUE :DESCRIPTION
#------------------------------------------------------------------------------
STRT        .FT                                             695 :START DEPTH
STOP        .FT                                            9139 :STOP DEPTH
STEP        .FT                                             0.5 :STEP      
NULL        .                                           -999.25 :NULL      
COMP        .                   COASTAL STATES GAS TRANSMISSION :COMPANY   
WELL        .                                     ST TR 00592-L :WELL      
FLD         .                                           WILDCAT :FIELD     
LOC         .                                                   :LOCATION  
CNTY        .                      MATAGORDA ISLAND LARGE BLOCK :LOCATION  
STAT        .                                             TEXAS :STATE     
CTRY        .                                     UNITED STATES :COUNTRY   
SRVC        .                                                   :SERVICE COMPANY
DATE        .                             9/13/2023 11:12:01 AM :LOG DATE  
API         .                                    42703000420000 :API NUMBER
UWI         .                                    42703000420000 :UNIQUE WELL ID
XCOORD      .                                  562172.631053371 :SURFACE X 
YCOORD      .                                   10240692.584136 :SURFACE Y 
LAT         .                                        28.1787665 :LATITUDE  
LON         .                                       -96.3469802 :LONGITUDE 
ELEV        .FT                                              11 :ELEVATION VALUE
ELEV_TYPE   .                                                KB :ELEVATION REFERENCE TYPE
~Curve Information Section
#MNEM       .UNIT                                      API CODE :CURVE DESCRIPTION
#------------------------------------------------------------------------------
DEPT        .FT                                                 :DEPTH     
ASN         .OHMM                                               :          
CALI        .IN                                                 :          
CILD        .MMHO                                               :          
DT          .US/F                                               :          
ILD         .OHMM                                               :          
SP          .MV                                                 :          
SP_NORM     .MV                                                 :SP Normalized
VSH_SP      .V/V                                                :Volume of Shale from SP
~A        DEPTH            ASN           CALI           CILD             DT            ILD             SP        SP_NORM         VSH_SP
# ...
      1816.0000         0.5644        14.6213       1613.396       169.6108         0.6999       -53.1257       -2.56496      0.8882171
      1816.5000         0.5563        14.5368       1615.553       178.7178         0.6889       -52.9102      -2.338688      0.9043794
      1817.0000          0.549        14.6456       1606.191        161.332         0.6845       -52.6948      -2.112526      0.9205338
      1817.5000         0.5455        14.9072       1597.203       143.9465         0.6801        -52.477      -1.883957      0.9368602
      1818.0000         0.5419        15.0056        1590.33       132.8047         0.6757       -52.2074      -1.603588      0.9568866
      1818.5000         0.5385        14.9536       1583.453       126.4939          0.672       -51.9377      -1.323116      0.9769202
      1819.0000         0.5399        14.7038       1578.473       139.4998         0.6685       -51.6681      -1.042751      0.9969463
      1819.5000         0.5414        14.5142       1577.037        180.718          0.665       -51.3985     -0.7623825              1
      1820.0000         0.5428        14.4075       1574.416       175.0383         0.6614       -51.0135     -0.3666153              1
      1820.5000         0.5442        14.3191       1565.158       174.7302          0.658       -50.6088     0.04885483              1
      1821.0000         0.5464         14.232       1555.902        174.449         0.6578       -50.3893      0.2791176              1
      1821.5000         0.5489        14.1349       1546.047        174.147         0.6576       -50.3909      0.2882881              1
      1822.0000         0.5515        13.9066       1535.691       173.8447         0.6577       -50.3925      0.2974548              1
      1822.5000         0.5541        13.3793       1525.338       173.4519         0.6633       -50.3941      0.3066216              1
      1823.0000         0.5566        13.1457       1514.982       173.0447         0.6689        -50.634     0.07749176              1
      1823.5000         0.5592        13.7582       1504.629       172.6475         0.6745       -50.9081     -0.1858406              1
      1824.0000          0.563        14.0253       1494.277       172.2488         0.6801       -51.1823     -0.4492722              1
      1824.5000         0.5682        14.2614       1481.428       172.0884         0.6856        -51.511     -0.7672081              1
      1825.0000         0.5734        14.5304       1463.789       174.7742          0.694       -51.8459      -1.091339      0.9934758
      1825.5000         0.5786        14.7944       1446.156       180.2334         0.7056       -52.1809      -1.415569      0.9703165
      1826.0000         0.5826        15.0624       1424.191       184.9146         0.7172       -52.5159      -1.739803      0.9471569
      1826.5000         0.5854         15.388       1395.617       188.9709         0.7288       -52.8509      -2.064034      0.9334979
      1827.0000         0.5882        15.8934       1381.582       184.5525         0.7404       -53.1447      -2.347065      0.9158084
      1827.5000         0.5907        15.9512       1386.217        185.303         0.7458       -53.4033      -2.594898      0.9003189
      1828.0000         0.5907        15.9644       1408.094       186.3118         0.7485       -53.6619      -2.842731      0.8848293
      1828.5000         0.5907        15.9545       1429.971       185.1021         0.7512       -53.9205      -3.090565      0.8693397
      1829.0000         0.5899        15.9424       1458.438       185.7754         0.7497       -54.1791      -3.338394      0.8538504
      1829.5000         0.5889        15.9367       1499.332       185.4214         0.7478       -54.4377      -3.586224       0.838361
      1830.0000          0.588        15.9364       1540.252       183.8022         0.7459       -54.6964       -3.83416       0.822865
      1830.5000         0.5862        15.9252       1579.207       181.1536          0.744       -54.9692      -4.096191       0.806488
      1831.0000          0.583        15.9007       1595.449       182.5518         0.7407       -55.2519      -4.368122      0.7894924
      1831.5000         0.5799         15.847       1582.414       183.8477         0.7348       -55.5347      -4.640156      0.7724903
      1832.0000         0.5767        15.8311       1569.377       181.8242         0.7289       -55.8174       -4.91209      0.7554944
      1832.5000         0.5756        15.8807       1555.184       181.6482          0.723       -56.1002       -5.18412      0.7384925
      1833.0000         0.5752        15.8488       1536.242       180.8584         0.7172       -56.3829      -5.456051      0.7214968
      1833.5000         0.5747        15.7614       1517.299       178.1328          0.712       -56.6335      -5.695885      0.7065072
      1834.0000         0.5752        15.5796       1526.697        174.447         0.7068        -56.781      -5.832615      0.6979616
      1834.5000         0.5797        15.4156       1536.445       171.2185         0.7016       -56.9285      -5.969349      0.6894157
      1835.0000         0.5841        15.6391       1553.428       174.5962         0.6944        -57.076      -6.106079      0.6808701
      1835.5000         0.5885         15.734       1570.432       175.4983         0.6872       -57.2235      -6.242813      0.6723242
      1836.0000         0.5857        15.7018       1593.479       174.3015         0.6801        -57.371      -6.379543      0.6637785
      1836.5000         0.5784        15.8444        1620.92       172.9141         0.6729       -57.4661      -6.463875      0.6585078
      1837.0000         0.5712        15.9025       1647.984       175.1187         0.6678       -57.5357      -6.522713      0.6548305
      1837.5000         0.5642        15.6862       1641.973       177.2417         0.6657       -57.6053      -6.581543      0.6511536
      1838.0000         0.5601        15.2739       1635.961       178.8713         0.6635        -57.675      -6.640472      0.6474705
      1838.5000         0.5589        14.8717       1625.656       181.0837         0.6613       -57.7446      -6.699303      0.6437936
      1839.0000         0.5607         14.521       1614.545       182.3555         0.6646       -57.7531      -6.697041       0.643935
      1839.5000         0.5626        14.6832        1602.26       182.9277         0.6745       -57.7547       -6.68787      0.6445081
      1840.0000          0.565        15.0666       1587.098       187.1541         0.6844       -57.7563      -6.678703       0.645081
      1840.5000          0.573        15.3882       1573.063       184.5754          0.693       -57.7427      -6.654335      0.6466041
      1841.0000          0.581         15.694       1586.057       186.2356         0.6982       -57.6964      -6.597267      0.6501708
      1841.5000         0.5877        15.8711        1597.73       188.7961         0.7035         -57.65        -6.5401      0.6537437
      1842.0000         0.5914        15.9187        1607.73       186.6409          0.702       -57.6037      -6.483028      0.6573107
      1842.5000         0.5951        15.9353       1617.729       184.4114         0.6839       -57.8797      -6.748264      0.6407335
      1843.0000         0.5965        15.9408       1613.184       183.8599         0.6762       -58.1788      -7.036594      0.6227129
      1843.5000          0.597        15.9002       1598.547       179.1931         0.6789        -58.408      -7.255028      0.6090608
      1844.0000         0.5974        15.7947       1561.656       178.5508         0.6817        -58.614      -7.450256       0.596859
      1844.5000         0.6014        15.6797       1517.854       179.5115         0.6932       -58.8199      -7.645393      0.5846629
      1845.0000         0.6083        15.5442       1382.051       178.8992         0.7081       -59.0427      -7.857426      0.5714109
