#------------------------------------------------------------------------------
# Created by    : vladimir.rabinovich
# Created on    : 09/19/2023 17:22:56
#------------------------------------------------------------------------------
~Version Information Section
VERS.           2.0     :   CWLS log ASCII Standard - VERSION 2.0
WRAP.           NO      :   One line per depth step
~Well Information Section
#MNEM       .UNIT                                         VALUE :DESCRIPTION
#------------------------------------------------------------------------------
STRT        .FT                                             513 :START DEPTH
STOP        .FT                                           16000 :STOP DEPTH
STEP        .FT                                             0.5 :STEP      
NULL        .                                           -999.25 :NULL      
COMP        .              PENNZOIL EXPLORATION & PRODUCTION CO :COMPANY   
WELL        .                                ST TR 00486-L SE/4 :WELL      
FLD         .                                           WILDCAT :FIELD     
LOC         .                                                   :LOCATION  
CNTY        .                      MATAGORDA ISLAND LARGE BLOCK :LOCATION  
STAT        .                                             TEXAS :STATE     
CTRY        .                                     UNITED STATES :COUNTRY   
SRVC        .                                                   :SERVICE COMPANY
DATE        .                             9/13/2023 11:19:05 AM :LOG DATE  
API         .                                    42703302080000 :API NUMBER
UWI         .                                    42703302080000 :UNIQUE WELL ID
XCOORD      .                                  648049.134083277 :SURFACE X 
YCOORD      .                                  10318924.3450998 :SURFACE Y 
LAT         .                                        28.3999658 :LATITUDE  
LON         .                                       -96.0869402 :LONGITUDE 
ELEV        .FT                                              47 :ELEVATION VALUE
ELEV_TYPE   .                                                KB :ELEVATION REFERENCE TYPE
~Curve Information Section
#MNEM       .UNIT                                      API CODE :CURVE DESCRIPTION
#------------------------------------------------------------------------------
DEPT        .FT                                                 :DEPTH     
SFL         .OHMM                                               :          
SP          .MV                                                 :          
SP_NORM     .MV                                                 :SP Normalized
VSH_SP      .V/V                                                :Volume of Shale from SP
~A        DEPTH            SFL             SP        SP_NORM         VSH_SP
# ...
     12862.0000         0.6694       -47.0741      -5.527916       0.934378
     12862.5000         0.6773       -46.0984        -4.5233      0.9489377
     12863.0000         0.6767       -46.4874      -4.883381      0.9437191
     12863.5000         0.6769        -46.766       -5.13306      0.9401006
     12864.0000         0.7404       -46.7045      -5.042641       0.941411
     12864.5000         0.7971       -46.8182      -5.127426      0.9401822
     12865.0000         0.8256       -46.9949      -5.275208      0.9380405
     12865.5000         0.8383       -47.2662       -5.51759      0.9345277
     12866.0000         0.8143       -47.6909      -5.913368      0.9287918
     12866.5000         0.7292       -47.8605       -6.05405      0.9267529
     12867.0000         0.6648       -47.8813      -6.045937      0.9268705
     12867.5000         0.6466       -47.7864      -5.922115       0.928665
     12868.0000         0.6356       -47.9045      -6.011295      0.9273725
     12868.5000         0.6071       -48.2059      -6.283775      0.9234235
     12869.0000         0.6065       -48.0133       -6.06226      0.9266339
     12869.5000         0.6334       -47.6449      -5.664944      0.9323921
     12870.0000          0.671       -47.7996      -5.790722      0.9305692
     12870.5000         0.7106       -48.7425      -6.704704      0.9173231
     12871.0000         0.7194       -50.3453      -8.278584      0.8945133
     12871.5000         0.7002       -51.1532      -9.057568      0.8832237
     12872.0000         0.6643        -50.947      -8.822449      0.8866312
     12872.5000         0.5493       -50.9055      -8.752029      0.8876517
     12873.0000         0.5136       -50.8643      -8.681911      0.8886679
     12873.5000         0.5174       -50.5247      -8.313393      0.8940088
     12874.0000         0.5484       -50.1016      -7.861378      0.9005597
     12874.5000         0.6334       -49.4023       -7.13316      0.9111136
     12875.0000         0.6501       -48.3619      -6.063839       0.926611
     12875.5000         0.6329       -48.1801      -5.853119       0.929665
     12876.0000         0.5815       -48.5597        -6.2038      0.9245826
     12876.5000         0.5583       -48.8156      -6.430786       0.921293
     12877.0000         0.5562       -48.4313      -6.017567      0.9272816
     12877.5000         0.5485       -47.4697      -5.027046       0.941637
     12878.0000         0.5399       -46.5267      -4.055126      0.9557228
     12878.5000         0.5657       -45.8458       -3.34531        0.96601
     12879.0000         0.5803       -45.7816      -3.252193      0.9673595
     12879.5000         0.5684       -45.9465      -3.388172      0.9653888
     12880.0000         0.5319       -46.8135      -4.226254      0.9532427
     12880.5000         0.5033       -48.0527      -5.436535      0.9357024
     12881.0000         0.5413       -49.6741      -7.029018      0.9126229
     12881.5000         0.5958       -50.7145      -8.040501      0.8979638
     12882.0000         0.6536       -51.2319       -8.52898      0.8908843
     12882.5000         0.6201       -51.4684      -8.736561      0.8878759
     12883.0000         0.5816       -51.4454      -8.684643      0.8886284
     12883.5000           0.57       -50.9817      -8.192028      0.8957677
     12884.0000         0.5653       -50.1765      -7.357906      0.9078564
     12884.5000         0.5582       -49.1849      -6.337387      0.9226466
     12885.0000         0.5446       -48.2851      -5.408669      0.9361063
     12885.5000         0.5339       -47.5259      -4.620556      0.9475282
     12886.0000         0.5256        -47.274      -4.339733       0.951598
     12886.5000         0.5272       -47.2768      -4.313614      0.9519766
     12887.0000         0.5266       -47.2021      -4.209995      0.9534783
     12887.5000         0.4981       -46.9919      -3.970879      0.9569438
     12888.0000         0.4915       -46.8976       -3.84766      0.9587296
     12888.5000         0.4822       -46.9067      -3.827843      0.9590168
     12889.0000         0.4966       -46.8171      -3.709324      0.9607344
     12889.5000         0.5437       -46.8347      -3.698006      0.9608985
     12890.0000         0.5976       -47.1482      -3.982586      0.9567741
     12890.5000         0.6313       -47.8183      -4.623768      0.9474816
     12891.0000         0.6391       -48.6487      -5.425251      0.9358659
     12891.5000         0.6279       -49.0626       -5.81023      0.9302865
     12892.0000         0.6046       -48.9618      -5.680511      0.9321665
     12892.5000         0.5814       -48.9442      -5.633995      0.9328406
     12893.0000         0.5671       -48.9814      -5.642277      0.9327206
     12893.5000         0.5845       -48.7087      -5.340656      0.9370919
     12894.0000         0.5917       -48.2551      -4.858139      0.9440849
     12894.5000         0.5896       -46.9241      -3.498219      0.9637939
     12895.0000         0.5699       -45.6194      -2.164604      0.9831217
     12895.5000         0.5397       -44.7778      -1.294086      0.9957379
     12896.0000         0.5167       -44.2215     -0.7088661              1
     12896.5000         0.5121       -44.2679     -0.7263451              1
     12897.0000         0.5138        -44.684      -1.113525      0.9983547
     12897.5000         0.5221       -45.8182      -2.218811       0.982336
     12898.0000         0.5371       -46.8351      -3.206791      0.9680175
     12898.5000          0.567       -47.1104      -3.453175      0.9644467
     12899.0000         0.6015       -47.2264      -3.540253      0.9631847
     12899.5000         0.6075       -47.4744      -3.759335      0.9600096
     12900.0000         0.5834       -48.4538       -4.70982      0.9462345
     12900.5000          0.509       -49.7004      -5.927502       0.928587
     12901.0000         0.4979       -50.0608       -6.25898      0.9237829
     12901.5000         0.4996       -50.2574      -6.426662      0.9213527
     12902.0000          0.512       -50.2603      -6.400646      0.9217297
     12902.5000         0.5108       -50.2207      -6.332127      0.9227228
     12903.0000          0.492       -50.0837      -6.166206      0.9251274
     12903.5000         0.4664       -49.6948       -5.74839      0.9311827
     12904.0000          0.484       -48.5663      -4.590969       0.947957
     12904.5000         0.5025       -47.1191      -3.114853        0.96935
     12905.0000         0.5159       -46.0225      -1.989334      0.9856618
     12905.5000          0.531       -45.4545      -1.392414      0.9943128
     12906.0000         0.5549       -45.4714      -1.380398       0.994487
     12906.5000         0.6144        -46.433      -2.313076      0.9809699
     12907.0000         0.6512       -47.9439      -3.795063      0.9594918
     12907.5000           0.65       -49.3873      -5.209541      0.9389921
     12908.0000         0.6355       -50.1334      -5.926723      0.9285982
     12908.5000         0.6467       -50.4224      -6.186806      0.9248289
     12909.0000         0.6809       -50.5216      -6.257088      0.9238103
     12909.5000         0.6863       -50.2881      -5.994671      0.9276134
     12910.0000         0.6057       -49.7651      -5.442749      0.9356123
     12910.5000         0.5711       -48.4786      -4.127331      0.9546764
     12911.0000         0.5654       -48.2996      -3.919411      0.9576897
     12911.5000         0.5911       -48.5452      -4.136097      0.9545493
     12912.0000          0.615       -48.6914      -4.253376      0.9528496
     12912.5000         0.6383       -48.7505      -4.283558      0.9524122
     12913.0000         0.6599       -48.5827      -4.086838      0.9552632
     12913.5000          0.687       -48.4313      -3.906521      0.9578765
     12914.0000         0.6673       -47.7715      -3.217804      0.9678579
     12914.5000         0.6073       -46.7836      -2.200985      0.9825944
