#------------------------------------------------------------------------------
# Created by    : vladimir.rabinovich
# Created on    : 09/19/2023 17:20:46
#------------------------------------------------------------------------------
~Version Information Section
VERS.           2.0     :   CWLS log ASCII Standard - VERSION 2.0
WRAP.           NO      :   One line per depth step
~Well Information Section
#MNEM       .UNIT                                         VALUE :DESCRIPTION
#------------------------------------------------------------------------------
STRT        .FT                                             695 :START DEPTH
STOP        .FT                                            9139 :STOP DEPTH
STEP        .FT                                             0.5 :STEP      
NULL        .                                           -999.25 :NULL      
COMP        .                   COASTAL STATES GAS TRANSMISSION :COMPANY   
WELL        .                                     ST TR 00592-L :WELL      
FLD         .                                           WILDCAT :FIELD     
LOC         .                                                   :LOCATION  
CNTY        .                      MATAGORDA ISLAND LARGE BLOCK :LOCATION  
STAT        .                                             TEXAS :STATE     
CTRY        .                                     UNITED STATES :COUNTRY   
SRVC        .                                                   :SERVICE COMPANY
DATE        .                             9/13/2023 11:12:01 AM :LOG DATE  
API         .                                    42703000420000 :API NUMBER
UWI         .                                    42703000420000 :UNIQUE WELL ID
XCOORD      .                                  562172.631053371 :SURFACE X 
YCOORD      .                                   10240692.584136 :SURFACE Y 
LAT         .                                        28.1787665 :LATITUDE  
LON         .                                       -96.3469802 :LONGITUDE 
ELEV        .FT                                              11 :ELEVATION VALUE
ELEV_TYPE   .                                                KB :ELEVATION REFERENCE TYPE
~Curve Information Section
#MNEM       .UNIT                                      API CODE :CURVE DESCRIPTION
#------------------------------------------------------------------------------
DEPT        .FT                                                 :DEPTH     
ASN         .OHMM                                               :          
CALI        .IN                                                 :          
CILD        .MMHO                                               :          
DT          .US/F                                               :          
ILD         .OHMM                                               :          
SP          .MV                                                 :          
SP_NORM     .MV                                                 :SP Normalized
VSH_SP      .V/V                                                :Volume of Shale from SP
~A        DEPTH            ASN           CALI           CILD             DT            ILD             SP        SP_NORM         VSH_SP
       695.0000          0.062        15.3755       123.0209       169.2051         1.4695      -132.0012      -4.114113      0.6885887
       695.5000         0.1242        15.4918       148.2305       169.2007         1.3691       -121.108      -0.598793              1
       696.0000         0.2723        15.6872       216.4653       169.1965          1.276      -110.2148       1.506653              1
       696.5000         0.4536        15.8203       532.4844       169.1924         1.1957      -100.0284       2.905296              1
       697.0000         0.6349        15.8581       1089.119        169.188         1.0947       -97.9315      -1.230133      0.9769867
       697.5000         0.8163        15.8978        1052.68       169.1838         1.1077       -95.7035     0.06189728              1
       698.0000         0.9976        15.9283        729.377       169.1794         1.2098       -93.9161      0.9133224              1
       698.5000         1.0765        15.9416       640.1494       169.1753         1.3344       -92.6647       1.228745              1
       699.0000         1.1179        15.9444       592.7432       169.1709          1.464        -91.395       1.562469              1
       699.5000         1.1684         15.945       615.0908       169.1667          1.576       -89.9771       2.078003              1
       700.0000         1.1962        15.9549        677.374       167.5278         1.6052       -88.7325       2.548683              1
       700.5000         1.2137        15.9649       683.7646       164.2551         1.5806       -87.6534       2.853874              1
       701.0000         1.2327        15.9676       679.9668       158.3823         1.5561       -86.9319       2.801453              1
       701.5000         1.2501        15.9688       676.1689        152.509         1.5316       -86.4517       2.507744              1
       702.0000         1.2648        15.9705       676.2637        149.582         1.4974       -86.1846       2.000923              1
       702.5000         1.2773        15.9676       684.2979       147.3342          1.456       -86.0552       1.356407              1
       703.0000         1.2705        15.9647       708.2617       147.2288         1.4146       -86.0583      0.5793991              1
       703.5000         1.2637        15.9606       737.0664       144.5291         1.3732       -86.0616     -0.1978226              1
       704.0000         1.2533        15.9533       768.3662       140.3684         1.3318       -86.0193     -0.9294357              1
       704.5000          1.239        15.9414       793.5918       139.4041         1.2904       -85.9324      -1.616455      0.9383545
       705.0000         1.2285        15.9324       814.4453       138.5293         1.2498       -85.9091      -2.367073      0.8632927
       705.5000         1.2196        15.9306       833.2969       137.6816         1.2127       -85.9124      -3.144279      0.7855721
       706.0000         1.2077        15.9343       850.2529       137.4543         1.1757       -85.6891      -3.694901      0.7305099
       706.5000         1.1949         15.938       864.5244       136.8398          1.151       -85.2416      -4.021309      0.6978691
       707.0000         1.1851        15.9416       868.8135       136.6604         1.1349       -84.7852      -4.338829      0.6661171
       707.5000         1.1808        15.9452       864.3311       136.7405         1.1188       -84.3248      -4.652336      0.6347664
       708.0000         1.1765        15.9482       859.8486       136.3904         1.1039       -83.8645      -4.965958      0.6034042
       708.5000         1.1731        15.9563       855.3662       136.9714         1.0897         -83.22      -5.095375      0.5904625
       709.0000         1.1698        15.9657         850.04       138.7151         1.0755       -82.5551      -5.204384      0.5795616
       709.5000           1.17        15.9682       844.3467          141.2         1.0651         -81.89      -5.313202      0.5686798
       710.0000         1.1717         15.968       838.6523        142.238         1.0704        -81.239      -5.436111      0.5563889
       710.5000         1.1734        15.9678       835.3545       142.6501         1.0758       -80.6017      -5.572731      0.5427269
       711.0000         1.1747        15.9676       837.7607       143.1348         1.0835       -79.9644      -5.709351       0.529065
       711.5000         1.1759        15.9667        840.168       147.0149         1.1013       -79.3269      -5.845757      0.5154244
       712.0000         1.1767        15.9647       842.5742       151.4023         1.1213       -78.7036      -5.996376      0.5003624
       712.5000         1.1767         15.963       845.4482       156.0225         1.1446       -78.0864      -6.153091      0.4846908
       713.0000         1.1768        15.9628       849.4639       157.9023         1.1679       -77.4691      -6.309708      0.4690292
       713.5000         1.1775        15.9626       852.0937       161.6953         1.1717       -76.8208      -6.435318      0.4564682
       714.0000         1.1783        15.9624       853.9238       162.7695         1.1755       -76.0979      -6.486336      0.4513664
       714.5000         1.1743        15.9622        853.916       165.2344         1.1792       -75.3751      -6.537453      0.4462547
       715.0000         1.1698         15.962       853.9082       166.6714          1.183       -74.6523      -6.588562      0.4411438
       715.5000         1.1658        15.9618       856.2979        164.666           1.18       -73.9626      -6.672783      0.4327217
       716.0000         1.1618        15.9621       861.2402       165.3159         1.1753       -73.3066      -6.790695      0.4209305
       716.5000         1.1568        15.9636       866.1836       167.6257         1.1706       -72.6506      -6.908607      0.4091392
       717.0000         1.1498        15.9651       880.1318       173.2629          1.166       -72.1354       -7.16732       0.383268
       717.5000          1.145         15.965        894.584       175.9583         1.1613       -71.9584      -7.764236      0.3235764
       718.0000         1.1409        15.9648        900.207       176.6128         1.1522       -71.7814      -8.309189      0.2690811
       718.5000         1.1388        15.9646       905.1631       176.6687         1.1403       -71.6044      -8.144562      0.2855438
       719.0000         1.1373        15.9644       901.5762       176.6548         1.1284       -71.4274      -7.979935      0.3020065
       719.5000         1.1419        15.9633       896.1504       176.1775         1.1165       -71.2504      -7.815308      0.3184692
       720.0000         1.1521        15.9616       885.7813       176.4746         1.1046       -71.0348       -7.61208       0.338792
       720.5000         1.1637        15.9599       875.4121       176.7815         1.0957       -70.8142      -7.403858      0.3596142
       721.0000         1.1781        15.9563       865.0439        173.541         1.0979       -70.5937      -7.195728      0.3804272
       721.5000         1.1951        15.9524       854.6357       170.3218         1.1001       -70.3733      -6.987705      0.4012295
       722.0000         1.2171        15.9498        843.748       169.8245         1.1023       -70.1528      -6.779579      0.4220421
       722.5000         1.2341        15.9476       832.8604       169.7266         1.1176       -69.9407      -6.579849      0.4420151
       723.0000         1.2554        15.9468       821.9727       169.4639         1.1409       -69.8192      -6.470726      0.4529274
       723.5000         1.2803        15.9466        810.915       168.7458         1.1639       -69.6976      -6.361504      0.4638496
       724.0000         1.3032        15.9464       797.6309       167.2627         1.1857       -69.5762      -6.252476      0.4747524
