#------------------------------------------------------------------------------
# Created by    : vladimir.rabinovich
# Created on    : 09/19/2023 17:22:30
#------------------------------------------------------------------------------
~Version Information Section
VERS.           2.0     :   CWLS log ASCII Standard - VERSION 2.0
WRAP.           NO      :   One line per depth step
~Well Information Section
#MNEM       .UNIT                                         VALUE :DESCRIPTION
#------------------------------------------------------------------------------
STRT        .FT                                             328 :START DEPTH
STOP        .FT                                            8026 :STOP DEPTH
STEP        .FT                                             0.5 :STEP      
NULL        .                                           -999.25 :NULL      
COMP        .                                 MESA PETROLEUM CO :COMPANY   
WELL        .                                ST TR 00565-L NW/4 :WELL      
FLD         .                                           WILDCAT :FIELD     
LOC         .                                                   :LOCATION  
CNTY        .                      MATAGORDA ISLAND LARGE BLOCK :LOCATION  
STAT        .                                             TEXAS :STATE     
CTRY        .                                     UNITED STATES :COUNTRY   
SRVC        .                                                   :SERVICE COMPANY
DATE        .                             9/13/2023 11:12:01 AM :LOG DATE  
API         .                                    42703301780000 :API NUMBER
UWI         .                                    42703301780000 :UNIQUE WELL ID
XCOORD      .                                  585273.186473096 :SURFACE X 
YCOORD      .                                  10269188.7462706 :SURFACE Y 
LAT         .                                          28.25878 :LATITUDE  
LON         .                                       -96.2777629 :LONGITUDE 
ELEV        .FT                                              82 :ELEVATION VALUE
ELEV_TYPE   .                                                KB :ELEVATION REFERENCE TYPE
~Curve Information Section
#MNEM       .UNIT                                      API CODE :CURVE DESCRIPTION
#------------------------------------------------------------------------------
DEPT        .FT                                                 :DEPTH     
CILD        .MMHO                                               :          
DT          .US/F                                               :          
ILD         .OHMM                                               :          
SFL         .OHMM                                               :          
SP          .MV                                                 :          
SP_NORM     .MV                                                 :SP Normalized
VSH_SP      .V/V                                                :Volume of Shale from SP
~A        DEPTH           CILD             DT            ILD            SFL             SP        SP_NORM         VSH_SP
# ...
      7497.0000       2878.461       160.0803         0.3734         0.5781       -54.1246     -0.2323837              1
      7497.5000       2844.465       141.2498         0.3774         0.6017       -54.1467     -0.2544861              1
      7498.0000       2812.914       133.2107         0.3812         0.5914       -54.2712     -0.3789825              1
      7498.5000       2791.391       127.6393          0.384         0.5751       -54.7951     -0.9028854              1
      7499.0000       2780.641       126.4895          0.386          0.586       -55.3363      -1.444084       0.993564
      7499.5000       2784.203       127.9487         0.3853         0.6086       -55.8788      -1.986584      0.9857017
      7500.0000        2789.84       133.1018         0.3843         0.6197       -56.1414      -2.249184      0.9818959
      7500.5000       2802.191       145.1506          0.381         0.6151       -56.2679      -2.375683      0.9800625
      7501.0000       2811.566       151.4521         0.3777         0.6203       -56.1748      -2.282585      0.9814118
      7501.5000       2815.914       156.0508         0.3743         0.6305       -56.0294      -2.137184      0.9835191
      7502.0000        2813.34       160.3625         0.3708          0.648       -55.8289      -1.936684      0.9864249
      7502.5000       2808.484       164.1296         0.3673         0.6588       -55.5673      -1.675083      0.9902162
      7503.0000       2801.461       164.4365         0.3666         0.6344       -55.2563      -1.364086      0.9947234
      7503.5000       2798.184       145.2991         0.3671         0.5985       -54.8391     -0.9468842              1
      7504.0000       2800.152       127.3497         0.3682          0.583       -54.3326     -0.4403839              1
      7504.5000       2790.492       102.7671         0.3709          0.593       -54.2672     -0.3749847              1
      7505.0000       2769.141        94.8962         0.3737         0.6123       -54.4935      -0.601284              1
      7505.5000       2754.418       159.1892         0.3758         0.6279       -54.5413      -0.649086              1
      7506.0000        2745.07       163.5913         0.3779         0.6349       -54.6038      -0.711586              1
      7506.5000       2751.926       163.1147         0.3791         0.6403       -54.9045      -1.012283       0.999822
      7507.0000       2759.719       159.2339         0.3781         0.6495       -55.5186      -1.626385       0.990922
      7507.5000       2773.793       156.2043          0.377         0.6611       -55.9984      -2.106186      0.9839683
      7508.0000       2787.891       157.4319         0.3757         0.6646       -56.4089      -2.516685      0.9780191
      7508.5000       2794.828       160.4417         0.3742         0.6593        -56.774      -2.881783      0.9727278
      7509.0000       2796.914       162.5405         0.3726         0.6377       -56.9752      -3.082985      0.9698118
      7509.5000       2781.441       162.2756         0.3734         0.6164       -56.9331      -3.040886       0.970422
      7510.0000       2764.094       160.5952         0.3754         0.5934       -56.8477      -2.955482      0.9716597
      7510.5000       2749.617       161.3279         0.3775         0.5738       -57.3871      -3.494884      0.9638423
      7511.0000        2735.52       162.7727         0.3818         0.5748       -56.6382      -2.745983      0.9746959
      7511.5000       2728.113       161.3477         0.3861          0.597       -56.0759      -2.183685      0.9828451
      7512.0000       2725.371       149.8037         0.3894         0.6521       -55.5391      -1.646885      0.9906248
      7512.5000       2731.508        132.092         0.3915         0.6695       -55.1596      -1.267384      0.9961249
      7513.0000       2741.355       124.1865         0.3936         0.6124       -54.8475     -0.9552841              1
      7513.5000       2754.816       121.6199         0.3909          0.531       -54.7672     -0.8749847              1
      7514.0000       2774.516       134.7354         0.3875         0.4965       -54.9268      -1.034584      0.9994988
      7514.5000       2783.605       152.1106         0.3829         0.5029       -55.0657      -1.173485      0.9974858
      7515.0000       2791.293       160.0852         0.3778         0.5284       -55.1943      -1.302086      0.9956219
      7515.5000       2798.727       157.1399         0.3734         0.5628       -55.2307      -1.338486      0.9950944
      7516.0000       2813.613       149.0415          0.371         0.5899       -55.2355      -1.343285      0.9950249
      7516.5000       2838.012       141.8833         0.3687         0.5745       -55.2402      -1.347984      0.9949567
      7517.0000       2849.977       138.1138         0.3667          0.532       -55.2802      -1.387985       0.994377
      7517.5000        2851.18        137.375         0.3661         0.5235       -55.3831      -1.490883      0.9928858
      7518.0000       2845.438       148.0613         0.3655         0.5423       -55.3859      -1.493683      0.9928452
      7518.5000       2847.004       154.5955         0.3656         0.5638       -55.3538      -1.461586      0.9933103
      7519.0000       2848.684       157.3972         0.3662         0.5832       -55.2986      -1.406384      0.9941104
      7519.5000       2850.508        158.314         0.3679         0.5919       -55.2272      -1.334984      0.9951451
      7520.0000       2852.367       156.5557         0.3704         0.5831       -55.0701      -1.177883       0.997422
      7520.5000       2851.066       152.0364         0.3731         0.5643       -54.8282     -0.9359856              1
      7521.0000       2848.449       147.2148         0.3759         0.5362       -54.7644     -0.8721848              1
      7521.5000       2839.613       143.9229         0.3782         0.5512       -54.8116      -0.919384              1
      7522.0000       2829.238       142.6421         0.3803         0.5961       -54.8164     -0.9241829              1
      7522.5000       2816.227       143.4426         0.3833         0.6268       -54.6575     -0.7652855              1
      7523.0000       2795.414       140.0396         0.3868         0.6361       -54.4718      -0.579586              1
      7523.5000       2769.816       137.5544         0.3908          0.611       -54.2356     -0.3433838              1
      7524.0000        2738.07       136.9382         0.3966         0.6089       -54.0027     -0.1104851              1
      7524.5000       2703.223       139.5469         0.4024         0.6352       -53.8853    0.006916046              1
      7525.0000       2664.023       143.7546         0.4087         0.6852       -53.6848      0.2074165              1
      7525.5000       2626.277        145.365         0.4143         0.7399       -53.3828      0.5094147              1
      7526.0000       2590.902       140.9727         0.4161         0.7784       -53.0898      0.8024139              1
      7526.5000       2574.504       134.1365          0.416         0.6886       -52.9401      0.9521141              1
      7527.0000       2584.016       130.2629         0.4144         0.5866       -53.5731      0.3191147              1
      7527.5000       2605.578       130.3296           0.41         0.5229       -54.4423     -0.5500832              1
      7528.0000       2633.727        136.656         0.4028         0.5347        -55.105      -1.212784      0.9969162
      7528.5000       2676.871       142.8635         0.3959         0.5451       -55.3545      -1.462284      0.9933003
      7529.0000        2738.02       140.4331         0.3899         0.5521       -55.3593      -1.467083      0.9932307
      7529.5000       2790.668       142.7151          0.384          0.552       -55.1432      -1.250984      0.9963626
      7530.0000       2833.063       157.2786         0.3781         0.5531       -54.8989      -1.006683      0.9999031
