#------------------------------------------------------------------------------
# Created by    : vladimir.rabinovich
# Created on    : 09/19/2023 17:20:49
#------------------------------------------------------------------------------
~Version Information Section
VERS.           2.0     :   CWLS log ASCII Standard - VERSION 2.0
WRAP.           NO      :   One line per depth step
~Well Information Section
#MNEM       .UNIT                                         VALUE :DESCRIPTION
#------------------------------------------------------------------------------
STRT        .FT                                            2010 :START DEPTH
STOP        .FT                                            6610 :STOP DEPTH
STEP        .FT                                             0.5 :STEP      
NULL        .                                           -999.25 :NULL      
COMP        .                                      SHELL OIL CO :COMPANY   
WELL        .                                ST TR 00691-L SE/4 :WELL      
FLD         .                                           WILDCAT :FIELD     
LOC         .                                                   :LOCATION  
CNTY        .                      MATAGORDA ISLAND LARGE BLOCK :LOCATION  
STAT        .                                             TEXAS :STATE     
CTRY        .                                     UNITED STATES :COUNTRY   
SRVC        .                                                   :SERVICE COMPANY
DATE        .                             9/13/2023 11:12:05 AM :LOG DATE  
API         .                                    42703000190000 :API NUMBER
UWI         .                                    42703000190000 :UNIQUE WELL ID
XCOORD      .                                  412077.623085271 :SURFACE X 
YCOORD      .                                  10154908.2726125 :SURFACE Y 
LAT         .                                        27.9310704 :LATITUDE  
LON         .                                         -96.80379 :LONGITUDE 
ELEV        .FT                                              82 :ELEVATION VALUE
ELEV_TYPE   .                                                DF :ELEVATION REFERENCE TYPE
~Curve Information Section
#MNEM       .UNIT                                      API CODE :CURVE DESCRIPTION
#------------------------------------------------------------------------------
DEPT        .FT                                                 :DEPTH     
ASN         .OHMM                                               :          
CILD        .MMHO                                               :          
ILD         .OHMM                                               :          
SP          .MV                                                 :          
SP_NORM     .MV                                                 :SP Normalized
VSH_SP      .V/V                                                :Volume of Shale from SP
~A        DEPTH            ASN           CILD            ILD             SP        SP_NORM         VSH_SP
# ...
      5962.0000         1.3581       2326.246         0.4327       -88.7354       -42.1271      0.2428849
      5962.5000          1.556       2453.277         0.4284       -89.2935       -42.6889      0.2322849
      5963.0000         1.3605       2732.008          0.424       -90.1785       -43.5776       0.215517
      5963.5000         0.4235       3010.348         0.4196       -91.0341        -44.437      0.1993019
      5964.0000          0.412       3289.078         0.3986       -91.7465       -45.1531      0.1857906
      5964.5000         0.3959       3567.418         0.3716       -92.4587        -45.869       0.172283
      5965.0000         0.3658       3749.551         0.3447       -93.1718       -46.5859      0.1587566
      5965.5000           0.35           3870         0.3178       -93.6746       -47.0924         0.1492
      5966.0000         0.3674       4081.082         0.2908       -93.9871       -47.4086       0.143234
      5966.5000          0.375       4135.008         0.2639       -94.2996       -47.7249      0.1372661
      5967.0000         0.3727       4159.648         0.2571       -94.6122       -48.0412      0.1312981
      5967.5000         0.3663       4169.898         0.2531       -94.9247       -48.3575      0.1253302
      5968.0000         0.3575       4180.148         0.2492       -95.2372       -48.6737      0.1193642
      5968.5000         0.3445       4215.258         0.2478       -95.5676       -49.0078      0.1130604
      5969.0000         0.3315       4299.133         0.2475        -95.921        -49.365      0.1063207
      5969.5000         0.3185       4400.625         0.2472       -96.2748       -49.7225     0.09957547
      5970.0000         0.3168       4502.016          0.247       -96.6282       -50.0796     0.09283771
      5970.5000          0.324       4603.406         0.2467       -96.6466       -50.1018     0.09241889
      5971.0000         0.3312       4654.102         0.2464       -96.3654       -49.8243     0.09765474
      5971.5000         0.3383       4523.352         0.2461       -95.9259       -49.3885      0.1058774
      5972.0000         0.3337       4392.695         0.2459       -95.1257       -48.5921      0.1209038
      5972.5000         0.3274       4262.039         0.2464       -94.3254       -47.7955      0.1359339
      5973.0000         0.3225           3990         0.2517       -92.8619       -46.3358      0.1634755
      5973.5000         0.3198       3770.398          0.257        -90.637       -44.1146      0.2053849
      5974.0000         0.3171       3566.438         0.2623        -86.578       -40.0593         0.2819
      5974.5000         0.3232        3362.48         0.2676       -84.1526       -37.6377      0.3275906
      5975.0000         0.3295       3158.719         0.2729       -82.9897       -36.4785      0.3494623
      5975.5000         0.3357       2885.906         0.2783       -81.8256       -35.3181      0.3713566
      5976.0000         0.3556       2877.246         0.2846       -77.8649       -31.3612      0.4460151
      5976.5000         0.3882       2861.539         0.2969       -72.0186       -25.5186      0.5562528
      5977.0000         0.4221        2840.84         0.3093       -71.7161       -25.2198      0.5618905
      5977.5000          0.443       2751.191         0.3216       -74.7205        -28.228      0.5051321
      5978.0000         0.4546       2640.895          0.334       -77.7247       -31.2359      0.4483792
      5978.5000         0.4586       2530.691         0.3463       -80.7316       -34.2465      0.3915755
      5979.0000         0.4546       2486.504         0.3586       -83.7358       -37.2545      0.3348207
      5979.5000          0.447       2507.254          0.371       -85.8699       -39.3923      0.2944849
      5980.0000         0.4394       2518.008          0.382       -78.5238       -32.0499      0.4330207
      5980.5000         0.4326       2521.496         0.3924       -71.1678       -24.6977      0.5717415
      5981.0000         0.4518       2523.535         0.4028        -63.812       -17.3456      0.7104604
      5981.5000         0.4586       2534.852         0.4133       -63.6472       -17.1846      0.7134981
      5982.0000         0.4654        2563.82         0.4056       -66.3663       -19.9074      0.6621245
      5982.5000         0.4722        2635.02         0.3901       -71.8661       -25.4109      0.5582849
      5983.0000         0.4776       2881.355         0.3745       -73.9742       -27.5228      0.5184377
      5983.5000         0.4798        3088.25          0.359       -75.6965       -29.2488      0.4858717
      5984.0000         0.4819       3295.344         0.3435       -78.0763       -31.6323         0.4409
      5984.5000         0.4834       3502.238         0.3487       -80.7733       -34.3331      0.3899415
      5985.0000         0.4766       3709.328         0.3691       -83.1582       -36.7217      0.3448736
      5985.5000         0.4699       3916.223         0.3895       -86.8435       -40.4107      0.2752698
      5986.0000         0.4633       3688.383         0.4099       -91.1681       -44.7391      0.1936019
      5986.5000         0.4574       3441.168         0.4303       -89.5675       -43.1422      0.2237321
      5987.0000         0.4517       3193.754         0.4507       -82.8508       -36.4292      0.3503925
      5987.5000         0.4569       2946.344         0.4932       -76.1342       -29.7164      0.4770491
      5988.0000         0.4674       2699.125         0.5444       -69.4224       -23.0083       0.603617
      5988.5000          0.486       2451.711         0.5957       -62.7056       -16.2952      0.7302793
      5989.0000          0.597       2204.301          0.647       -57.8205       -11.4139      0.8223792
      5989.5000          0.673        2005.75         0.7179       -56.4794       -10.0765      0.8476132
      5990.0000          0.698       1536.492         0.8341       -55.1321         -8.733      0.8729623
      5990.5000         0.7275       1037.654         0.8047       -53.7836        -7.3882      0.8983359
      5991.0000         0.7508       1137.285         0.7753       -52.9815        -6.5898         0.9134
      5991.5000         0.7728       1236.916          0.746       -52.6084        -6.2205      0.9203679
      5992.0000          0.793       1336.547         0.7166       -53.4148        -7.0306       0.905083
      5992.5000         0.7909       1436.275         0.6873       -55.1948        -8.8143      0.8714283
      5993.0000         0.7713       1535.904         0.6537       -56.9723       -10.5956      0.8378189
      5993.5000         0.7302       1635.535         0.6041       -75.0032       -28.6302      0.4975434
      5994.0000         0.6988       1851.238         0.5529       -84.8324       -38.4631       0.312017
      5994.5000         0.6714        2099.75         0.5059       -86.5035        -40.138      0.2804151
      5995.0000         0.6413           2352         0.4669        -87.251       -40.8892      0.2662416
      5995.5000         0.6087        2604.25          0.428       -88.1428       -41.7847      0.2493453
      5996.0000         0.5676         2856.5         0.3918       -89.2024       -42.8481      0.2292812
      5996.5000         0.5202        3108.75         0.3555        -90.337       -43.9864      0.2078038
      5997.0000         0.4968           3361         0.3215        -91.774       -45.4272      0.1806189
      5997.5000         0.4734        3613.25         0.2929       -93.3708       -47.0277      0.1504208
      5998.0000         0.4554       3746.859         0.2643        -95.114       -48.7746      0.1174604
      5998.5000         0.4375         3983.5         0.2496       -96.3912       -50.0556     0.09329058
      5999.0000         0.4223        4113.18         0.2358       -97.5824       -51.2505     0.07074529
      5999.5000         0.4113       4208.602         0.2219       -98.6776       -52.3494     0.05001133
