#------------------------------------------------------------------------------
# Created by    : vladimir.rabinovich
# Created on    : 09/19/2023 17:22:30
#------------------------------------------------------------------------------
~Version Information Section
VERS.           2.0     :   CWLS log ASCII Standard - VERSION 2.0
WRAP.           NO      :   One line per depth step
~Well Information Section
#MNEM       .UNIT                                         VALUE :DESCRIPTION
#------------------------------------------------------------------------------
STRT        .FT                                             328 :START DEPTH
STOP        .FT                                            8026 :STOP DEPTH
STEP        .FT                                             0.5 :STEP      
NULL        .                                           -999.25 :NULL      
COMP        .                                 MESA PETROLEUM CO :COMPANY   
WELL        .                                ST TR 00565-L NW/4 :WELL      
FLD         .                                           WILDCAT :FIELD     
LOC         .                                                   :LOCATION  
CNTY        .                      MATAGORDA ISLAND LARGE BLOCK :LOCATION  
STAT        .                                             TEXAS :STATE     
CTRY        .                                     UNITED STATES :COUNTRY   
SRVC        .                                                   :SERVICE COMPANY
DATE        .                             9/13/2023 11:12:01 AM :LOG DATE  
API         .                                    42703301780000 :API NUMBER
UWI         .                                    42703301780000 :UNIQUE WELL ID
XCOORD      .                                  585273.186473096 :SURFACE X 
YCOORD      .                                  10269188.7462706 :SURFACE Y 
LAT         .                                          28.25878 :LATITUDE  
LON         .                                       -96.2777629 :LONGITUDE 
ELEV        .FT                                              82 :ELEVATION VALUE
ELEV_TYPE   .                                                KB :ELEVATION REFERENCE TYPE
~Curve Information Section
#MNEM       .UNIT                                      API CODE :CURVE DESCRIPTION
#------------------------------------------------------------------------------
DEPT        .FT                                                 :DEPTH     
CILD        .MMHO                                               :          
DT          .US/F                                               :          
ILD         .OHMM                                               :          
SFL         .OHMM                                               :          
SP          .MV                                                 :          
SP_NORM     .MV                                                 :SP Normalized
VSH_SP      .V/V                                                :Volume of Shale from SP
~A        DEPTH           CILD             DT            ILD            SFL             SP        SP_NORM         VSH_SP
# ...
      2874.0000       1369.342       149.1787         0.7246         0.7978       -52.4435        1.39909              1
      2874.5000       1227.465       163.3206         0.7991         0.8071       -51.3884       2.460258              1
      2875.0000       1204.426       144.7444         0.8527          0.831        -50.843        3.01173              1
      2875.5000       1201.145       128.3684         0.8912         0.8549       -50.7479       3.112904              1
      2876.0000       1205.848       129.7317         0.9188         0.8734       -50.9745       2.892372              1
      2876.5000       1232.607       131.0183         0.9133         0.8815       -51.2641       2.608841              1
      2877.0000       1259.451       130.4343         0.8889         0.8744       -51.5666       2.312412              1
      2877.5000       1280.145       130.4651          0.865         0.8664       -52.1829       1.702183              1
      2878.0000        1300.74       130.9055         0.8413         0.8513       -52.9071      0.9840508              1
      2878.5000       1320.781       130.9912         0.8194         0.8324       -53.4418      0.4554253              1
      2879.0000       1342.582       130.6316         0.7988         0.8088       -53.8347     0.06859207              1
      2879.5000       1365.355       130.8115         0.7837         0.7852       -53.9955    -0.08613586              1
      2880.0000       1386.441        131.488         0.7707         0.7746       -53.9815    -0.06606674              1
      2880.5000       1404.213       132.6331         0.7609          0.769       -53.9402    -0.01869583              1
      2881.0000       1419.297        134.124         0.7569         0.7686       -53.7119      0.2156754              1
      2881.5000         1431.6       135.6243         0.7598         0.7711       -53.4355      0.4981422              1
      2882.0000       1437.139        136.804          0.764         0.7742       -53.0803       0.859417              1
      2882.5000       1438.131       137.5454         0.7677         0.7799       -52.6461       1.299686              1
      2883.0000       1388.854       137.6929         0.7716         0.7853       -52.1362       1.815655              1
      2883.5000       1325.887       137.6917         0.7762         0.7884       -51.6259       2.332027              1
      2884.0000       1269.859       137.8997         0.7955          0.793        -51.116       2.847996              1
      2884.5000       1224.658       138.4011         0.8328         0.8129       -50.6429       3.327168              1
      2885.0000       1186.076       138.6433         0.8878         0.8512       -50.1719       3.804234              1
      2885.5000        1151.58         137.55         0.9456         0.8914        -49.925       4.057209              1
      2886.0000       1115.705       134.5471         0.9835         0.9302       -49.7882       4.200077              1
      2886.5000       1088.367       130.6548         1.0116         0.9694       -49.7302       4.264145              1
      2887.0000       1069.943         126.76         1.0275         1.0103       -49.5938        4.40662              1
      2887.5000           1058       122.8689          1.039         1.0223       -49.6341       4.372387              1
      2888.0000       1052.676       119.7881         1.0453          1.015       -49.6248       4.387756              1
      2888.5000       1061.033       116.4019          1.031         1.0057       -49.7216       4.297031              1
      2889.0000       1069.391       115.1245         1.0127         0.9965       -50.0646       3.960098              1
      2889.5000        1080.26       116.2358         1.0055         0.9874       -50.4471       3.583668              1
      2890.0000       1091.541       119.0481         0.9982         0.9784       -50.7474       3.289444              1
      2890.5000       1099.391       121.6538         0.9909         0.9686       -51.0475       2.995411              1
      2891.0000       1098.432       124.2595         0.9825         0.9523        -51.289       2.759979              1
      2891.5000       1083.379       126.5955          0.974         0.9319       -51.4295       2.625549              1
      2892.0000       1077.123       128.1272         0.9783         0.9339       -51.5668       2.494324              1
      2892.5000       1062.396       127.4324         0.9893         0.9521       -51.6798       2.387394              1
      2893.0000       1040.645       125.9773         1.0288         0.9964       -51.7878       2.285461              1
      2893.5000       1022.528       124.1382         1.0715         1.0544       -51.7089       2.370434              1
      2894.0000       1005.452       122.1228         1.1012         1.0851         -51.63       2.455402              1
      2894.5000       995.3916        120.928         1.1318          1.089       -51.5511       2.540371              1
      2895.0000       988.3818       121.1318         1.1308         1.0631       -51.4722       2.625347              1
      2895.5000       988.7139       124.4512         1.1215         1.0172       -51.5389       2.564716              1
      2896.0000       1005.354       128.3337         1.1112         0.9683       -51.6065       2.503185              1
      2896.5000       1021.378       132.2161         1.0988          0.927        -51.765       2.350754              1
      2897.0000       1036.701       136.0986         1.0844         0.9036       -51.9689       2.152927              1
      2897.5000       1057.832       139.2117         1.0616         0.9226       -52.2245       1.903397              1
      2898.0000       1094.863       139.8784         1.0154         0.9376       -52.5797       1.554264              1
      2898.5000       1145.305       133.2581         0.9427         1.0369       -53.1001       1.039936              1
      2899.0000       1211.125       123.6941         0.8368         1.0295       -53.7507      0.3954048              1
      2899.5000       1302.807       119.1211         0.7317         0.9713       -55.0604     -0.9082222              1
      2900.0000       1433.414       113.1997         0.6242         0.8817       -57.2108      -3.052551      0.9553793
      2900.5000       1603.785       108.0328         0.5326         0.7863       -62.2638      -8.099483      0.8456634
      2901.0000       1795.121       107.1869         0.4814         0.7854       -70.1754      -16.00501      0.6738041
      2901.5000       1962.932       114.3035         0.4485         0.8052       -75.3435      -21.16704      0.5615861
      2902.0000           2124       124.9189          0.426         0.8591        -78.155      -23.97247      0.5005985
      2902.5000       2295.109       133.9175         0.4157         0.9021       -75.4845       -21.2959      0.5587848
      2903.0000       2393.188       136.9163         0.4289         0.8715       -71.1675      -16.97284      0.6527644
      2903.5000       2281.281       135.9297         0.4602         0.8235       -66.4868      -12.28606      0.7546509
      2904.0000       2132.613       134.6072         0.5132         0.7404       -60.2896       -6.08279      0.8895046
      2904.5000       1914.311       133.8635         0.5786         0.6949       -55.5545      -1.341621      0.9925734
      2905.0000       1613.824       134.3188         0.6714          0.673       -53.4189      0.8000526              1
      2905.5000       1451.623       135.5764         0.7508         0.6767       -52.6876       1.537422              1
      2906.0000       1380.217       135.2473         0.8147         0.7357       -52.5714       1.659691              1
      2906.5000       1330.809        121.895         0.8643         0.8295       -52.9419       1.295265              1
      2907.0000       1286.715       103.6187         0.8923         0.8756       -53.3676      0.8756332              1
