#------------------------------------------------------------------------------
# Created by    : vladimir.rabinovich
# Created on    : 09/19/2023 17:22:51
#------------------------------------------------------------------------------
~Version Information Section
VERS.           2.0     :   CWLS log ASCII Standard - VERSION 2.0
WRAP.           NO      :   One line per depth step
~Well Information Section
#MNEM       .UNIT                                         VALUE :DESCRIPTION
#------------------------------------------------------------------------------
STRT        .FT                                             970 :START DEPTH
STOP        .FT                                           10993 :STOP DEPTH
STEP        .FT                                             0.5 :STEP      
NULL        .                                           -999.25 :NULL      
COMP        .                               AMOCO PRODUCTION CO :COMPANY   
WELL        .                                     ST TR 00558-L :WELL      
FLD         .                                           WILDCAT :FIELD     
LOC         .                                                   :LOCATION  
CNTY        .                      MATAGORDA ISLAND LARGE BLOCK :LOCATION  
STAT        .                                             TEXAS :STATE     
CTRY        .                                     UNITED STATES :COUNTRY   
SRVC        .                                                   :SERVICE COMPANY
DATE        .                             9/13/2023 11:19:13 AM :LOG DATE  
API         .                                    42703301770000 :API NUMBER
UWI         .                                    42703301770000 :UNIQUE WELL ID
XCOORD      .                                   593347.98828382 :SURFACE X 
YCOORD      .                                   10274817.073936 :SURFACE Y 
LAT         .                                        28.2748406 :LATITUDE  
LON         .                                       -96.2531821 :LONGITUDE 
ELEV        .FT                                              93 :ELEVATION VALUE
ELEV_TYPE   .                                                KB :ELEVATION REFERENCE TYPE
~Curve Information Section
#MNEM       .UNIT                                      API CODE :CURVE DESCRIPTION
#------------------------------------------------------------------------------
DEPT        .FT                                                 :DEPTH     
GR          .GAPI                                               :          
GR_NORM     .GAPI                                               :GammaRay Normalized
ILD         .OHMM                                               :          
SP          .MV                                                 :          
SP_NORM     .MV                                                 :SP Normalized
VSH_GR      .V/V                                                :Volume of Shale from GR
VSH_SP      .V/V                                                :Volume of Shale from SP
~A        DEPTH             GR        GR_NORM            ILD             SP        SP_NORM         VSH_GR         VSH_SP
# ...
      5626.5000        42.3481       44.88002         0.5409      -133.6509      -31.18594      0.2527665      0.2319489
      5627.0000        43.4385       47.52848         0.5375      -132.8542      -30.39127      0.3091167      0.2528612
      5627.5000        44.5803       50.30164          0.541      -132.7556       -30.2947        0.36812      0.2554026
      5628.0000        45.9779       53.69536         0.5434      -132.6636      -30.20473      0.4403268      0.2577703
      5628.5000         47.501       57.39358         0.5459      -132.5254      -30.06855      0.5190124      0.2613539
      5629.0000        48.8891       60.76428         0.5483      -132.2288      -29.77397      0.5907294       0.269106
      5629.5000        50.0596       63.60704         0.5589      -133.2698        -30.817      0.6512135      0.2416579
      5630.0000        51.0961       59.68971         0.5956      -133.1228      -30.67202      0.5678662      0.2454732
      5630.5000         52.092       62.26662         0.6707      -132.3274      -29.87863       0.622694      0.2663518
      5631.0000        53.1693       65.05385         0.7486      -129.8625      -27.41576      0.6819968      0.3311641
      5631.5000        54.5932       68.73683         0.8243      -126.5735      -24.12879      0.7603581      0.4176634
      5632.0000        56.0804       67.15449         0.8951      -120.9711      -18.52841      0.7266912      0.5650418
      5632.5000        57.7244       71.15623         0.9437      -116.0789      -13.63824      0.8118348      0.6937306
      5633.0000        59.6229       75.77709         0.9674      -111.0072      -8.568558      0.9101509      0.8271432
      5633.5000         61.751       81.05983         0.9683      -106.4557      -4.019089              1      0.9468661
      5634.0000        63.1761       84.90443          0.955      -103.0591     -0.6245041              1              1
      5634.5000        64.2623       87.83553         0.8958      -100.8013       1.631271              1              1
      5635.0000        64.3191       87.99202         0.7802      -108.0732      -5.642647              1      0.9041409
      5635.5000        62.6884       83.60002         0.6872        -114.35      -11.92147              1      0.7389086
      5636.0000        60.5997       77.97359         0.6374      -119.5974       -17.1709      0.9568848      0.6007658
      5636.5000        59.1901       74.17753         0.6152      -119.5579      -17.13342      0.8761176       0.601752
      5637.0000        59.1136       73.97472         0.6298      -113.1377      -10.71525      0.8718024      0.7706513
      5637.5000        61.4378       80.24274         0.6604       -104.501      -2.080566              1      0.9978798
      5638.0000        63.4547       85.68246         0.6856        -99.354       3.064407              1              1
      5638.5000        64.5271        88.5764         0.7018       -96.9563       5.460083              1              1
      5639.0000        65.0173       89.90108         0.7174       -95.9475       6.466858              1              1
      5639.5000        65.3534       90.81038         0.7211       -95.2814       7.130936              1              1
      5640.0000        65.5022       91.21485         0.6914       -95.3854        7.02491              1              1
      5640.5000        65.4949       91.19858         0.6525       -97.4243       4.983986              1              1
      5641.0000        65.2253       90.47529         0.5962      -101.6208      0.7854691              1              1
      5641.5000        63.5085       85.85123         0.5462      -106.6099      -4.205658              1      0.9419563
      5642.0000        59.4675       74.96256         0.5049      -114.1277      -11.72549      0.8928205      0.7440661
      5642.5000        55.2783       63.67442         0.4742       -117.119      -14.71881      0.6526472      0.6652945
      5643.0000        53.2924       58.32504         0.4561      -120.4474      -18.04923      0.5388306      0.5776518
      5643.5000        52.4758       56.12739         0.4511      -124.0844      -21.68825      0.4920721      0.4818882
      5644.0000         51.952       54.71892         0.4408      -122.3447      -19.95058      0.4621046      0.5276162
      5644.5000        52.3407       55.76999         0.4287      -118.4747       -16.0826      0.4844678      0.6294052
      5645.0000        53.5471       59.02512         0.4156      -117.6426      -15.25253       0.553726      0.6512493
      5645.5000        54.2734       60.98619         0.3929      -126.8031      -24.41505      0.5954509      0.4101304
      5646.0000        50.6012       51.09156         0.3714      -134.8804      -32.49438      0.3849268      0.1975164
      5646.5000        47.1675       41.83977         0.3488       -139.231        -36.847      0.1880802     0.08297368
      5647.0000        44.9749       35.93327         0.3274      -141.6572      -39.27522     0.06240999     0.01907329
      5647.5000        43.6149       32.27093          0.311      -142.7593      -40.37933              0              0
      5648.0000        43.8471       32.90018         0.2953       -143.551      -41.17307              0              0
      5648.5000        44.1887       33.82434         0.2803      -143.9971      -41.62119     0.01753917              0
      5649.0000        44.8123       35.50856         0.2745      -143.9463      -41.57242     0.05337354              0
      5649.5000        45.5003        37.3664          0.273      -143.6497      -41.27784     0.09290208              0
      5650.0000        45.4483       37.22961         0.2767      -143.2615      -40.89167     0.08999163              0
      5650.5000        44.8517       35.62495         0.2858      -143.1323      -40.76448     0.05585001              0
      5651.0000        45.7997       38.18357         0.2992      -142.1694      -39.80361      0.1102888    0.005168112
      5651.5000        47.4353       42.59553          0.318      -139.5681      -37.20433      0.2041602     0.07357025
      5652.0000        50.1325       49.86893         0.3488      -134.5432      -32.18146      0.3589133      0.2057511
      5652.5000        53.0306       57.68384         0.3876      -125.1604      -22.80068      0.5251881      0.4526136
      5653.0000        56.0984       65.95613         0.4497      -118.3707        -16.013      0.7011943      0.6312369
      5653.5000        58.3508       72.03063         0.5047      -116.3684      -14.01273       0.830439      0.6838756
      5654.0000        59.4783       75.07307          0.597      -115.2709      -12.91725      0.8951716      0.7127039
      5654.5000        59.4125       74.89907         0.6983      -113.8551      -11.50348      0.8914696      0.7499084
      5655.0000        58.9451       73.64265         0.8013      -111.3838      -9.034195      0.8647372      0.8148896
      5655.5000        59.0622        73.9617         0.9391      -108.5969      -6.249321      0.8715255      0.8881758
      5656.0000        60.0677        76.6753         1.1111      -106.1849      -3.839348      0.9292617      0.9515961
      5656.5000        60.4909       77.81937         1.2156      -105.3483      -3.004768      0.9536037      0.9735587
      5657.0000        59.5906        75.3961         1.3172      -105.5375      -3.195992      0.9020447      0.9685265
      5657.5000        58.2803       71.86772         1.3629      -106.4396      -4.100113      0.8269728      0.9447339
      5658.0000        57.0524       68.56148          1.326      -107.8169      -5.479446      0.7566272      0.9084356
      5658.5000        56.0004       65.72932         1.2813      -110.1805      -7.845062      0.6963685      0.8461826
      5659.0000        57.9659       71.03048         1.2208      -111.9272      -9.593788      0.8091592      0.8001634
      5659.5000        61.3135       80.05696         1.1073       -111.061      -8.729607              1      0.8229051
