#------------------------------------------------------------------------------
# Created by    : vladimir.rabinovich
# Created on    : 09/19/2023 17:19:56
#------------------------------------------------------------------------------
~Version Information Section
VERS.           2.0     :   CWLS log ASCII Standard - VERSION 2.0
WRAP.           NO      :   One line per depth step
~Well Information Section
#MNEM       .UNIT                                         VALUE :DESCRIPTION
#------------------------------------------------------------------------------
STRT        .FT                                             748 :START DEPTH
STOP        .FT                                            7997 :STOP DEPTH
STEP        .FT                                             0.5 :STEP      
NULL        .                                           -999.25 :NULL      
COMP        .                                        EXXON CORP :COMPANY   
WELL        .                                     ST TR 00560-L :WELL      
FLD         .                                           WILDCAT :FIELD     
LOC         .                                                   :LOCATION  
CNTY        .                      MATAGORDA ISLAND LARGE BLOCK :LOCATION  
STAT        .                                             TEXAS :STATE     
CTRY        .                                     UNITED STATES :COUNTRY   
SRVC        .                                                   :SERVICE COMPANY
DATE        .                             9/13/2023 11:19:05 AM :LOG DATE  
API         .                                    42703302000000 :API NUMBER
UWI         .                                    42703302000000 :UNIQUE WELL ID
XCOORD      .                                  556028.985600478 :SURFACE X 
YCOORD      .                                   10283706.324983 :SURFACE Y 
LAT         .                                        28.2964478 :LATITUDE  
LON         .                                       -96.3697382 :LONGITUDE 
ELEV        .FT                                              92 :ELEVATION VALUE
ELEV_TYPE   .                                                KB :ELEVATION REFERENCE TYPE
~Curve Information Section
#MNEM       .UNIT                                      API CODE :CURVE DESCRIPTION
#------------------------------------------------------------------------------
DEPT        .FT                                                 :DEPTH     
ASFL        .OHMM                                               :          
CILD        .MMHO                                               :          
DT          .US/F                                               :          
GR          .GAPI                                               :          
GR_NORM     .GAPI                                               :GammaRay Normalized
ILD         .OHMM                                               :          
SP          .MV                                                 :          
SP_NORM     .MV                                                 :SP Normalized
VSH_GR      .V/V                                                :Volume of Shale from GR
VSH_SP      .V/V                                                :Volume of Shale from SP
~A        DEPTH           ASFL           CILD             DT             GR        GR_NORM            ILD             SP        SP_NORM         VSH_GR         VSH_SP
# ...
      1262.5000         1.2013       1710.895        -999.25        28.3876       56.58595         0.6328      -122.9338       -23.1488      0.5018286      0.4013837
      1263.0000         1.3455       1745.873        -999.25        23.9127       48.16725         0.6318      -128.9927      -29.19516      0.3227075      0.2379687
      1263.5000         1.3678       1820.672        -999.25         23.087       46.61517         0.6308      -135.5774       -35.7673      0.2896844     0.06034335
      1264.0000         1.3743       1849.461        -999.25        22.7219       45.92978         0.6297      -136.6172      -36.79456      0.2751017     0.03257958
      1264.5000         1.3675        1864.26        -999.25        22.6306        45.7596         0.6285      -137.0989       -37.2637      0.2714808     0.01989993
      1265.0000         1.3421       1870.471        -999.25        22.5393       45.58942         0.6111      -136.9954      -37.14765        0.26786     0.02303644
      1265.5000         1.3137         1869.9        -999.25        22.6563       45.81119         0.5937      -136.8713        -37.011      0.2725784     0.02672969
      1266.0000         1.3277       1839.482        -999.25        24.6743       49.61003         0.5764      -136.7473      -36.87444       0.353405     0.03042066
      1266.5000         1.3541       1809.063        -999.25        26.5247       53.09351         0.5692      -134.6714      -34.78599      0.4275214     0.08686519
      1267.0000         1.3648       1762.252        -999.25        27.7118       55.32884         0.5655      -133.2769      -33.37894      0.4750817      0.1248936
      1267.5000          1.355       1713.568        -999.25        28.8835       57.53521         0.5875      -132.1133      -32.20277      0.5220258      0.1566818
      1268.0000         1.3433       1664.883        -999.25        29.8357       59.32857         0.6104      -130.9497      -31.02663      0.5601824      0.1884694
      1268.5000          1.329       1633.615        -999.25        30.7878       61.12173         0.6334      -114.0919      -14.15628      0.5983348      0.6444249
      1269.0000         1.2696       1625.172        -999.25         32.233       63.84275         0.6564       -109.163      -9.214828      0.6562287      0.7779776
      1269.5000         1.0973       1616.729        -999.25        34.3486       67.82522         0.6685       -110.125      -10.16427      0.7409621      0.7523171
      1270.0000         1.0335       1608.285        -999.25        35.9512       70.84241          0.673      -111.0869      -11.11362      0.8051578       0.726659
      1270.5000         0.9268        1599.84        -999.25        37.5607       73.87261         0.6774      -114.1798      -14.19397        0.86963      0.6434062
      1271.0000         0.9218       1591.396        -999.25        36.8446       72.52676         0.6818      -117.4938      -17.49541       0.840995      0.5541782
      1271.5000         1.0167       1582.953        -999.25        35.9579       70.85988          0.688      -119.1244      -19.11346      0.8055294      0.5104471
      1272.0000         1.0688       1431.787        -999.25        35.0713       69.19321         0.6964      -120.4047      -20.38121      0.7700684      0.4761835
      1272.5000         1.2642       1270.088        -999.25        34.1283       67.42039         0.7047      -122.6936      -22.65756      0.7323488      0.4146605
      1273.0000         1.4596       1225.287        -999.25        32.5706       64.49094          0.784      -125.1527       -25.1041      0.6700201      0.3485377
      1273.5000         1.7565       1179.102        -999.25        30.2996       60.21926         0.8789      -126.5901      -26.52895      0.5791332      0.3100283
      1274.0000         1.6998       1127.342        -999.25         28.383       56.61446         0.9694      -127.7765       -27.7028      0.5024353      0.2783028
      1274.5000         1.6599         1052.6        -999.25        27.3006       54.57933         1.0455      -128.8789      -28.79265      0.4591346      0.2488473
      1275.0000         1.6208       974.5264        -999.25        26.4587       52.99677         1.0421      -126.1278      -26.02899      0.4254631      0.3235408
      1275.5000         1.5891       981.9834        -999.25        25.8039       51.76627         1.0356      -125.3807      -25.26934      0.3992822      0.3440719
      1276.0000         1.5216       1002.358        -999.25        25.5772        51.3413         1.0021      -126.5555      -26.43158      0.3902404        0.31266
      1276.5000         1.1411       1055.098        -999.25        26.3382       52.77488         0.9603      -127.5074      -27.37093       0.420742      0.2872721
      1277.0000         1.0798       1222.053        -999.25        26.9958       54.01389         0.9185      -127.5742      -27.42519       0.447104      0.2858058
      1277.5000          1.049       1448.105        -999.25        27.6533       55.25269         0.6935      -127.6409      -27.47933      0.4734616      0.2843424
      1278.0000         1.0329       1533.518        -999.25        28.3108       56.49152         0.6021      -127.7076      -27.53348      0.4998196       0.282879
      1278.5000         1.0169        1638.09        -999.25        28.9243       57.64754         0.5508      -127.8527      -27.66602      0.5244157      0.2792967
      1279.0000         1.0051       1777.506        -999.25         29.462       58.66094         0.5237      -127.6322      -27.43298      0.5459774      0.2855952
      1279.5000         0.9974       1853.326        -999.25        30.0605       59.78872         0.4966      -125.0226      -24.81081      0.5699727      0.3564645
      1280.0000         0.9896       1898.434        -999.25        30.8654       61.30492         0.4829      -121.2084      -20.98406      0.6022323      0.4598902
      1280.5000         0.9813        1920.73        -999.25        31.6093       62.70631         0.4818      -118.8536      -18.61671      0.6320493      0.5238726
      1281.0000         0.9718       1891.561        -999.25        32.0495       63.53624         0.4807       -117.593      -17.34356      0.6497072      0.5582822
      1281.5000         0.9623       1862.385        -999.25        32.4896       64.36598         0.4796      -117.1077       -16.8457      0.6673613      0.5717378
      1282.0000         0.9688       1833.217        -999.25        32.9298        65.1959         0.4785      -119.4196      -19.14506      0.6850191       0.509593
      1282.5000         1.0073       1804.041        -999.25        33.6228       66.50152         0.5029       -121.045       -20.7579      0.7127982      0.4660026
      1283.0000         1.0668       1774.834        -999.25        34.1722       67.53694         0.5285      -122.4491      -22.14944      0.7348285      0.4283934
      1283.5000         1.1565       1745.592        -999.25        33.2347       65.77448          0.554      -123.7949       -23.4827      0.6973293      0.3923596
      1284.0000         1.2693        1716.35        -999.25        32.2969       64.01145         0.5796      -124.6974      -24.37265      0.6598181      0.3683068
      1284.5000         1.3175       1678.402        -999.25        28.8577       57.54162         0.6051      -125.3256      -24.98829      0.5221622      0.3516679
      1285.0000         1.3037       1620.988        -999.25        26.7032       53.48916         0.6276      -125.7301      -25.38024      0.4359396      0.3410746
      1285.5000         1.2898       1545.355        -999.25        25.8418       51.86989         0.6465      -125.4084      -25.04599       0.401487      0.3501084
      1286.0000          1.268       1533.846        -999.25        25.5606       51.34239         0.6654      -119.2704      -18.89544      0.3902636      0.5163395
      1286.5000          1.245       1522.336        -999.25        26.4108       52.94381         0.6843      -117.9333      -17.54578      0.4243363      0.5528169
