#------------------------------------------------------------------------------
# Created by    : vladimir.rabinovich
# Created on    : 09/19/2023 17:20:46
#------------------------------------------------------------------------------
~Version Information Section
VERS.           2.0     :   CWLS log ASCII Standard - VERSION 2.0
WRAP.           NO      :   One line per depth step
~Well Information Section
#MNEM       .UNIT                                         VALUE :DESCRIPTION
#------------------------------------------------------------------------------
STRT        .FT                                             695 :START DEPTH
STOP        .FT                                            9139 :STOP DEPTH
STEP        .FT                                             0.5 :STEP      
NULL        .                                           -999.25 :NULL      
COMP        .                   COASTAL STATES GAS TRANSMISSION :COMPANY   
WELL        .                                     ST TR 00592-L :WELL      
FLD         .                                           WILDCAT :FIELD     
LOC         .                                                   :LOCATION  
CNTY        .                      MATAGORDA ISLAND LARGE BLOCK :LOCATION  
STAT        .                                             TEXAS :STATE     
CTRY        .                                     UNITED STATES :COUNTRY   
SRVC        .                                                   :SERVICE COMPANY
DATE        .                             9/13/2023 11:12:01 AM :LOG DATE  
API         .                                    42703000420000 :API NUMBER
UWI         .                                    42703000420000 :UNIQUE WELL ID
XCOORD      .                                  562172.631053371 :SURFACE X 
YCOORD      .                                   10240692.584136 :SURFACE Y 
LAT         .                                        28.1787665 :LATITUDE  
LON         .                                       -96.3469802 :LONGITUDE 
ELEV        .FT                                              11 :ELEVATION VALUE
ELEV_TYPE   .                                                KB :ELEVATION REFERENCE TYPE
~Curve Information Section
#MNEM       .UNIT                                      API CODE :CURVE DESCRIPTION
#------------------------------------------------------------------------------
DEPT        .FT                                                 :DEPTH     
ASN         .OHMM                                               :          
CALI        .IN                                                 :          
CILD        .MMHO                                               :          
DT          .US/F                                               :          
ILD         .OHMM                                               :          
SP          .MV                                                 :          
SP_NORM     .MV                                                 :SP Normalized
VSH_SP      .V/V                                                :Volume of Shale from SP
~A        DEPTH            ASN           CALI           CILD             DT            ILD             SP        SP_NORM         VSH_SP
# ...
      4058.0000         0.8732        15.9352       1054.504       144.2886          0.959       -45.7933       3.308498              1
      4058.5000         0.8665         15.932       1071.943       143.9827         0.9558       -45.9719       3.129898              1
      4059.0000          0.859        15.9288       1090.766       142.4421         0.9352       -46.3007       2.801098              1
      4059.5000         0.8501        15.8916       1108.846       141.3352         0.9146        -46.658       2.443798              1
      4060.0000         0.8402        15.6419       1119.396       142.8596         0.8988       -47.0153       2.086498              1
      4060.5000         0.8304        15.0815       1113.721       145.0027         0.8911        -47.373       1.728798              1
      4061.0000         0.8313        14.8306       1084.811       144.5759         0.8894       -48.3102      0.7915993              1
      4061.5000         0.8374        14.6782       1054.064       143.1079         0.9131       -49.5176      -0.415802              1
      4062.0000         0.8436        14.6626       1032.357       144.8079         0.9366       -50.6001      -1.498302      0.9861583
      4062.5000         0.8506        14.6472       1010.651        146.395         0.9591       -51.5672      -2.465401      0.9592944
      4063.0000          0.869        14.6501       988.9326       143.5869         0.9817       -52.4937      -3.391899      0.9335583
      4063.5000         0.8873        14.6937       967.5537       135.0842         1.0063       -53.1956        -4.0938      0.9140611
      4064.0000          0.911         14.794       946.2256       126.3978          1.034       -53.8976      -4.795799      0.8945611
      4064.5000         0.9375        14.9486       925.0986       117.7114          1.048       -54.1897      -5.087902      0.8864472
      4065.0000         0.9556        15.4308        907.748        110.554         1.0414       -54.1958      -5.094002      0.8862777
      4065.5000         0.9585        15.7233       911.3242       108.9618         1.0348       -54.2019      -5.100101      0.8861083
      4066.0000         0.9448        15.8182       930.1475        111.229         1.0377       -53.7679        -4.6661      0.8981639
      4066.5000         0.9316        15.8921       950.7324       114.9963         1.0428       -53.2314      -4.129601      0.9130666
      4067.0000         0.9193        15.9106       974.0127        127.465         1.0478       -52.6946        -3.5928      0.9279778
      4067.5000          0.907         15.922       998.0488       132.1506         1.0418       -52.2405      -3.138702      0.9405916
      4068.0000         0.8971        15.9025       1017.935        130.906         1.0337       -52.0764      -2.974602        0.94515
      4068.5000         0.8884        15.8829       1024.684       129.4666         1.0256       -51.9123      -2.810501      0.9497083
      4069.0000         0.8797         15.834       1030.361       127.7529         1.0174       -51.7482        -2.6464      0.9542667
      4069.5000         0.8728        15.7841       1036.037       125.7501         1.0093       -51.5841        -2.4823       0.958825
      4070.0000         0.8674        15.7432       1041.713       126.8098         1.0016       -51.5144      -2.412601      0.9607611
      4070.5000         0.8621        15.7794        1049.77       128.2976         0.9941       -51.5594        -2.4576      0.9595111
      4071.0000         0.8579        15.8156       1044.822       129.0769         0.9867       -51.6045      -2.502701      0.9582583
      4071.5000         0.8593        15.8517       1028.971       128.4807         0.9822       -51.6495      -2.547703      0.9570082
      4072.0000         0.8607        15.8773       1013.106       129.7234         0.9845       -51.7339      -2.632099      0.9546639
      4072.5000         0.8705        15.9013       996.7139       132.5291         0.9868        -51.918        -2.8162        0.94955
      4073.0000         0.8872        15.9165         976.04        134.573         0.9969       -52.1021      -3.000301      0.9444361
      4073.5000         0.9155        15.9234       955.3662       134.1448         1.0233       -52.2863      -3.184502      0.9393194
      4074.0000         0.9396        15.9302       927.0752       126.5518         1.0588       -52.4703        -3.3685      0.9342083
      4074.5000         0.9622        15.9371       893.7598        122.958         1.1028       -52.6021      -3.500301      0.9305472
      4075.0000         0.9825        15.9366       864.8018       119.0802         1.1384       -52.7137        -3.6119      0.9274472
      4075.5000          1.002        15.9346       832.9219        119.271         1.1708       -52.8256      -3.723801      0.9243389
      4076.0000         1.0143        15.9327       814.0742       118.2065         1.2069       -52.9373      -3.835503       0.921236
      4076.5000         1.0265        15.9257        829.875       115.3612         1.2017       -53.0489      -3.947102      0.9181361
      4077.0000         1.0319        15.9086       843.5488       110.6085         1.1785       -53.1607      -4.058903      0.9150305
      4077.5000         1.0361        15.8457       854.1504       105.9575         1.1554       -53.2115      -4.109699      0.9136195
      4078.0000         1.0404        15.6739       864.7891       103.1879         1.1304       -53.2177      -4.115902      0.9134471
      4078.5000         1.0449        15.4532       876.5742        99.5895          1.104       -53.2238      -4.122002      0.9132777
      4079.0000         1.0494        15.2106       888.3584       100.6415         1.0776       -53.2299      -4.128101      0.9131083
      4079.5000         1.0518        15.0903       903.4424       104.8308         1.0628       -53.2359      -4.134102      0.9129416
      4080.0000         1.0518        15.1429       927.2012       107.5012         1.0513        -53.242      -4.140202      0.9127722
      4080.5000         1.0517        15.2404       966.7354       112.6622         1.0397       -53.2481      -4.146301      0.9126027
      4081.0000         1.0414         15.338       1000.151       110.3181          1.028       -53.2542      -4.152401      0.9124333
      4081.5000         1.0276        15.4362       1026.805       104.5579         1.0161       -53.2603      -4.158501      0.9122639
      4082.0000          1.015        15.5896       1048.002       100.7284         1.0042       -53.2664        -4.1646      0.9120944
      4082.5000         1.0025        15.4463       1057.898         99.171          0.986       -53.2725        -4.1707       0.911925
      4083.0000           0.99        15.3044       1068.096       103.7413         0.9599       -53.2785      -4.176701      0.9117583
      4083.5000         0.9701        15.1641       1079.088       109.5066         0.9368       -53.2846        -4.1828      0.9115889
      4084.0000         0.9483        15.0612        1090.08       113.3584          0.922       -53.2756      -4.173801      0.9118388
      4084.5000         0.9299        14.9894       1101.523       116.6691         0.9072       -53.2273        -4.1255      0.9131806
      4085.0000         0.9135        15.0486       1113.906       117.5923         0.8953       -53.1789      -4.077103      0.9145249
      4085.5000          0.897        15.1083       1126.283       111.4126         0.8862       -53.0327      -3.930901      0.9185861
      4086.0000          0.872        15.2075       1142.701       109.9657         0.8772        -52.655        -3.5532      0.9290778
      4086.5000         0.8463        15.3359       1148.934       114.9766         0.8745       -52.2777        -3.1759      0.9395583
      4087.0000         0.8276        15.4643       1147.605       123.5636         0.8741       -51.9001      -2.798302      0.9500472
