#------------------------------------------------------------------------------
# Created by    : vladimir.rabinovich
# Created on    : 09/19/2023 17:20:46
#------------------------------------------------------------------------------
~Version Information Section
VERS.           2.0     :   CWLS log ASCII Standard - VERSION 2.0
WRAP.           NO      :   One line per depth step
~Well Information Section
#MNEM       .UNIT                                         VALUE :DESCRIPTION
#------------------------------------------------------------------------------
STRT        .FT                                            1957 :START DEPTH
STOP        .FT                                            6608 :STOP DEPTH
STEP        .FT                                             0.5 :STEP      
NULL        .                                           -999.25 :NULL      
COMP        .                            HIGHLAND RESOURCES INC :COMPANY   
WELL        .                                     ST TR 00691-L :WELL      
FLD         .                                           WILDCAT :FIELD     
LOC         .                                                   :LOCATION  
CNTY        .                      MATAGORDA ISLAND LARGE BLOCK :LOCATION  
STAT        .                                             TEXAS :STATE     
CTRY        .                                     UNITED STATES :COUNTRY   
SRVC        .                                                   :SERVICE COMPANY
DATE        .                             9/13/2023 11:12:01 AM :LOG DATE  
API         .                                    42703000470000 :API NUMBER
UWI         .                                    42703000470000 :UNIQUE WELL ID
XCOORD      .                                  404407.912506245 :SURFACE X 
YCOORD      .                                  10154689.9311845 :SURFACE Y 
LAT         .                                        27.9298131 :LATITUDE  
LON         .                                       -96.8274765 :LONGITUDE 
ELEV        .FT                                              63 :ELEVATION VALUE
ELEV_TYPE   .                                                KB :ELEVATION REFERENCE TYPE
~Curve Information Section
#MNEM       .UNIT                                      API CODE :CURVE DESCRIPTION
#------------------------------------------------------------------------------
DEPT        .FT                                                 :DEPTH     
ASN         .OHMM                                               :          
CILD        .MMHO                                               :          
ILD         .OHMM                                               :          
SP          .MV                                                 :          
SP_NORM     .MV                                                 :SP Normalized
VSH_SP      .V/V                                                :Volume of Shale from SP
~A        DEPTH            ASN           CILD            ILD             SP        SP_NORM         VSH_SP
# ...
      6555.0000         0.9831       1243.598         0.8394       -42.5837        -4.8478      0.9512936
      6555.5000         0.9831       1249.854         0.8396       -42.4109         -4.675       0.953481
      6556.0000         0.9831       1256.115         0.8399        -42.238        -4.5021      0.9556696
      6556.5000         0.9889       1262.371         0.8401       -42.0601        -4.3242      0.9579215
      6557.0000         0.9949       1268.627         0.8404       -41.8431        -4.1073      0.9606671
      6557.5000         1.0138       1274.883         0.8406       -41.6263        -3.8904      0.9634126
      6558.0000         1.0512       1266.375          0.857       -41.4093        -3.6735      0.9661582
      6558.5000         1.1066       1243.691         0.8821        -41.278        -3.5421      0.9678215
      6559.0000          1.162       1221.008         0.9071       -41.1557        -3.4198      0.9693696
      6559.5000         1.2175       1198.324         0.9471       -41.1166        -3.3807      0.9698645
      6560.0000         1.2729       1175.643         1.0345       -41.7159          -3.98      0.9622785
      6560.5000         1.3284        1016.19         1.1045       -42.3153        -4.5794      0.9546911
      6561.0000         1.3838       890.4492          1.162        -43.791        -6.0551      0.9360114
      6561.5000         1.4393        845.332         1.1927       -45.8087        -8.0728      0.9104709
      6562.0000         1.4947       813.7852         1.2217       -47.5911        -9.8552      0.8879089
      6562.5000          1.473       782.9912         1.2269       -49.1029       -11.3671      0.8687709
      6563.0000          1.436       788.0146         1.2302       -50.6147       -12.8788      0.8496354
      6563.5000         1.3983       832.8828         1.2336       -52.1322       -14.3963      0.8304266
      6564.0000         1.3699       877.7998         1.2342       -53.6533       -15.9174      0.8111721
      6564.5000         1.3416       918.2861         1.2338       -55.1096       -17.3737       0.792738
      6565.0000         1.3527       940.7197         1.2335       -56.4417       -18.7058       0.775876
      6565.5000         1.3851        937.583         1.2266        -57.772       -20.0361      0.7590367
      6566.0000         1.4175       923.4404         1.2196       -59.4525       -21.7166      0.7377645
      6566.5000         1.4545       909.2979         1.2126       -61.2589        -23.523      0.7148987
      6567.0000          1.512       895.1426         1.2056       -63.2557       -25.5198      0.6896228
      6567.5000         1.5682            881         1.1983       -63.7208       -25.9849      0.6837354
      6568.0000         1.6078       866.8574         1.1903       -64.1858       -26.4499      0.6778494
      6568.5000         1.5938       852.7148         1.1823       -65.3757       -27.6399      0.6627861
      6569.0000         1.5615       835.9453         1.1708        -66.869       -29.1332      0.6438835
      6569.5000         1.5187       816.1748         1.1577       -68.3605       -30.6246      0.6250051
      6570.0000         1.4582       834.6748         1.1464       -71.5862       -33.8503      0.5841734
      6570.5000         1.3977       881.1865         1.1369       -73.2944       -35.5586      0.5625494
      6571.0000         1.2838       931.4824         1.1273       -70.5894       -32.8535      0.5967911
      6571.5000         1.2175       986.2109         1.1194         -73.35       -35.6141      0.5618468
      6572.0000         1.2113       1053.338         1.1116       -73.4834       -35.7475      0.5601582
      6572.5000         1.2052        1107.07         1.1037        -71.525       -33.7892      0.5849468
      6573.0000         1.1991       1117.777         1.0959       -69.5667       -31.8309      0.6097354
      6573.5000         1.1929       1100.396         1.0884       -67.6064       -29.8705      0.6345506
      6574.0000         1.1845       1082.992         1.0822       -67.9325       -30.1967      0.6304215
      6574.5000         1.1727       1065.588          1.076       -66.3502       -28.6143      0.6504519
      6575.0000         1.1609       1048.184         1.0698       -63.7823       -26.0464      0.6829569
      6575.5000         1.1492       1030.805         1.0667        -60.629       -22.8932      0.7228709
      6576.0000         1.1586         1013.4          1.064       -56.3342       -18.5984      0.7772354
      6576.5000         1.1839       995.9707         1.0614       -48.6268       -10.8909      0.8747987
      6577.0000         1.2091       962.2578         1.0588       -46.1959          -8.46      0.9055696
      6577.5000         1.2344       928.4951         1.0561       -45.3981        -7.6623      0.9156671
      6578.0000         1.2725       894.7813         1.0547       -45.2692        -7.5333         0.9173
      6578.5000         1.3112       872.0986         1.0537       -45.2495        -7.5136      0.9175494
      6579.0000          1.348       850.1621         1.0528       -45.2297        -7.4938         0.9178
      6579.5000         1.3662       837.6992         1.0518       -49.2567       -11.5208      0.8668253
      6580.0000         1.3574        839.334         1.0508       -54.5232       -16.7873      0.8001608
      6580.5000         1.3486       840.9697         1.0499       -55.5172       -17.7813      0.7875785
      6581.0000         1.3398       842.6055          1.046       -54.3018       -16.5659      0.8029633
      6581.5000          1.331       848.1826         1.0376       -52.2322       -14.4963      0.8291607
      6582.0000         1.3162       854.4951         1.0293       -50.1627       -12.4268       0.855357
      6582.5000         1.3014       860.8008          1.021       -48.1339        -10.398       0.881038
      6583.0000         1.2865       867.1123         1.0166       -46.2941        -8.5583      0.9043253
      6583.5000         1.2716        873.418         1.0171       -44.4562        -6.7203      0.9275911
      6584.0000         1.2568       879.7295         1.0175       -43.7382        -6.0023      0.9366797
      6584.5000         1.2419       886.0352          1.018       -43.0305        -5.2946       0.945638
      6585.0000          1.227       892.3477         1.0184       -42.3228        -4.5869      0.9545962
      6585.5000          1.216       898.6533         1.0209       -42.0972        -4.3613      0.9574519
      6586.0000         1.2062       904.9648         1.0253       -42.3575        -4.6216      0.9541569
      6586.5000         1.1965       915.1611         1.0297       -42.6176        -4.8817      0.9508646
      6587.0000         1.1867       929.2295         1.0342       -42.8779         -5.142      0.9475696
      6587.5000          1.177       943.3096         1.0386       -43.1379        -5.4021      0.9442772
      6588.0000         1.1677       957.3779         1.0431       -43.2853        -5.5494      0.9424127
      6588.5000         1.1588       971.4453         1.0461       -43.3621        -5.6262      0.9414405
      6589.0000         1.1499       985.5137         1.0486       -43.4389         -5.703      0.9404684
      6589.5000          1.141       999.5938         1.0511       -43.5157        -5.7799      0.9394949
      6590.0000         1.1321       1013.649         1.0536       -43.2834        -5.5476      0.9424354
      6590.5000         1.1232       1027.406          1.056       -42.7072        -4.9713      0.9497304
      6591.0000         1.1197       1041.162         1.0583        -42.131        -4.3951       0.957024
      6591.5000         1.1182        1054.92         1.0607       -41.5552        -3.8193      0.9643127
      6592.0000         1.1166       1067.631         1.0631       -41.1497        -3.4138      0.9694456
      6592.5000         1.1151       1048.084         1.0643       -40.8597        -3.1238      0.9731165
