#------------------------------------------------------------------------------
# Created by    : vladimir.rabinovich
# Created on    : 09/19/2023 17:22:30
#------------------------------------------------------------------------------
~Version Information Section
VERS.           2.0     :   CWLS log ASCII Standard - VERSION 2.0
WRAP.           NO      :   One line per depth step
~Well Information Section
#MNEM       .UNIT                                         VALUE :DESCRIPTION
#------------------------------------------------------------------------------
STRT        .FT                                             328 :START DEPTH
STOP        .FT                                            8026 :STOP DEPTH
STEP        .FT                                             0.5 :STEP      
NULL        .                                           -999.25 :NULL      
COMP        .                                 MESA PETROLEUM CO :COMPANY   
WELL        .                                ST TR 00565-L NW/4 :WELL      
FLD         .                                           WILDCAT :FIELD     
LOC         .                                                   :LOCATION  
CNTY        .                      MATAGORDA ISLAND LARGE BLOCK :LOCATION  
STAT        .                                             TEXAS :STATE     
CTRY        .                                     UNITED STATES :COUNTRY   
SRVC        .                                                   :SERVICE COMPANY
DATE        .                             9/13/2023 11:12:01 AM :LOG DATE  
API         .                                    42703301780000 :API NUMBER
UWI         .                                    42703301780000 :UNIQUE WELL ID
XCOORD      .                                  585273.186473096 :SURFACE X 
YCOORD      .                                  10269188.7462706 :SURFACE Y 
LAT         .                                          28.25878 :LATITUDE  
LON         .                                       -96.2777629 :LONGITUDE 
ELEV        .FT                                              82 :ELEVATION VALUE
ELEV_TYPE   .                                                KB :ELEVATION REFERENCE TYPE
~Curve Information Section
#MNEM       .UNIT                                      API CODE :CURVE DESCRIPTION
#------------------------------------------------------------------------------
DEPT        .FT                                                 :DEPTH     
CILD        .MMHO                                               :          
DT          .US/F                                               :          
ILD         .OHMM                                               :          
SFL         .OHMM                                               :          
SP          .MV                                                 :          
SP_NORM     .MV                                                 :SP Normalized
VSH_SP      .V/V                                                :Volume of Shale from SP
~A        DEPTH           CILD             DT            ILD            SFL             SP        SP_NORM         VSH_SP
# ...
      5453.5000       366.0249       199.9604         2.9106          5.234       -21.7166       6.383163              1
      5454.0000       402.1187        196.811         2.7152         4.4245        -22.816       5.280745              1
      5454.5000       455.5054       193.8662         2.4986         3.0665       -24.4315       3.662228              1
      5455.0000       511.7124       193.2085          2.275         1.5794       -26.1139       1.976809              1
      5455.5000       568.9082       193.1157         2.0709         1.2249       -26.6568       1.430891              1
      5456.0000       609.5293       191.3516          1.864         1.2591       -26.4469       1.637772              1
      5456.5000       640.1318       188.7148         1.6887         1.3563       -26.2217       1.859953              1
      5457.0000       660.4795       187.4917         1.5598          1.479       -26.0057       2.072935              1
      5457.5000       675.0508       189.2988         1.5362         1.6409       -25.8493       2.226315              1
      5458.0000       685.8867       191.4258          1.535         1.8341       -25.7218       2.350798              1
      5458.5000       693.9395       193.3335         1.5238         1.8835       -25.6086       2.460978              1
      5459.0000       698.5176       193.1245          1.507         1.7629       -25.9015        2.16506              1
      5459.5000       696.7715          191.5          1.483         1.6915       -26.2808       1.782742              1
      5460.0000        698.791       183.7329         1.5148         1.6101       -26.8115       1.249023              1
      5460.5000       706.0361       168.4414         1.5019         1.5921       -28.8781     -0.8205948              1
      5461.0000       724.3926       100.9357          1.485         1.6083        -29.313      -1.258512      0.9949311
      5461.5000       746.5342        -999.25         1.4629         1.6247       -28.8513     -0.7998314              1
      5462.0000       763.9131       189.2349         1.4376         1.7826       -28.2614     -0.2129498              1
      5462.5000       780.2412       183.5845         1.4107         1.7457       -27.8328      0.2126312              1
      5463.0000       796.0859       162.3403         1.3777         1.6611       -28.2015     -0.1590862              1
      5463.5000       826.6631        87.8823         1.3266         1.4562       -29.4481      -1.408705       0.992569
      5464.0000       863.6973       151.3271         1.2713         1.2335       -32.6758      -4.639423      0.9338287
      5464.5000       903.1807       182.1719          1.194         1.1163       -36.9461      -8.912741       0.856132
      5465.0000       944.7422       182.6001         1.1214         1.2002       -41.2165      -13.18616      0.7784334
      5465.5000        989.124       179.4595         1.0582         1.2864       -42.2978      -14.27048      0.7587186
      5466.0000       1030.166        176.564         1.0056         1.4778        -40.432       -12.4077      0.7925873
      5466.5000       1059.703       177.8364         0.9596         1.5095        -40.861      -12.83972      0.7847325
      5467.0000        1077.85       179.3853         0.9307         1.3157       -45.0878      -17.06953      0.7078267
      5467.5000       1087.438       181.2866          0.922         1.2095       -50.8472      -22.83195      0.6030554
      5468.0000       1088.127       176.2998         0.9198         1.3441       -49.9305      -21.91827      0.6196678
      5468.5000       1088.816        171.877         0.9259         1.6885       -44.4592      -16.44999      0.7190911
      5469.0000       1090.313       172.4797         0.9367         1.5952       -37.9588       -9.95261      0.8372253
      5469.5000       1098.328       173.1501         0.9373         1.3813       -33.1796      -5.176426       0.924065
      5470.0000       1169.768       170.5854         0.9368         1.1599       -32.9676      -4.967447      0.9278646
      5470.5000       1323.049       166.8269           0.89         0.9883       -34.9132      -6.916063      0.8924352
      5471.0000       1484.148       166.0396         0.7292         0.9249       -43.9902      -15.99608       0.727344
      5471.5000       1619.225       175.9287         0.6576         0.9323       -56.6616       -28.6705      0.4969001
      5472.0000       1653.152       184.9116         0.6035         0.9888       -69.9517      -41.96362       0.255207
      5472.5000        1638.57       188.0771         0.6312         1.0221       -79.5724      -51.58734     0.08023016
      5473.0000       1617.641       189.3613         0.6683         0.9961       -81.8971      -53.91506     0.03790803
      5473.5000       1616.873       184.0103         0.6538         1.1583       -79.7944      -51.81538     0.07608407
      5474.0000       1727.184       176.0425         0.6093         2.4341       -76.2922      -48.31619      0.1397056
      5474.5000       1931.627       173.0889         0.5634         2.4608       -74.0562      -46.08321      0.1803053
      5475.0000       2161.203       179.1079         0.5026         1.5407       -76.9458      -48.97583      0.1277122
      5475.5000       2382.668       186.3032         0.4497         1.2091       -85.8258      -57.85885              0
      5476.0000       2553.066       190.8638         0.4028         1.0537       -90.1648      -62.20087              0
      5476.5000       2694.078       180.1133         0.3668         0.9401       -91.4686      -63.50768              0
      5477.0000       2775.223       180.6924         0.3433         0.8158       -91.1974      -63.23951              0
      5477.5000       2792.422        185.543         0.3531         0.6783       -88.9038      -60.94892              0
      5478.0000       2744.844       188.3779         0.3695         0.7106       -83.4562      -55.50434    0.009011979
      5478.5000       2626.789       191.1807          0.388         1.3496       -70.6151      -42.66626      0.2424317
      5479.0000       2476.082       180.9399         0.4282         2.2755       -65.6014      -37.65558      0.3335349
      5479.5000       2141.609       177.0132         0.4987         2.9638       -64.1322       -36.1894      0.3601927
      5480.0000       1714.123       178.1235         0.6108         3.1393       -63.3845      -35.44471      0.3737325
      5480.5000       1465.941       181.2671         0.7237         2.8349       -56.1877      -28.25093      0.5045285
      5481.0000        1366.49       180.5884          0.793         1.8096       -53.1171      -25.18335      0.5603027
      5481.5000       1393.555        176.894         0.7931         1.3691       -50.2187      -22.28797       0.612946
      5482.0000       1457.529       174.3552         0.7637         1.2322        -46.749      -18.82129      0.6759766
      5482.5000       1532.242       174.7837         0.7049          1.196       -41.3412      -13.41651      0.7742453
      5483.0000       1546.924       177.1021         0.6621         0.9603       -35.9583      -8.036627      0.8720613
      5483.5000       1561.111       178.3945          0.642         0.7441       -32.9457      -5.027044       0.926781
      5484.0000       1580.063       176.6865         0.6372          0.678        -32.865      -4.949364      0.9281934
      5484.5000       1610.318       173.7053         0.6349         0.6767       -37.1706       -9.25798      0.8498549
      5485.0000       1694.826        169.095         0.6434         0.8972       -44.1548       -16.2452      0.7228146
      5485.5000       1803.775       169.2039          0.618         0.8952       -48.0136      -20.10702      0.6525997
      5486.0000       1932.715       170.7681         0.5575         0.9607       -52.2416      -24.33804      0.5756721
      5486.5000       2143.391       171.0125         0.4957         1.1294       -71.6228      -43.72226      0.2232317
