#------------------------------------------------------------------------------
# Created by    : vladimir.rabinovich
# Created on    : 09/19/2023 17:20:09
#------------------------------------------------------------------------------
~Version Information Section
VERS.           2.0     :   CWLS log ASCII Standard - VERSION 2.0
WRAP.           NO      :   One line per depth step
~Well Information Section
#MNEM       .UNIT                                         VALUE :DESCRIPTION
#------------------------------------------------------------------------------
STRT        .FT                                            1853 :START DEPTH
STOP        .FT                                            6238 :STOP DEPTH
STEP        .FT                                             0.5 :STEP      
NULL        .                                           -999.25 :NULL      
COMP        .               LOUISIANA LAND & EXPLORATION CO THE :COMPANY   
WELL        .                                          SL 79258 :WELL      
FLD         .                                           WILDCAT :FIELD     
LOC         .                                                   :LOCATION  
CNTY        .                      MATAGORDA ISLAND LARGE BLOCK :LOCATION  
STAT        .                                             TEXAS :STATE     
CTRY        .                                     UNITED STATES :COUNTRY   
SRVC        .                                                   :SERVICE COMPANY
DATE        .                             9/13/2023 11:12:01 AM :LOG DATE  
API         .                                    42703301870000 :API NUMBER
UWI         .                                    42703301870000 :UNIQUE WELL ID
XCOORD      .                                  470651.272343367 :SURFACE X 
YCOORD      .                                  10209272.4173218 :SURFACE Y 
LAT         .                                        28.0852496 :LATITUDE  
LON         .                                       -96.6277134 :LONGITUDE 
ELEV        .FT                                              82 :ELEVATION VALUE
ELEV_TYPE   .                                                KB :ELEVATION REFERENCE TYPE
~Curve Information Section
#MNEM       .UNIT                                      API CODE :CURVE DESCRIPTION
#------------------------------------------------------------------------------
DEPT        .FT                                                 :DEPTH     
ASFL        .OHMM                                               :          
CILD        .MMHO                                               :          
ILD         .OHMM                                               :          
SP          .MV                                                 :          
SP_NORM     .MV                                                 :SP Normalized
VSH_SP      .V/V                                                :Volume of Shale from SP
~A        DEPTH           ASFL           CILD            ILD             SP        SP_NORM         VSH_SP
# ...
      4437.0000         0.5713       3206.625         0.3404      -106.9276      -52.23235     0.06919136
      4437.5000         0.5844        3175.32         0.3451      -106.7535      -52.06184      0.0734541
      4438.0000         0.6021       3131.066         0.3498      -106.6212      -51.93312     0.07667198
      4438.5000         0.6202       3076.125         0.3551      -107.0509      -52.36641     0.06583977
      4439.0000         0.6431       3021.133          0.366      -107.2225       -52.5416     0.06146012
      4439.5000         0.6666       2925.648         0.3768      -107.3942      -52.71688     0.05707798
      4440.0000         0.6969       2817.238         0.3877      -107.5657      -52.89196       0.052701
      4440.5000         0.7258       2694.676         0.3967      -107.7374      -53.06725     0.04831886
      4441.0000         0.7501       2581.352         0.4043      -107.9091      -53.24254     0.04393654
      4441.5000         0.7745       2480.754         0.4119      -108.1511      -53.48812     0.03779697
      4442.0000         0.8266       2395.488         0.4191      -108.5503      -53.89091     0.02772732
      4442.5000         0.8323       2410.871         0.4113      -108.9497      -54.29389      0.0176527
      4443.0000         0.8077       2471.809         0.4064      -109.3489      -54.69668    0.007583046
      4443.5000         0.7825        2542.43         0.4048      -109.7483      -55.09966              0
      4444.0000         0.7588       2638.555         0.4031      -110.0701      -55.42505              0
      4444.5000         0.7375       2760.676         0.4153      -110.3654      -55.72394              0
      4445.0000         0.7892       2741.164         0.4319      -110.4288      -55.79092              0
      4445.5000         0.8582       2663.566         0.4485      -110.4535      -55.81921              0
      4446.0000         0.8968       2569.754         0.4649      -110.4783       -55.8476              0
      4446.5000         0.9354       2450.332         0.4814      -110.7272      -56.10008              0
      4447.0000          0.988       2334.355         0.4978      -111.4299      -56.80637              0
      4447.5000         1.0437       2220.539         0.5143      -112.2565      -57.63655              0
      4448.0000         1.4292       2102.691         0.5302      -113.0831      -58.46674              0
      4448.5000         1.4956       1983.473         0.5446      -113.6986      -59.08582              0
      4449.0000         1.5339       1857.371          0.559      -114.2549      -59.64571              0
      4449.5000         1.3881       1787.391         0.5697      -114.7693       -60.1637              0
      4450.0000         1.3161       1721.439         0.5702      -115.1331      -60.53108              0
      4450.5000         1.2477        1675.27         0.5708      -113.1405      -58.54207              0
      4451.0000         1.1675        1799.48         0.5714      -110.7191      -56.12425              0
      4451.5000         1.0878       1939.883          0.572      -108.2659      -53.67464     0.03313408
      4452.0000         1.0278       2016.006         0.5688      -105.1985      -50.61082      0.1097294
      4452.5000         0.9964       2070.934          0.551      -101.5667      -46.98261      0.2004347
      4453.0000         0.9736       2063.184         0.5335      -101.9414      -47.36089      0.1909777
      4453.5000         0.9474       2075.344         0.5161      -104.1038      -49.52688       0.136828
      4454.0000         0.9175       2436.574         0.4986      -105.3872      -50.81387      0.1046534
      4454.5000         0.8884       2760.918         0.4786      -106.5658      -51.99606     0.07509861
      4455.0000         0.8662       2848.492         0.4498      -107.4386      -52.87244     0.05318909
      4455.5000          0.844       2904.762         0.4211      -107.9735      -53.41093     0.03972683
      4456.0000         0.8218       2960.984         0.3961      -108.1476      -53.58861     0.03528481
      4456.5000         0.7877       3017.203         0.3857      -108.3218       -53.7664     0.03084011
      4457.0000         0.7577       3053.422         0.3753      -108.4958      -53.94398     0.02640057
      4457.5000         0.7386       3055.559         0.3655        -108.67      -54.12177     0.02195587
      4458.0000         0.7196       3024.895         0.3562       -108.876      -54.33135     0.01671619
      4458.5000         0.7116       2981.969         0.3776      -108.5028      -53.96174     0.02595654
      4459.0000         0.7204       2867.855         0.4083      -107.9391      -53.40163     0.03995933
      4459.5000          0.747       2753.844         0.4457      -107.3754      -52.84151     0.05396233
      4460.0000         0.7761       2573.977         0.4953      -106.8114       -52.2811     0.06797256
      4460.5000         0.8052        2288.75         0.5449       -106.531      -52.00428       0.074893
      4461.0000         0.8343       2051.879         0.6038      -106.2538      -51.73067     0.08173332
      4461.5000          0.866       1899.635         0.6867      -105.9766      -51.45705     0.08857365
      4462.0000         0.8986       1774.811         0.7396      -105.6992      -51.18324     0.09541893
      4462.5000         0.9295       1662.861         0.7228      -105.4939      -50.98152       0.100462
      4463.0000         0.9499       1564.082         0.6701      -105.3124      -50.80361      0.1049098
      4463.5000         0.9705       1470.955         0.6175      -105.1309      -50.62569      0.1093577
      4464.0000         0.8903       1447.465         0.5562      -104.8628      -50.36118      0.1159705
      4464.5000         0.7442       1684.484         0.4832      -105.2346      -50.73656       0.106586
      4465.0000         0.6982       1922.043          0.425      -105.6541      -51.15965     0.09600878
      4465.5000         0.6778       2021.018         0.3865      -106.2168      -51.72593     0.08185168
      4466.0000         0.6602       2700.375         0.3637      -106.7799      -52.29262     0.06768446
      4466.5000         0.6411       2959.164         0.4114       -107.343      -52.85931     0.05351724
      4467.0000         0.6932       2899.504         0.4681      -108.0149      -53.53479     0.03663015
      4467.5000         0.7513       2752.172         0.5816      -109.1177      -54.64118    0.008970547
      4468.0000         0.8221       2605.137          0.695       -107.192      -52.71907     0.05702334
      4468.5000          0.922        2459.18           0.86      -105.3107      -50.84135      0.1039662
      4469.0000          1.041       2291.895         1.0412      -103.4553      -48.98954      0.1502616
      4469.5000          1.151       2208.547         1.2203      -101.5999      -47.13772       0.196557
      4470.0000         1.3966       2344.824         1.3638       -97.3453      -42.88671      0.3028323
      4470.5000         1.9083       1807.342         1.4273       -95.0363       -40.5813      0.3604676
      4471.0000         2.1986       1548.258          1.483       -91.4968      -37.04538      0.4488654
      4471.5000         2.2692       1204.844         1.4259       -82.7338      -28.28597      0.6678508
      4472.0000         2.2329       1030.287         1.3689       -87.4802      -33.03595      0.5491012
      4472.5000         2.1946       581.1416         1.3118       -89.8275      -35.38684      0.4903291
      4473.0000         2.0779       593.2559         1.2323       -91.5646      -37.12752       0.446812
      4473.5000         1.4602       683.6797         1.1459       -92.8177      -38.38421      0.4153947
      4474.0000         1.2731       817.3984         1.0569       -94.2189        -39.789      0.3802751
      4474.5000         1.1028         1041.1         0.9381       -95.3433      -40.91698      0.3520755
