#------------------------------------------------------------------------------
# Created by    : vladimir.rabinovich
# Created on    : 09/19/2023 17:20:09
#------------------------------------------------------------------------------
~Version Information Section
VERS.           2.0     :   CWLS log ASCII Standard - VERSION 2.0
WRAP.           NO      :   One line per depth step
~Well Information Section
#MNEM       .UNIT                                         VALUE :DESCRIPTION
#------------------------------------------------------------------------------
STRT        .FT                                            1853 :START DEPTH
STOP        .FT                                            6238 :STOP DEPTH
STEP        .FT                                             0.5 :STEP      
NULL        .                                           -999.25 :NULL      
COMP        .               LOUISIANA LAND & EXPLORATION CO THE :COMPANY   
WELL        .                                          SL 79258 :WELL      
FLD         .                                           WILDCAT :FIELD     
LOC         .                                                   :LOCATION  
CNTY        .                      MATAGORDA ISLAND LARGE BLOCK :LOCATION  
STAT        .                                             TEXAS :STATE     
CTRY        .                                     UNITED STATES :COUNTRY   
SRVC        .                                                   :SERVICE COMPANY
DATE        .                             9/13/2023 11:12:01 AM :LOG DATE  
API         .                                    42703301870000 :API NUMBER
UWI         .                                    42703301870000 :UNIQUE WELL ID
XCOORD      .                                  470651.272343367 :SURFACE X 
YCOORD      .                                  10209272.4173218 :SURFACE Y 
LAT         .                                        28.0852496 :LATITUDE  
LON         .                                       -96.6277134 :LONGITUDE 
ELEV        .FT                                              82 :ELEVATION VALUE
ELEV_TYPE   .                                                KB :ELEVATION REFERENCE TYPE
~Curve Information Section
#MNEM       .UNIT                                      API CODE :CURVE DESCRIPTION
#------------------------------------------------------------------------------
DEPT        .FT                                                 :DEPTH     
ASFL        .OHMM                                               :          
CILD        .MMHO                                               :          
ILD         .OHMM                                               :          
SP          .MV                                                 :          
SP_NORM     .MV                                                 :SP Normalized
VSH_SP      .V/V                                                :Volume of Shale from SP
~A        DEPTH           ASFL           CILD            ILD             SP        SP_NORM         VSH_SP
# ...
      6185.0000         1.2083       1110.678         0.8837       -45.7393      -5.570229      0.9153661
      6185.5000         1.2392       1038.049         0.8931        -44.593      -4.433792      0.9364113
      6186.0000         1.2701         954.96          0.907       -43.9284      -3.779057       0.948536
      6186.5000         1.2994       923.2617         0.9212       -43.2645      -3.125027      0.9606476
      6187.0000         1.3225       891.9072         0.9355       -42.6359       -2.50629      0.9721057
      6187.5000         1.3394       860.5527         0.9497       -42.1274      -2.007656      0.9813397
      6188.0000         1.2839       833.4453          0.964       -41.6573      -1.547421      0.9898626
      6188.5000         1.2551       830.1309         0.9705       -42.0763      -1.976288      0.9819206
      6189.0000         1.2351       860.7002          0.973       -42.4956      -2.405457       0.973973
      6189.5000         1.2151       887.5371         0.9756       -43.0775      -2.997219      0.9630145
      6190.0000         1.1929       914.3984         0.9781       -50.8933      -10.82288      0.8180947
      6190.5000         1.1704       941.2344         0.9806       -47.9008      -7.840248      0.8733287
      6191.0000         1.1444       964.4746         0.9831       -46.0626      -6.011917      0.9071867
      6191.5000         1.1526       979.1699         0.9852       -44.9874      -4.946583      0.9269151
      6192.0000         1.1608       993.8652         0.9807       -44.4282      -4.397247       0.937088
      6192.5000         1.1655       1008.548         0.9762       -43.9216      -3.900513      0.9462868
      6193.0000         1.1518       1023.243         0.9717        -43.415      -3.403782      0.9554855
      6193.5000         1.1381        1036.01         0.9671       -43.2534      -3.252045      0.9582955
      6194.0000         1.1245       1048.018         0.9626       -43.7321      -3.740612      0.9492479
      6194.5000         1.1117       1060.023         0.9581       -44.2114      -4.229774      0.9401894
      6195.0000         1.0991       1071.453         0.9535       -44.6669      -4.695141      0.9315715
      6195.5000         1.0863       1082.184         0.9486       -44.9528       -4.99091      0.9260943
      6196.0000         1.0733       1092.912         0.9433       -44.4276      -4.475574      0.9356375
      6196.5000         1.0755       1103.643          0.938       -43.7264      -3.784237      0.9484401
      6197.0000         1.0815       1105.539         0.9327       -43.6432      -3.710903      0.9497981
      6197.5000         1.0875       1105.484         0.9274       -43.6245      -3.702072      0.9499616
      6198.0000         1.0935        1091.01         0.9323       -43.6918      -3.779236      0.9485326
      6198.5000         1.1029       1069.844         0.9496       -42.9238      -3.021103      0.9625722
      6199.0000         1.1127        1048.68          0.967       -41.8351      -1.942265      0.9825507
      6199.5000         1.1226       1028.645         0.9804       -41.5715      -1.688534      0.9872494
      6200.0000         1.1324       1017.816         0.9922        -41.308      -1.434898      0.9919463
      6200.5000         1.1423       1006.977         1.0041       -41.1261      -1.262863      0.9951321
      6201.0000         1.1564       996.1357         1.0159       -41.1516      -1.298229      0.9944772
      6201.5000         1.1742       985.3076         1.0278       -41.1772      -1.333694      0.9938205
      6202.0000          1.192       976.7393         1.0354       -41.2028      -1.369164      0.9931636
      6202.5000         1.2167       970.0234         1.0411       -41.2932      -1.469429      0.9913068
      6203.0000          1.254       963.3086         1.0467       -40.7054     -0.8914909              1
      6203.5000         1.2985       956.5928         1.0524       -40.1183     -0.3142586              1
      6204.0000         1.3136       951.0732          1.058       -39.6074      0.1867752              1
      6204.5000            1.3        949.792         1.0613       -39.3519      0.4324112              1
      6205.0000         1.2865       948.5098          1.063       -39.0964      0.6780434              1
      6205.5000          1.273       947.2275         1.0646       -38.8409      0.9236794              1
      6206.0000         1.2587       945.9463         1.0663        -38.727       1.027714              1
      6206.5000          1.244       950.7246         1.0679       -38.6127       1.132145              1
      6207.0000         1.2312       956.0225         1.0695       -38.4985       1.236481              1
      6207.5000         1.2301       961.3135         1.0677       -38.5567       1.168415              1
      6208.0000          1.229       966.6104         1.0653       -38.7332      0.9820518              1
      6208.5000         1.2213       972.1846          1.063       -38.9099      0.7954826              1
      6209.0000          1.207       982.7793           1.04        -39.076      0.6195183              1
      6209.5000         1.1916       993.3857         1.0129       -39.2361      0.4495544              1
      6210.0000         1.1762       1003.981         0.9914       -39.3962      0.2795906              1
      6210.5000         1.1545       1014.575          0.971       -39.6247     0.04122162              1
      6211.0000         1.1281       1025.182         0.9507       -39.8625     -0.2064438              1
      6211.5000         1.0865       1034.391         0.9366       -40.3605     -0.7143097              1
      6212.0000         1.0943       1043.277         0.9316         -41.09      -1.453674      0.9915986
      6212.5000         1.1063       1052.154         0.9285       -41.1207       -1.49424      0.9908474
      6213.0000         1.1212       1059.992         0.9342        -40.724      -1.107407       0.998011
      6213.5000         1.1367       1062.807           0.94       -40.3273     -0.7205734              1
      6214.0000         1.1521       1065.621         0.9457       -39.9304     -0.3335381              1
      6214.5000         1.1472       1068.434         0.9515         -39.52     0.06699753              1
      6215.0000         1.1271       1067.523         0.9572       -39.0983      0.4788284              1
      6215.5000         1.1069       1062.971         0.9657        -38.723       0.844265              1
      6216.0000         1.0774       1058.416         0.9774       -38.4554       1.102001              1
      6216.5000         1.0839       1053.867         0.9889       -38.4684       1.079136              1
      6217.0000         1.1338       1049.313         1.0005       -38.6119      0.9257698              1
      6217.5000         1.1761       1044.764         1.0121       -38.7555      0.7723007              1
      6218.0000         1.2911       1038.373         1.0145       -38.8989      0.6220589              1
      6218.5000         1.3471       1031.375         1.0166       -39.0424      0.4785576              1
      6219.0000         1.3801       1024.371         1.0187       -39.1146      0.4063568              1
      6219.5000         1.4168       1017.375         1.0208       -39.0583      0.4626579              1
      6220.0000         1.3326       1002.029          1.023        -39.002       0.518959              1
      6220.5000         1.2879       985.0137         1.0251       -38.9457      0.5752563              1
      6221.0000         1.2692       968.0225         1.0259       -39.3553       0.165657              1
      6221.5000         1.2228       951.0068         1.0262       -39.7833     -0.2623405              1
      6222.0000         1.1804       938.4727         1.0255       -40.3679     -0.8469429              1
      6222.5000         1.2743       931.5117         1.0214       -39.9567     -0.4357414              1
