#------------------------------------------------------------------------------
# Created by    : vladimir.rabinovich
# Created on    : 09/19/2023 17:20:49
#------------------------------------------------------------------------------
~Version Information Section
VERS.           2.0     :   CWLS log ASCII Standard - VERSION 2.0
WRAP.           NO      :   One line per depth step
~Well Information Section
#MNEM       .UNIT                                         VALUE :DESCRIPTION
#------------------------------------------------------------------------------
STRT        .FT                                             556 :START DEPTH
STOP        .FT                                            7001 :STOP DEPTH
STEP        .FT                                             0.5 :STEP      
NULL        .                                           -999.25 :NULL      
COMP        .                          HUMBLE OIL & REFINING CO :COMPANY   
WELL        .                                     ST TR 00598-L :WELL      
FLD         .                                           WILDCAT :FIELD     
LOC         .                                                   :LOCATION  
CNTY        .                      MATAGORDA ISLAND LARGE BLOCK :LOCATION  
STAT        .                                             TEXAS :STATE     
CTRY        .                                     UNITED STATES :COUNTRY   
SRVC        .                                                   :SERVICE COMPANY
DATE        .                             9/13/2023 11:12:05 AM :LOG DATE  
API         .                                    42703000080000 :API NUMBER
UWI         .                                    42703000080000 :UNIQUE WELL ID
XCOORD      .                                  502144.869554487 :SURFACE X 
YCOORD      .                                  10234432.9570627 :SURFACE Y 
LAT         .                                        28.1568958 :LATITUDE  
LON         .                                       -96.5324651 :LONGITUDE 
ELEV        .FT                                              15 :ELEVATION VALUE
ELEV_TYPE   .                                                KB :ELEVATION REFERENCE TYPE
~Curve Information Section
#MNEM       .UNIT                                      API CODE :CURVE DESCRIPTION
#------------------------------------------------------------------------------
DEPT        .FT                                                 :DEPTH     
ASN         .OHMM                                               :          
CALI        .IN                                                 :          
CILD        .MMHO                                               :          
DT          .US/F                                               :          
ILD         .OHMM                                               :          
SP          .MV                                                 :          
SP_NORM     .MV                                                 :SP Normalized
VSH_SP      .V/V                                                :Volume of Shale from SP
~A        DEPTH            ASN           CALI           CILD             DT            ILD             SP        SP_NORM         VSH_SP
# ...
      6957.5000         0.9527        10.8504       1194.035        121.936          0.835       -41.0333        -3.2974      0.9382191
      6958.0000         0.9554        10.4295       1209.311       124.2292         0.8595       -40.9872        -3.2514      0.9404095
      6958.5000         0.9581         10.273       1178.107       123.5452          0.884       -40.9412        -3.2053      0.9426048
      6959.0000         0.9608        10.2254       1131.123        123.901         0.9178       -40.8965        -3.1606      0.9447333
      6959.5000         0.9794        10.1329       1087.086       122.9535         0.9598       -40.8807        -3.1448      0.9454857
      6960.0000         1.0005        10.2285       1043.051       120.8107         1.0019       -40.8649         -3.129      0.9462381
      6960.5000         1.0216        10.2178       1003.003       119.9325         1.0439       -40.8491        -3.1132      0.9469905
      6961.0000         1.0494         9.7465       984.0303       110.2429         1.0859       -40.8333        -3.0975      0.9477381
      6961.5000         1.0892         9.3616       965.0342       102.5831         1.0784       -40.8174        -3.0816      0.9484953
      6962.0000         1.1251         9.3156       953.9404         98.149          1.057       -40.8016        -3.0658      0.9492476
      6962.5000         1.1098         9.6746       970.2305         97.088         1.0356       -40.7858        -3.0499      0.9500048
      6963.0000         1.0946        11.0206       986.5195        105.719         1.0141        -40.809        -3.0731         0.9489
      6963.5000         1.0793        11.9097        1002.81       117.2299         0.9782       -40.8321        -3.0962         0.9478
      6964.0000         1.0641        11.9296       1019.124       119.6504         0.9378       -40.8552        -3.1194      0.9466952
      6964.5000         1.0495         11.679        1062.24       127.2677         0.8974       -40.8784        -3.1425      0.9455953
      6965.0000         1.0352        11.6206        1113.77       122.6464         0.8569       -40.9016        -3.1657      0.9444905
      6965.5000          1.021        11.3983       1149.299       121.6864         0.8463       -40.9494        -3.2136      0.9422095
      6966.0000         1.0072        11.3569       1134.531       126.7706         0.8622       -41.0046        -3.2687      0.9395857
      6966.5000         0.9938        11.3761       1101.443       126.8695         0.8781       -41.0598        -3.3239      0.9369571
      6967.0000         0.9995        10.0591       1059.342       128.0054         0.8941       -41.1149         -3.379      0.9343333
      6967.5000         1.0067         9.6086        1017.19       126.0168           0.91         -41.17        -3.4341      0.9317095
      6968.0000          1.014        10.2078       975.2812       119.8601         0.9461       -41.3073        -3.5714      0.9251714
      6968.5000         1.0345        10.8571       938.1094       116.0726         0.9889       -41.4707        -3.7348      0.9173905
      6969.0000         1.0657        10.9374       900.9375       115.4685         1.0318       -41.6341        -3.8983      0.9096048
      6969.5000         1.0969        10.4635       863.7656       114.0641         1.0747       -41.7975        -4.0616      0.9018286
      6970.0000         1.1281        10.1614       826.5938       113.2064         1.1175       -41.9609         -4.225      0.8940476
      6970.5000         1.1419         10.054       791.7422       117.6505         1.1596       -42.0842        -4.3484      0.8881714
      6971.0000         1.1536         10.063       772.4551        112.395         1.1567       -42.2059          -4.47       0.882381
      6971.5000         1.1471         9.8739       796.7451       107.7063         1.1537       -42.3275        -4.5916      0.8765905
      6972.0000         1.1391        10.9527       821.0586       107.8011         1.1508       -42.4493        -4.7134      0.8707905
      6972.5000         1.1311        12.7691       845.3486       116.3698         1.1479       -42.5709         -4.835          0.865
      6973.0000         1.1231        12.7386       869.6631       119.6404         1.1449       -42.6677        -4.9319      0.8603857
      6973.5000         1.1151        12.0831       893.9766       131.2048         1.1383       -42.6362        -4.9003      0.8618905
      6974.0000         1.0992        12.5719       918.2666       129.5029         1.1179       -42.6047        -4.8688      0.8633904
      6974.5000         1.0822        13.2349       934.1582       122.8336         1.0977       -42.5733        -4.8374      0.8648857
      6975.0000         1.0653        12.1709       942.2061       122.2526         1.0774       -42.5418         -4.806      0.8663809
      6975.5000         1.0486        11.0915       950.2549       122.3468         1.0571       -42.5012        -4.7654      0.8683143
      6976.0000          1.034        10.7807       958.3145       111.4813         1.0378       -42.4415        -4.7057      0.8711572
      6976.5000         1.0289        10.8367       962.7559        110.349         1.0224        -42.382        -4.6461      0.8739952
      6977.0000         1.0237        11.0528       958.5928       111.5712         1.0071       -42.3304        -4.5945      0.8764524
      6977.5000         1.0185        11.3711       954.4297       121.6976         0.9917       -42.3516        -4.6157      0.8754429
      6978.0000         1.0133        11.3925       963.1006       121.2383         0.9764       -42.3727        -4.6368      0.8744381
      6978.5000         1.0013         11.355       999.3057       123.3904         0.9699        -42.394        -4.6581      0.8734238
      6979.0000         0.9775        11.7126       1035.559       125.4926         0.9696       -42.4471        -4.7113      0.8708905
      6979.5000         0.9536         12.795       1027.631       136.5952         0.9693       -42.5829         -4.847      0.8644286
      6980.0000         0.9276        13.7029       984.9004       138.1738         0.9849       -42.7188        -4.9829      0.8579571
      6980.5000         0.9243        14.3204       940.8652       131.3257         1.0254       -42.9363        -5.2004         0.8476
      6981.0000         0.9329        14.6126       896.8291       154.9087          1.066       -43.1921        -5.4562      0.8354191
      6981.5000         0.9416        14.5033       873.6748        139.115         1.1065       -43.5772        -5.8414      0.8170762
      6982.0000         0.9489        14.2355       855.6211       125.1842          1.146       -44.0187        -6.2828      0.7960571
      6982.5000         0.9445        13.3375       837.7109       132.3044         1.1545       -44.4428        -6.7069      0.7758619
      6983.0000         0.9402        12.9858       822.5088       132.6689         1.1631       -44.7482        -7.0123       0.761319
      6983.5000         0.9358        13.4214       807.3066       150.1592         1.1716       -45.0536        -7.3177      0.7467762
      6984.0000         0.9296        14.5385       799.1855       143.2493         1.1802       -45.3593        -7.6234       0.732219
      6984.5000         0.9231         14.761       806.8838       122.7975         1.1633       -45.6558        -7.9199         0.7181
      6985.0000         0.9266        14.7682       872.8535       149.9209         1.1326       -45.9089         -8.173      0.7060476
      6985.5000         0.9414        14.7766       963.6318       165.4768         1.1019       -46.1616        -8.4257      0.6940143
      6986.0000         0.9561        14.7861       964.5508       171.7781         1.0713       -46.4143        -8.6784       0.681981
      6986.5000          0.969        14.7883       924.9619       166.2356         1.0406        -46.667        -8.9311      0.6699476
