#------------------------------------------------------------------------------
# Created by    : vladimir.rabinovich
# Created on    : 09/19/2023 17:20:46
#------------------------------------------------------------------------------
~Version Information Section
VERS.           2.0     :   CWLS log ASCII Standard - VERSION 2.0
WRAP.           NO      :   One line per depth step
~Well Information Section
#MNEM       .UNIT                                         VALUE :DESCRIPTION
#------------------------------------------------------------------------------
STRT        .FT                                            1000 :START DEPTH
STOP        .FT                                            6719 :STOP DEPTH
STEP        .FT                                             0.5 :STEP      
NULL        .                                           -999.25 :NULL      
COMP        .                                 CALIFORNIA CO THE :COMPANY   
WELL        .                                     ST TR 00695-L :WELL      
FLD         .                                           WILDCAT :FIELD     
LOC         .                                                   :LOCATION  
CNTY        .                      MATAGORDA ISLAND LARGE BLOCK :LOCATION  
STAT        .                                             TEXAS :STATE     
CTRY        .                                     UNITED STATES :COUNTRY   
SRVC        .                                                   :SERVICE COMPANY
DATE        .                             9/13/2023 11:12:01 AM :LOG DATE  
API         .                                    42703000270000 :API NUMBER
UWI         .                                    42703000270000 :UNIQUE WELL ID
XCOORD      .                                   404842.11633791 :SURFACE X 
YCOORD      .                                  10151340.1845366 :SURFACE Y 
LAT         .                                        27.9206537 :LATITUDE  
LON         .                                       -96.8258101 :LONGITUDE 
ELEV        .FT                                              11 :ELEVATION VALUE
ELEV_TYPE   .                                                KB :ELEVATION REFERENCE TYPE
~Curve Information Section
#MNEM       .UNIT                                      API CODE :CURVE DESCRIPTION
#------------------------------------------------------------------------------
DEPT        .FT                                                 :DEPTH     
ASN         .OHMM                                               :          
CILD        .MMHO                                               :          
ILD         .OHMM                                               :          
SP          .MV                                                 :          
SP_NORM     .MV                                                 :SP Normalized
VSH_SP      .V/V                                                :Volume of Shale from SP
~A        DEPTH            ASN           CILD            ILD             SP        SP_NORM         VSH_SP
# ...
      5940.0000         0.7654       1864.557         0.2837      -120.8711       -77.3893     0.03347054
      5940.5000         0.7753       1869.873         0.3248       -118.123       -74.6368     0.06875894
      5941.0000         0.7869       1875.188          0.366       -115.373       -71.8825      0.1040705
      5941.5000         0.7985       1869.973         0.4333       -112.625       -69.1301      0.1393577
      5942.0000         0.8063       1820.406         0.5025       -109.877       -66.3778      0.1746436
      5942.5000         0.8032       1770.893         0.5717      -107.1289       -63.6253       0.209932
      5943.0000         0.8174       1721.326         0.6916      -104.8097       -61.3018      0.2397205
      5943.5000         0.8815       1640.715         0.8206      -104.0055       -60.4932      0.2500872
      5944.0000          0.954       1549.672         0.9301      -103.2014       -59.6848      0.2604513
      5944.5000         1.4242       1458.527         0.9971      -102.4838       -58.9628      0.2697077
      5945.0000          1.655       1226.127         1.0181      -101.8358       -58.3105      0.2780705
      5945.5000         1.8408       888.7061         1.0218       -97.6923       -54.1626      0.3312487
      5946.0000         1.9442       720.6436         0.9758       -90.3751       -46.8411      0.4251141
      5946.5000         1.9886       664.6895         0.9047       -87.9253       -44.3869      0.4565782
      5947.0000         1.9328       623.7285         0.8216       -86.6007        -43.058      0.4736154
      5947.5000         1.9032        626.502         0.8031       -89.7004       -46.1533       0.433932
      5948.0000         1.9408       629.2725         0.7846          -92.8       -49.2486      0.3942487
      5948.5000         1.9768       637.8359         0.7661       -95.8998        -52.344      0.3545641
      5949.0000         1.9278       700.7285         0.7399       -99.1687       -55.6086      0.3127103
      5949.5000         1.8631       780.5908         0.7089       -102.485       -58.9205        0.27025
      5950.0000         1.7873           1505         0.6586      -105.8013       -62.2325      0.2277885
      5950.5000         1.7115       2238.621         0.5513      -109.1176       -65.5444      0.1853282
      5951.0000         1.5332       2608.387         0.4442      -111.3856       -67.8081      0.1563064
      5951.5000         1.3873       2759.727         0.3856      -113.4072       -69.8253      0.1304448
      5952.0000         1.2616       2875.926         0.3402      -115.4314       -71.8452      0.1045487
      5952.5000         1.0997       3006.301         0.3552       -117.458       -73.8674     0.07862306
      5953.0000         1.0257       3152.852         0.3823      -119.3762       -75.7813     0.05408585
      5953.5000         0.9613       3306.188         0.4132      -120.6338       -77.0345     0.03801923
      5954.0000         0.9274       3025.668         0.4449      -121.8612       -78.2576     0.02233848
      5954.5000         0.9195       2412.023         0.4766      -123.0889        -79.481     0.00665381
      5955.0000         1.1874       2326.668         0.5083       -123.334       -79.7217    0.003567916
      5955.5000         1.4051       2241.414         0.5291      -121.1074       -77.4908     0.03216925
      5956.0000         1.4697       2179.172         0.5312      -118.8809       -75.2599     0.06077047
      5956.5000         1.5291        2122.27         0.5333      -116.8206       -73.1953     0.08723978
      5957.0000          1.429        2046.15         0.5293      -115.1836       -71.5539      0.1082833
      5957.5000         1.2185       1991.869         0.5153      -109.3528       -65.7188      0.1830923
      5958.0000          1.097       1881.803         0.5093      -108.7639       -65.1255      0.1906987
      5958.5000         0.9937       1908.256         0.5088      -109.3379       -65.6952      0.1833949
      5959.0000         0.9396       1979.334         0.5082      -109.6235       -65.9764      0.1797897
      5959.5000         0.9047       1994.584         0.5077      -109.6328       -65.9814      0.1797256
      5960.0000         0.9032       1979.783          0.532      -105.1813       -61.5255      0.2368525
      5960.5000         0.9017       1950.084         0.5622      -100.1372       -56.4771      0.3015756
      5961.0000         0.9001       1878.807         0.6188       -94.7943       -51.1298      0.3701308
      5961.5000         0.9202       1640.914         0.6755       -88.2017       -44.5329      0.4547064
      5962.0000          0.936       1583.813         0.7323       -84.8157       -41.1425      0.4981731
      5962.5000         0.9503       1532.152         0.7718       -86.7029       -43.0254      0.4740334
      5963.0000         0.9647       1498.734          0.795       -89.2473       -45.5654      0.4414693
      5963.5000          0.979       1465.666         0.8182       -93.1063       -49.4201        0.39205
      5964.0000         0.9668       2038.326         0.8414       -96.5944       -52.9038      0.3473872
      5964.5000         0.8798       2201.285         0.7994       -93.2706       -49.5757      0.3900551
      5965.0000         0.8482       2401.738         0.6896       -78.2727       -34.5734      0.5823923
      5965.5000         0.8348       2565.258         0.5614       -74.8083       -31.1047      0.6268628
      5966.0000         0.8213       2726.582         0.4395        -72.661        -28.953      0.6544487
      5966.5000         0.8078       2854.164         0.3643       -69.1107       -25.3984      0.7000205
      5967.0000         0.7973       3124.801         0.3253       -71.7198       -28.0031      0.6666269
      5967.5000         0.7882        2465.75         0.3511        -75.325        -31.604      0.6204615
      5968.0000         0.8084        2244.25         0.3924       -78.9351       -35.2097      0.5742346
      5968.5000         0.9101        2022.75         0.4469         -82.54       -38.8103      0.5280731
      5969.0000         1.1591        1801.25         0.5013       -98.3695       -54.6354      0.3251872
      5969.5000         1.3728       1681.545         0.5557      -103.4646       -59.7262      0.2599205
      5970.0000         1.3925       1587.707         0.6087       -104.793       -61.0502      0.2429461
      5970.5000         1.3529       1493.867         0.6325      -103.2344       -59.4873      0.2629833
      5971.0000         1.3132       1400.926         0.6563      -100.7571       -57.0057      0.2947987
      5971.5000         1.2739       1318.668         0.6801       -98.2898        -54.534      0.3264872
      5972.0000         1.2579       1321.088          0.704        -96.262       -52.5019      0.3525397
      5972.5000         1.2419       1351.811         0.7278       -95.6035        -51.839      0.3610384
      5973.0000         1.2347       1378.266         0.7136       -95.5077       -51.7389      0.3623218
      5973.5000         1.2696       1407.814          0.691       -95.3607       -51.5875      0.3642628
      5974.0000         1.3657       1442.205         0.6799       -94.4918       -50.7143      0.3754577
      5974.5000         1.4172       1457.592         0.6689       -93.6223       -49.8404      0.3866615
      5975.0000         1.4469       1466.428         0.6578       -92.9246       -49.1384      0.3956615
      5975.5000         1.4734       1481.488         0.6468       -92.9208       -49.1302      0.3957667
      5976.0000         1.4952        1512.26         0.6609       -93.8594       -50.0645      0.3837885
      5976.5000         1.5035       1525.775         0.7024       -94.8914       -51.0921      0.3706141
      5977.0000           1.51       1539.289         0.7439        -96.191       -52.3874      0.3540077
      5977.5000          1.523       1523.666         0.7923       -97.4919       -53.6839      0.3373859
