#------------------------------------------------------------------------------
# Created by    : vladimir.rabinovich
# Created on    : 09/19/2023 17:19:49
#------------------------------------------------------------------------------
~Version Information Section
VERS.           2.0     :   CWLS log ASCII Standard - VERSION 2.0
WRAP.           NO      :   One line per depth step
~Well Information Section
#MNEM       .UNIT                                         VALUE :DESCRIPTION
#------------------------------------------------------------------------------
STRT        .FT                                            1295 :START DEPTH
STOP        .FT                                            4592 :STOP DEPTH
STEP        .FT                                             0.5 :STEP      
NULL        .                                           -999.25 :NULL      
COMP        .                     FREEPORT-MCMORAN OIL & GAS CO :COMPANY   
WELL        .                                     ST TR 00662-L :WELL      
FLD         .                                         SIX-SIXTY :FIELD     
LOC         .                                                   :LOCATION  
CNTY        .                      MATAGORDA ISLAND LARGE BLOCK :LOCATION  
STAT        .                                             TEXAS :STATE     
CTRY        .                                     UNITED STATES :COUNTRY   
SRVC        .                                                   :SERVICE COMPANY
DATE        .                             9/13/2023 11:19:13 AM :LOG DATE  
API         .                                    42703300650000 :API NUMBER
UWI         .                                    42703300650000 :UNIQUE WELL ID
XCOORD      .                                  434889.841251994 :SURFACE X 
YCOORD      .                                  10179416.4588751 :SURFACE Y 
LAT         .                                        28.0002971 :LATITUDE  
LON         .                                       -96.7355909 :LONGITUDE 
ELEV        .FT                                              77 :ELEVATION VALUE
ELEV_TYPE   .                                                KB :ELEVATION REFERENCE TYPE
~Curve Information Section
#MNEM       .UNIT                                      API CODE :CURVE DESCRIPTION
#------------------------------------------------------------------------------
DEPT        .FT                                                 :DEPTH     
ASFL        .OHMM                                               :          
CILD        .MMHO                                               :          
ILD         .OHMM                                               :          
SFL         .OHMM                                               :          
SP          .MV                                                 :          
SP_NORM     .MV                                                 :SP Normalized
VSH_SP      .V/V                                                :Volume of Shale from SP
~A        DEPTH           ASFL           CILD            ILD            SFL             SP        SP_NORM         VSH_SP
# ...
      3238.0000         1.1088        2178.25         0.4736         1.1209       -66.7784       -42.1311     0.06520228
      3238.5000         1.1783       2196.762         0.4692         1.1557       -67.1244      -42.45578     0.05782327
      3239.0000          1.237       2179.809         0.4648         1.1905       -67.4767      -42.78676     0.05030094
      3239.5000         1.2783       2162.859         0.4604         1.2253       -67.1569      -42.44563      0.0580538
      3240.0000         1.3032       2145.906         0.4561         1.2132       -65.8213      -41.08871     0.08889303
      3240.5000         1.1546       2127.035         0.4517         1.1575       -64.7739      -40.01999      0.1131821
      3241.0000         1.1123       2101.125         0.4473         1.1037        -64.865      -40.08976      0.1115963
      3241.5000         1.0737       2063.148         0.4504           1.05       -64.3458      -39.54924      0.1238808
      3242.0000         1.0319       2054.203         0.4544         0.9986       -62.8005      -37.98262      0.1594859
      3242.5000         1.0108       2084.137         0.4584         0.9527       -61.2701      -36.43089      0.1947524
      3243.0000         0.9896       2130.266         0.4624         0.9581        -59.736      -34.87547      0.2301029
      3243.5000         0.9618        2124.25         0.4664         0.9981       -58.3752      -33.49335      0.2615148
      3244.0000         0.9956       2090.398         0.4705         1.0381       -55.6671      -30.76393      0.3235472
      3244.5000         1.0579       2056.566         0.4749         1.0829       -51.8179      -26.89341      0.4115135
      3245.0000         1.2004       2019.348         0.4794         1.1322       -51.1937      -26.24788      0.4261846
      3245.5000         1.2737       1976.287         0.4838         1.1814       -56.9625      -31.99536        0.29556
      3246.0000         1.3199       1933.709         0.4862         1.2307       -59.3091      -34.32064      0.2427128
      3246.5000         1.3743       1901.637         0.4885         1.2788       -60.8704      -35.86061      0.2077134
      3247.0000         1.3519       1871.234         0.4908         1.3003       -62.1991      -37.16799      0.1780002
      3247.5000         1.3051       1853.664         0.4985         1.2655       -61.2485      -36.19607      0.2000894
      3248.0000         1.2439       1836.092         0.5135         1.2307       -58.7737      -33.69994      0.2568195
      3248.5000          1.156       1816.691         0.5286          1.188       -54.6777      -29.58262       0.350395
      3249.0000         1.0633       1743.389         0.5436         1.1229       -50.0882       -24.9718      0.4551865
      3249.5000         0.9499       1658.307         0.5524         1.0578       -45.2372      -20.09948       0.565921
      3250.0000         0.9141       1589.188         0.5611         0.9963       -28.8484      -3.689352      0.9388784
      3250.5000         0.8827       1529.793         0.5697         0.9372       -23.7253       1.455072              1
      3251.0000         0.8541       1470.523         0.5887         0.8781       -22.8833       2.318394              1
      3251.5000         0.8304       1422.785          0.612         0.8448       -22.1899       3.033117              1
      3252.0000         0.8107       1387.605         0.6354          0.814       -21.4962        3.74814              1
      3252.5000         0.7968       1365.074         0.6571         0.7917       -20.6027       4.662964              1
      3253.0000         0.7877       1342.529         0.6778         0.7694       -19.7188       5.568188              1
      3253.5000         0.7821       1344.299         0.6985         0.7518       -18.9298        6.37851              1
      3254.0000         0.7765       1372.844         0.7096          0.736        -18.031       7.298632              1
      3254.5000         0.7694       1405.363         0.7151         0.7215       -17.0206       8.330357              1
      3255.0000         0.7773       1437.881         0.7137         0.7113       -17.2605       8.111778              1
      3255.5000         0.7953       1421.189         0.7122         0.7922         -25.69     -0.2964001              1
      3256.0000         0.8708       1399.436         0.7244         0.9444       -33.8425      -8.427574      0.8311915
      3256.5000         1.0936       1363.242         0.7378          1.173       -37.4153      -11.97905      0.7504761
      3257.0000         1.2966       1323.523         0.7529         1.2901       -44.1836      -18.72603      0.5971357
      3257.5000         1.6753       1292.861         0.7736          1.487       -52.3444      -26.86551      0.4121476
      3258.0000          1.833       1262.186         0.7944         1.7447       -50.6927      -25.19248      0.4501708
      3258.5000         1.9021       1243.477         0.8091         1.9466       -48.7114      -23.18986       0.495685
      3259.0000         1.9638        1225.77         0.8125         1.9751       -46.8213      -21.27844      0.5391264
      3259.5000         1.9864       1204.611         0.8159         1.8691       -44.8375      -19.27332      0.5846974
      3260.0000         2.0069       1257.744         0.8193         1.7142       -42.7377      -17.15219      0.6329047
      3260.5000         1.8036       1303.898         0.8029         1.5451       -44.1022      -18.49537       0.602378
      3261.0000         1.0664       1344.311         0.7782         1.1505       -44.4229      -18.79475       0.595574
      3261.5000         1.0247       1380.219         0.7535         0.9862       -38.9871      -13.33762      0.7195995
      3262.0000         0.9923       1406.725         0.7288         0.9005       -30.4892      -4.818401      0.9132181
      3262.5000         0.9628       1431.496         0.7026         0.8705       -26.7393      -1.047176      0.9989278
      3263.0000         0.9285       1399.201         0.7015         0.8419       -25.3501      0.3633461              1
      3263.5000         0.8953       1362.029          0.723         0.8214       -25.7535    -0.01873016              1
      3264.0000         0.8727       1324.266         0.7479         0.7962       -26.6122     -0.8561077              1
      3264.5000         0.8583       1281.229         0.7595         0.7682       -27.5221      -1.744686      0.9830753
      3265.0000         0.8448       1295.211         0.7342         0.7463       -28.6152      -2.816462      0.9587168
      3265.5000         0.8209       1337.629         0.6993         0.7305       -31.4861      -5.666039      0.8939537
      3266.0000         0.8038       1585.352         0.6644         0.7151       -35.1453      -9.303919      0.8112746
      3266.5000         0.7851       1640.711          0.633          0.719       -39.9174      -14.05469      0.7033024
      3267.0000         0.7679       1691.641         0.6036         0.7229       -46.0095      -20.12547      0.5653303
      3267.5000         0.7849       1745.047         0.5742         0.7454        -50.631      -24.72565      0.4607807
      3268.0000         0.8493       1750.342          0.561         0.7699       -52.0779      -26.15122      0.4283813
      3268.5000         0.9618         1727.5         0.5485         0.8622       -51.3615       -25.4135      0.4451477
      3269.0000         1.2235       1702.061          0.536         1.0022       -54.9244      -28.95508      0.3646573
      3269.5000          1.318       1658.332         0.5474         1.2473       -61.8296      -35.83896      0.2082055
      3270.0000         1.4213       1597.131         0.5819          1.523       -66.9805      -40.96853     0.09162426
      3270.5000         1.6479       1503.832         0.6163         1.6764       -68.3579      -42.32461     0.06080428
      3271.0000         1.7421       1420.781         0.6527         1.7812       -70.9703      -44.91569    0.001916192
