#------------------------------------------------------------------------------
# Created by    : vladimir.rabinovich
# Created on    : 09/19/2023 17:20:46
#------------------------------------------------------------------------------
~Version Information Section
VERS.           2.0     :   CWLS log ASCII Standard - VERSION 2.0
WRAP.           NO      :   One line per depth step
~Well Information Section
#MNEM       .UNIT                                         VALUE :DESCRIPTION
#------------------------------------------------------------------------------
STRT        .FT                                            1957 :START DEPTH
STOP        .FT                                            6608 :STOP DEPTH
STEP        .FT                                             0.5 :STEP      
NULL        .                                           -999.25 :NULL      
COMP        .                            HIGHLAND RESOURCES INC :COMPANY   
WELL        .                                     ST TR 00691-L :WELL      
FLD         .                                           WILDCAT :FIELD     
LOC         .                                                   :LOCATION  
CNTY        .                      MATAGORDA ISLAND LARGE BLOCK :LOCATION  
STAT        .                                             TEXAS :STATE     
CTRY        .                                     UNITED STATES :COUNTRY   
SRVC        .                                                   :SERVICE COMPANY
DATE        .                             9/13/2023 11:12:01 AM :LOG DATE  
API         .                                    42703000470000 :API NUMBER
UWI         .                                    42703000470000 :UNIQUE WELL ID
XCOORD      .                                  404407.912506245 :SURFACE X 
YCOORD      .                                  10154689.9311845 :SURFACE Y 
LAT         .                                        27.9298131 :LATITUDE  
LON         .                                       -96.8274765 :LONGITUDE 
ELEV        .FT                                              63 :ELEVATION VALUE
ELEV_TYPE   .                                                KB :ELEVATION REFERENCE TYPE
~Curve Information Section
#MNEM       .UNIT                                      API CODE :CURVE DESCRIPTION
#------------------------------------------------------------------------------
DEPT        .FT                                                 :DEPTH     
ASN         .OHMM                                               :          
CILD        .MMHO                                               :          
ILD         .OHMM                                               :          
SP          .MV                                                 :          
SP_NORM     .MV                                                 :SP Normalized
VSH_SP      .V/V                                                :Volume of Shale from SP
~A        DEPTH            ASN           CILD            ILD             SP        SP_NORM         VSH_SP
# ...
      3173.0000         1.4896       1890.393         0.5487       -125.106       -57.8829     0.08528499
      3173.5000          1.636       1927.518         0.5227      -126.6307       -59.4006     0.05998999
      3174.0000         1.7504       1883.646         0.4971      -129.2974       -62.0603     0.01566168
      3174.5000         1.7957       1836.736         0.4786      -128.0996       -60.8554     0.03574333
      3175.0000         1.8192       1782.008           0.46      -126.0295       -58.7783     0.07036164
      3175.5000         1.8472       1727.279         0.4769      -124.0879       -56.8296        0.10284
      3176.0000         1.8849       1672.553         0.5319      -125.1426       -57.8773     0.08537833
      3176.5000         1.9247       1630.447         0.5868      -125.9379       -58.6656        0.07224
      3177.0000         1.9787       1588.668         0.6417      -126.7114        -59.432     0.05946668
      3177.5000         2.0175       1546.887         0.6745      -127.4854        -60.199     0.04668331
      3178.0000         2.0499       1477.568          0.694      -127.6733       -60.3798     0.04367002
      3178.5000         2.1252       1417.037         0.7128      -127.4673       -60.1668     0.04721998
      3179.0000         2.2348        1372.32         0.6861      -125.9805        -58.673     0.07211666
      3179.5000         2.2318       1327.602         0.6593      -124.4927       -57.1781     0.09703166
      3180.0000          2.178       1269.014         0.6325      -119.2855       -51.9639       0.183935
      3180.5000         2.0653       1239.781         0.6058       -118.448       -51.1193      0.1980117
      3181.0000         2.0207       1507.596          0.579      -119.5338       -52.1981      0.1800316
      3181.5000         2.0079       1714.867         0.5522      -120.8557       -53.5129      0.1581183
      3182.0000         1.9952       1746.016         0.5364      -122.1494       -54.7996      0.1366734
      3182.5000         1.7886       1777.166         0.5318      -123.2583       -55.9015      0.1183083
      3183.0000         1.5583       1784.871         0.5272      -124.3162       -56.9523       0.100795
      3183.5000         1.3281       1704.547         0.5226      -125.1741       -57.8032     0.08661333
      3184.0000         1.0978       1624.223          0.518      -125.2208       -57.8428     0.08595333
      3184.5000         1.0666       1524.029         0.5225      -120.6066       -53.2216      0.1629733
      3185.0000         1.0642       1352.525         0.5969      -111.1575       -43.7655       0.320575
      3185.5000         1.0618       1255.318         0.6712      -104.4987       -37.0996      0.4316733
      3186.0000         1.0594       1181.395         0.7455       -97.8435       -30.4374        0.54271
      3186.5000         1.0544        1114.49         0.8199       -91.1847       -23.7715      0.6538084
      3187.0000         1.0492       1030.705         0.8939       -84.5259       -17.1057       0.764905
      3187.5000         1.0439       1017.223         0.9541       -77.8671       -10.4399      0.8760017
      3188.0000         1.0387        1020.62         0.9545       -71.2119        -3.7776        0.98704
      3188.5000         1.0323       1020.903         0.9549       -66.6013           0.84              1
      3189.0000          1.024       1021.188         0.9553       -82.7676       -15.3192        0.79468
      3189.5000         1.0156       1021.471         0.9557       -81.6962       -14.2408      0.8126534
      3190.0000         1.0163       1021.754         0.9561       -80.8624       -13.3999      0.8266683
      3190.5000         1.0193       1022.038         0.9565       -79.9365        -12.467      0.8422167
      3191.0000         1.0222       1022.321         0.9571       -78.3867       -10.9102      0.8681633
      3191.5000         1.0252       1014.558         0.9581       -77.2936          -9.81         0.8865
      3192.0000         1.0302       1003.516         0.9591       -76.4454        -8.9548      0.9007533
      3192.5000         1.0365       992.4668         0.9601       -75.6932        -8.1955      0.9134083
      3193.0000         1.0429       982.5312         0.9611       -75.0203        -7.5156        0.92474
      3193.5000         1.0337       996.1768         0.9621         -74.35        -6.8383      0.9360283
      3194.0000         1.0198       1009.815         0.9631       -73.7334        -6.2146      0.9464234
      3194.5000         1.0058       1029.695         0.9641       -73.5382        -6.0124      0.9497933
      3195.0000         0.9948       1052.242         0.9651       -73.4846        -5.9517       0.950805
      3195.5000         0.9853       1074.789         0.9661         -73.79        -6.2501      0.9458317
      3196.0000         0.9758       1097.334         0.9606       -74.4325        -6.8856        0.93524
      3196.5000         0.9662       1119.893         0.9464       -75.0745        -7.5205      0.9246584
      3197.0000         0.9567       1142.439         0.9322       -75.7169        -8.1559      0.9140683
      3197.5000         0.9472       1157.902          0.918       -76.1902        -8.6221      0.9062983
      3198.0000         0.9377       1167.344         0.9038       -76.4321         -8.857      0.9023833
      3198.5000         0.9282       1176.793         0.8896       -76.6743        -9.0922      0.8984633
      3199.0000         0.9322       1186.242         0.8754       -76.9163        -9.3271      0.8945484
      3199.5000         0.9362       1195.686         0.8677       -77.1584        -9.5622        0.89063
      3200.0000         0.9402       1204.053         0.8631       -77.4005        -9.7972      0.8867133
      3200.5000         0.9442       1181.967         0.8585       -77.6426       -10.0323      0.8865758
      3201.0000         0.9521       1159.869         0.8539       -77.8846       -10.2673      0.8827855
      3201.5000         0.9683       1137.783         0.8493       -78.1384        -10.514      0.8788065
      3202.0000         0.9845       1115.686         0.8447       -78.6079       -10.9765      0.8713468
      3202.5000         1.0006         1093.6           0.84       -79.0771       -11.4386      0.8638936
      3203.0000          1.007       1066.299         0.8354       -78.9578       -11.3123      0.8659307
      3203.5000         1.0077       1034.949         0.8308        -77.879       -10.2264      0.8834451
      3204.0000         1.0032       1009.037         0.8381       -76.9133        -9.2537      0.8991339
      3204.5000         0.9922       997.2412         0.8499       -76.1143        -8.4477      0.9121339
      3205.0000         0.9812       995.4229         0.8618       -75.3148        -7.6411      0.9251435
      3205.5000         0.9702       1022.302         0.8737       -74.5154        -6.8347        0.93815
      3206.0000         0.9592        1049.18         0.8856       -73.8618         -6.174      0.9488065
      3206.5000         0.9482       1076.059         0.8974       -73.3198         -5.625      0.9576613
      3207.0000         0.9372       1102.924         0.8939       -72.7738         -5.072      0.9665806
      3207.5000         0.9306       1129.703         0.8769       -72.1709         -4.462      0.9764193
      3208.0000         0.9371       1156.469         0.8598        -71.714        -3.9981      0.9839016
      3208.5000         0.9579       1183.236         0.8428       -71.3557        -3.6327      0.9897951
      3209.0000         0.9971        1209.02         0.8582       -71.2561        -3.5261      0.9915145
      3209.5000         1.0364       1181.568         0.8825       -71.1682        -3.4312      0.9930452
      3210.0000         1.0756       1148.701         0.9133       -71.1058        -3.3617      0.9941661
      3210.5000         1.1244       1106.473         0.9548       -71.0898        -3.3387      0.9945371
