#------------------------------------------------------------------------------
# Created by    : vladimir.rabinovich
# Created on    : 09/19/2023 17:20:49
#------------------------------------------------------------------------------
~Version Information Section
VERS.           2.0     :   CWLS log ASCII Standard - VERSION 2.0
WRAP.           NO      :   One line per depth step
~Well Information Section
#MNEM       .UNIT                                         VALUE :DESCRIPTION
#------------------------------------------------------------------------------
STRT        .FT                                            2010 :START DEPTH
STOP        .FT                                            6610 :STOP DEPTH
STEP        .FT                                             0.5 :STEP      
NULL        .                                           -999.25 :NULL      
COMP        .                                      SHELL OIL CO :COMPANY   
WELL        .                                ST TR 00691-L SE/4 :WELL      
FLD         .                                           WILDCAT :FIELD     
LOC         .                                                   :LOCATION  
CNTY        .                      MATAGORDA ISLAND LARGE BLOCK :LOCATION  
STAT        .                                             TEXAS :STATE     
CTRY        .                                     UNITED STATES :COUNTRY   
SRVC        .                                                   :SERVICE COMPANY
DATE        .                             9/13/2023 11:12:05 AM :LOG DATE  
API         .                                    42703000190000 :API NUMBER
UWI         .                                    42703000190000 :UNIQUE WELL ID
XCOORD      .                                  412077.623085271 :SURFACE X 
YCOORD      .                                  10154908.2726125 :SURFACE Y 
LAT         .                                        27.9310704 :LATITUDE  
LON         .                                         -96.80379 :LONGITUDE 
ELEV        .FT                                              82 :ELEVATION VALUE
ELEV_TYPE   .                                                DF :ELEVATION REFERENCE TYPE
~Curve Information Section
#MNEM       .UNIT                                      API CODE :CURVE DESCRIPTION
#------------------------------------------------------------------------------
DEPT        .FT                                                 :DEPTH     
ASN         .OHMM                                               :          
CILD        .MMHO                                               :          
ILD         .OHMM                                               :          
SP          .MV                                                 :          
SP_NORM     .MV                                                 :SP Normalized
VSH_SP      .V/V                                                :Volume of Shale from SP
~A        DEPTH            ASN           CILD            ILD             SP        SP_NORM         VSH_SP
      2010.0000          0.015       2008.582         0.0568       -26.8811        -8.0132        0.79956
      2010.5000          0.141       2007.477         0.1249       -31.3384        -3.6851        0.94383
      2011.0000         0.1897       2006.117         0.2271       -35.9346         1.1624              1
      2011.5000         0.2264        2004.73         0.3054       -43.5721         2.9686              1
      2012.0000         0.3042       2013.064         0.3461       -56.9871        -1.0027              1
      2012.5000         0.3357       2540.969         0.3835       -73.8624        -8.4342      0.7855266
      2013.0000         0.3673       3068.875         0.4186       -91.0624       -16.1905      0.5269833
      2013.5000         0.3941       3311.395         0.4457       -93.3097        -8.9941      0.7668633
      2014.0000         0.4193       3005.063         0.4727       -92.1205        -5.5135      0.8828833
      2014.5000         0.4432       2698.734         0.4998       -90.9176        -4.5621      0.9145967
      2015.0000         0.4637       2392.402         0.5142       -89.6714        -3.5673      0.9477566
      2015.5000         0.4836       2562.109         0.5279       -89.5316        -3.6789      0.9440367
      2016.0000          0.492       2506.738         0.5223       -89.4408        -3.8395      0.9386833
      2016.5000         0.4933       2471.801         0.5088       -89.3499        -4.0001        0.93333
      2017.0000         0.4835       2436.859         0.4954        -89.259        -4.1606        0.92798
      2017.5000         0.4697        2386.02         0.4819       -89.3159        -4.4689      0.9177033
      2018.0000         0.4552       2339.285         0.4684        -89.425        -4.8294      0.9056867
      2018.5000         0.4407       2303.656         0.4565       -89.7704        -5.4263        0.88579
      2019.0000         0.4261       2283.531         0.4474       -91.3751        -7.2824        0.82392
      2019.5000         0.4116       2269.539         0.4382       -92.8435        -9.0022      0.7665933
      2020.0000         0.3971       2345.379         0.4291       -94.1823       -10.5924      0.7135867
      2020.5000         0.3898       2509.652         0.4237       -95.0903       -11.7519      0.6749367
      2021.0000         0.3866       2673.926         0.4242        -95.775        -12.688      0.6437333
      2021.5000         0.3834       2838.195         0.4247       -96.4601       -13.6245      0.6125166
      2022.0000         0.3802       2963.715         0.4252       -96.4639       -13.8797        0.60401
      2022.5000          0.377       2910.938         0.4257       -96.2715       -13.9388        0.60204
      2023.0000         0.3738       2858.164         0.4262       -95.9087       -13.8274      0.6057533
      2023.5000         0.3805       2805.387         0.4268       -94.5786       -12.7487        0.64171
      2024.0000         0.3881       2752.586         0.4273       -93.2485       -11.6701      0.6776633
      2024.5000         0.3957       2699.809         0.4279       -90.6063        -9.2793      0.7573567
      2025.0000         0.4033       2659.781         0.4284       -88.9729        -7.8973      0.8034233
      2025.5000         0.4109       2645.402         0.4308        -87.896        -7.0718        0.83094
      2026.0000         0.4185       2633.992         0.4333       -86.8281        -6.2554      0.8581533
      2026.5000         0.4172       2625.734         0.4358       -86.2594        -5.9381        0.86873
      2027.0000         0.4148       2618.805         0.4382       -85.6906        -5.6207        0.87931
      2027.5000         0.4125       2611.422         0.4407       -85.1217        -5.3032      0.8898934
      2028.0000         0.4103       2571.723         0.4432       -84.5529        -4.9859        0.90047
      2028.5000         0.4091       2518.973         0.4456       -84.2933        -4.9777      0.9007433
      2029.0000         0.4079       2401.043         0.4495       -84.0736        -5.0094      0.8996867
      2029.5000         0.4067       2379.566         0.4535       -83.8353        -5.0225        0.89925
      2030.0000         0.4055        2360.84         0.4575       -83.2599        -4.6986      0.9100467
      2030.5000         0.4043       2343.672         0.4614       -82.6844        -4.3745        0.92085
      2031.0000         0.4031       2315.785         0.4654       -82.1091        -4.0506      0.9316466
      2031.5000         0.4019       2286.441         0.4694       -81.5337        -3.7267      0.9424433
      2032.0000         0.4031       2300.586         0.4733       -80.9583        -3.4027      0.9532433
      2032.5000         0.4062       2312.754         0.4773       -79.6633        -2.3591        0.98803
      2033.0000         0.4092       2313.793         0.4813       -77.4596        -0.4068              1
      2033.5000         0.4123       2312.047         0.4852       -76.5562         0.2451              1
      2034.0000         0.4154       2308.105         0.4876       -76.6787        -0.1288              1
      2034.5000         0.4185       2304.168         0.4899       -76.8014        -0.5029              1
      2035.0000         0.4215       2300.227         0.4921       -76.9238        -0.8767              1
      2035.5000         0.4246       2296.289         0.4943       -77.0464        -1.2508              1
      2036.0000         0.4277       2289.457         0.4965       -77.1689        -1.6247              1
      2036.5000         0.4295       2279.277         0.4987       -77.2915        -1.8198              1
      2037.0000         0.4311       2269.098         0.5009       -77.3489        -1.8772              1
      2037.5000         0.4327       2258.918         0.5031       -77.3766        -1.9049              1
      2038.0000         0.4343       2248.738         0.5054       -77.4042        -1.9325              1
      2038.5000         0.4359       2238.559         0.5076       -77.4319        -1.9602              1
      2039.0000         0.4374       2229.918         0.5098       -77.4595        -1.9878              1
      2039.5000          0.439       2222.426          0.513       -77.4872        -2.0155      0.9994833
      2040.0000         0.4406       2214.934         0.5161       -77.5149        -2.0432        0.99856
      2040.5000         0.4422       2214.668         0.5192       -77.5425        -2.0708        0.99764
      2041.0000         0.4439       2215.438         0.5223       -77.5262        -2.0545      0.9981833
      2041.5000         0.4459       2217.895         0.5255       -77.5055        -2.0338      0.9988734
      2042.0000         0.4479       2221.133         0.5286       -77.4847         -2.013      0.9995667
      2042.5000         0.4498       2224.371         0.5313        -77.464        -1.9923              1
      2043.0000         0.4518       2227.613         0.5327       -77.4432        -1.9715              1
      2043.5000         0.4538       2230.852         0.5341       -77.4225        -1.9508              1
      2044.0000         0.4558        2234.09         0.5356       -77.3917          -1.92              1
      2044.5000         0.4577       1998.861          0.537       -77.2767         -1.805              1
      2045.0000         0.4582       1962.332         0.5384       -77.1619        -1.6902              1
      2045.5000         0.4578       1919.209         0.5398       -77.0469        -1.5752              1
      2046.0000         0.4575       1863.234         0.5482       -76.9319        -1.4602              1
      2046.5000         0.4571       1846.877         0.5671        -76.826        -1.3543              1
      2047.0000         0.4568       1836.148          0.586       -76.8284        -1.3567              1
      2047.5000         0.4545       1828.414         0.5929       -76.8307         -1.359              1
