#------------------------------------------------------------------------------
# Created by    : vladimir.rabinovich
# Created on    : 09/19/2023 17:19:56
#------------------------------------------------------------------------------
~Version Information Section
VERS.           2.0     :   CWLS log ASCII Standard - VERSION 2.0
WRAP.           NO      :   One line per depth step
~Well Information Section
#MNEM       .UNIT                                         VALUE :DESCRIPTION
#------------------------------------------------------------------------------
STRT        .FT                                             748 :START DEPTH
STOP        .FT                                            7997 :STOP DEPTH
STEP        .FT                                             0.5 :STEP      
NULL        .                                           -999.25 :NULL      
COMP        .                                        EXXON CORP :COMPANY   
WELL        .                                     ST TR 00560-L :WELL      
FLD         .                                           WILDCAT :FIELD     
LOC         .                                                   :LOCATION  
CNTY        .                      MATAGORDA ISLAND LARGE BLOCK :LOCATION  
STAT        .                                             TEXAS :STATE     
CTRY        .                                     UNITED STATES :COUNTRY   
SRVC        .                                                   :SERVICE COMPANY
DATE        .                             9/13/2023 11:19:05 AM :LOG DATE  
API         .                                    42703302000000 :API NUMBER
UWI         .                                    42703302000000 :UNIQUE WELL ID
XCOORD      .                                  556028.985600478 :SURFACE X 
YCOORD      .                                   10283706.324983 :SURFACE Y 
LAT         .                                        28.2964478 :LATITUDE  
LON         .                                       -96.3697382 :LONGITUDE 
ELEV        .FT                                              92 :ELEVATION VALUE
ELEV_TYPE   .                                                KB :ELEVATION REFERENCE TYPE
~Curve Information Section
#MNEM       .UNIT                                      API CODE :CURVE DESCRIPTION
#------------------------------------------------------------------------------
DEPT        .FT                                                 :DEPTH     
ASFL        .OHMM                                               :          
CILD        .MMHO                                               :          
DT          .US/F                                               :          
GR          .GAPI                                               :          
GR_NORM     .GAPI                                               :GammaRay Normalized
ILD         .OHMM                                               :          
SP          .MV                                                 :          
SP_NORM     .MV                                                 :SP Normalized
VSH_GR      .V/V                                                :Volume of Shale from GR
VSH_SP      .V/V                                                :Volume of Shale from SP
~A        DEPTH           ASFL           CILD             DT             GR        GR_NORM            ILD             SP        SP_NORM         VSH_GR         VSH_SP
# ...
      5574.5000         0.9615       1440.539       110.7798        -999.25        -999.25         0.7939       -68.8853      -10.08307        -999.25      0.7545117
      5575.0000         0.9481       1485.207       112.6914        -999.25        -999.25          0.743       -69.0106      -10.21004        -999.25        0.75108
      5575.5000         0.9376       1536.479       113.2333        -999.25        -999.25         0.6956       -68.5026       -9.70372        -999.25      0.7647643
      5576.0000         0.9271       1592.887       112.2285        -999.25        -999.25          0.648       -67.8557      -9.058491        -999.25       0.782203
      5576.5000         0.9254       1657.711        111.351        -999.25        -999.25         0.6005         -66.55      -7.754471        -999.25      0.8174467
      5577.0000         0.9278       1677.623       110.4734        -999.25        -999.25         0.5531       -65.3501       -6.55624        -999.25      0.8498313
      5577.5000         0.9302       1589.268       109.6123        -999.25        -999.25         0.5543       -66.3188      -7.526619        -999.25      0.8236049
      5578.0000         0.9685        1500.91       110.1865        -999.25        -999.25         0.5561       -67.2887      -8.498188        -999.25      0.7973463
      5578.5000         1.0219       1416.959         110.83        -999.25        -999.25         0.5859       -68.2573      -9.468468        -999.25      0.7711225
      5579.0000         1.0825       1340.541       111.5564        -999.25        -999.25         0.6376       -69.3562      -10.56904        -999.25      0.7413772
      5579.5000         1.1587       1259.621       110.9192        -999.25        -999.25         0.6893       -68.2087      -9.423218        -999.25      0.7723455
      5580.0000         1.2694       1172.512       107.9116        -999.25        -999.25         0.7411       -65.9136      -7.129787        -999.25      0.8343301
      5580.5000          1.327       1147.488         97.623        -999.25        -999.25         0.7928       -63.7889      -5.006763        -999.25      0.8917091
      5581.0000         1.2293       1128.225          92.99        -999.25        -999.25         0.8214         -61.45       -2.66954        -999.25      0.9548773
      5581.5000         1.1041         1113.4        92.4725        -999.25        -999.25         0.8466       -60.8846       -2.10582        -999.25       0.970113
      5582.0000         1.0489       1098.576        91.5527        -999.25        -999.25         0.8718       -61.1092      -2.332092        -999.25      0.9639975
      5582.5000         1.0139       1337.898        92.3735        -999.25        -999.25         0.8466        -61.502      -2.726566        -999.25      0.9533361
      5583.0000         0.9853       1475.764        95.2893        -999.25        -999.25         0.8042        -61.895      -3.121243        -999.25      0.9426691
      5583.5000         0.9595       1587.506       100.0887        -999.25        -999.25         0.7531       -62.5646      -3.792519        -999.25      0.9245265
      5584.0000         0.9452       1660.842       110.2355        -999.25        -999.25         0.7001       -63.5564      -4.785992        -999.25      0.8976759
      5584.5000         0.9376       1687.701       111.5125        -999.25        -999.25         0.6471       -66.0231      -7.254368        -999.25       0.830963
      5585.0000         0.9509       1708.322       110.7657        -999.25        -999.25         0.6105       -70.0901      -11.32304        -999.25      0.7209988
      5585.5000         0.9663       1724.076       109.8728        -999.25        -999.25         0.5888        -71.913      -13.14762        -999.25       0.671686
      5586.0000         0.9817       1739.828         108.98        -999.25        -999.25          0.567       -72.3925      -13.62879        -999.25      0.6586813
      5586.5000         0.9972       1755.582       108.0872        -999.25        -999.25          0.572       -70.8469      -12.08487        -999.25      0.7004091
      5587.0000         1.0124       1740.588       107.1943        -999.25        -999.25         0.5937       -69.3015      -10.54114        -999.25      0.7421314
      5587.5000         1.0272       1696.213       106.3014        -999.25        -999.25         0.6185       -68.4375      -9.678814        -999.25      0.7654375
      5588.0000          1.042       1609.619       105.5303        -999.25        -999.25         0.6433       -67.5729      -8.815887        -999.25      0.7887598
      5588.5000         1.0568       1521.459       104.7762        -999.25        -999.25         0.6681       -66.7089      -7.953564        -999.25      0.8120658
      5589.0000          1.055       1452.574       104.9083        -999.25        -999.25         0.6945       -65.8442      -7.090538        -999.25      0.8353909
      5589.5000         1.0515       1383.643       105.8135        -999.25        -999.25         0.7208       -64.5713      -5.819309        -999.25      0.8697484
      5590.0000         1.0481       1300.031       106.7185        -999.25        -999.25         0.7471       -63.0672      -4.316887        -999.25      0.9103544
      5590.5000         1.0447       1213.143       104.1274        -999.25        -999.25         0.7735        -61.731      -2.982361        -999.25      0.9464227
      5591.0000         1.0438       1182.982       101.7815        -999.25        -999.25         0.8008       -60.5421      -1.795135        -999.25      0.9785098
      5591.5000         1.0538       1152.797       100.7377        -999.25        -999.25         0.8306       -59.7274     -0.9821129        -999.25              1
      5592.0000         1.0638       1136.199        101.141        -999.25        -999.25         0.8604       -59.4907     -0.7470856        -999.25              1
      5592.5000         1.0738        1125.24       101.5439        -999.25        -999.25         0.8901       -59.4718     -0.7298622        -999.25              1
      5593.0000         1.0838       1114.258       101.9473        -999.25        -999.25         0.9158       -59.5466     -0.8063354        -999.25              1
      5593.5000         1.0978       1103.115       102.3612        -999.25        -999.25         0.9398       -59.6213     -0.8827095        -999.25              1
      5594.0000         1.1162       1091.961         102.96        -999.25        -999.25         0.9558        -59.696     -0.9590836        -999.25              1
      5594.5000         1.1345       1075.645       103.5587        -999.25        -999.25         0.9718       -59.7708      -1.035561        -999.25      0.9990389
      5595.0000         1.1444        1057.15       104.2362        -999.25        -999.25          0.985       -59.8456      -1.112034        -999.25      0.9969721
      5595.5000         1.1502       1042.064       105.4618        -999.25        -999.25         0.9874       -60.0551      -1.323208        -999.25      0.9912646
      5596.0000         1.1559       1034.205       106.6702        -999.25        -999.25         0.9898       -60.2704      -1.540184        -999.25      0.9854004
      5596.5000         1.1617       1026.348       107.8651        -999.25        -999.25         0.9922       -60.4858      -1.757259        -999.25      0.9795336
      5597.0000         1.1693       1022.016       108.8087        -999.25        -999.25         0.9839       -60.7012      -1.974331        -999.25      0.9736667
      5597.5000         1.1624       1018.062       109.4711        -999.25        -999.25         0.9704       -60.9164      -2.191208        -999.25      0.9678052
      5598.0000          1.144       1018.967        110.134        -999.25        -999.25         0.9568       -61.1318      -2.408283        -999.25      0.9619383
      5598.5000         1.1265       1025.395       110.7969        -999.25        -999.25         0.9432       -61.3472      -2.625355        -999.25      0.9560715
