#------------------------------------------------------------------------------
# Created by    : vladimir.rabinovich
# Created on    : 09/19/2023 17:22:30
#------------------------------------------------------------------------------
~Version Information Section
VERS.           2.0     :   CWLS log ASCII Standard - VERSION 2.0
WRAP.           NO      :   One line per depth step
~Well Information Section
#MNEM       .UNIT                                         VALUE :DESCRIPTION
#------------------------------------------------------------------------------
STRT        .FT                                             328 :START DEPTH
STOP        .FT                                            8026 :STOP DEPTH
STEP        .FT                                             0.5 :STEP      
NULL        .                                           -999.25 :NULL      
COMP        .                                 MESA PETROLEUM CO :COMPANY   
WELL        .                                ST TR 00565-L NW/4 :WELL      
FLD         .                                           WILDCAT :FIELD     
LOC         .                                                   :LOCATION  
CNTY        .                      MATAGORDA ISLAND LARGE BLOCK :LOCATION  
STAT        .                                             TEXAS :STATE     
CTRY        .                                     UNITED STATES :COUNTRY   
SRVC        .                                                   :SERVICE COMPANY
DATE        .                             9/13/2023 11:12:01 AM :LOG DATE  
API         .                                    42703301780000 :API NUMBER
UWI         .                                    42703301780000 :UNIQUE WELL ID
XCOORD      .                                  585273.186473096 :SURFACE X 
YCOORD      .                                  10269188.7462706 :SURFACE Y 
LAT         .                                          28.25878 :LATITUDE  
LON         .                                       -96.2777629 :LONGITUDE 
ELEV        .FT                                              82 :ELEVATION VALUE
ELEV_TYPE   .                                                KB :ELEVATION REFERENCE TYPE
~Curve Information Section
#MNEM       .UNIT                                      API CODE :CURVE DESCRIPTION
#------------------------------------------------------------------------------
DEPT        .FT                                                 :DEPTH     
CILD        .MMHO                                               :          
DT          .US/F                                               :          
ILD         .OHMM                                               :          
SFL         .OHMM                                               :          
SP          .MV                                                 :          
SP_NORM     .MV                                                 :SP Normalized
VSH_SP      .V/V                                                :Volume of Shale from SP
~A        DEPTH           CILD             DT            ILD            SFL             SP        SP_NORM         VSH_SP
# ...
      5956.0000        1632.93       177.1721         0.6204         1.7496      -107.1863      -72.95043              0
      5956.5000       1642.416       176.1177         0.5922         1.7693      -108.0074      -73.76338              0
      5957.0000       1732.133       175.4109         0.5547         1.7514      -108.8057      -74.55354              0
      5957.5000       1915.002       175.3704         0.5145         1.6768      -109.5546      -75.29429              0
      5958.0000       2173.078       175.9109         0.4728         1.5891      -110.1709      -75.90244              0
      5958.5000       2430.957       176.4148         0.4324         1.4974      -110.5126      -76.23599              0
      5959.0000       2689.031       176.8418          0.398         1.3945      -110.6245      -76.33974              0
      5959.5000       2790.266       177.1736         0.3758         1.2893      -109.9723       -75.6794              0
      5960.0000       2866.262       177.7559          0.372         1.1881      -106.4211      -72.12004              0
      5960.5000       2821.238       182.7837         0.3989         1.1171      -101.9393       -67.6301     0.03434643
      5961.0000       2545.348       186.6426         0.4467         1.1151       -95.7688      -61.45145       0.123892
      5961.5000       2254.816       190.1372          0.525         1.1998       -88.3392      -54.01371      0.2316854
      5962.0000       1964.281       190.0962         0.6388         1.4252       -78.6663      -44.33265      0.3719905
      5962.5000       1673.748       191.6382         0.7643          1.853       -68.9432      -34.60141      0.5130231
      5963.0000       1382.818       192.5508         0.9007         2.3527       -60.9091      -26.55916      0.6295774
      5963.5000       1169.074       190.4443          1.084         2.9934       -62.1394      -27.78131       0.611865
      5964.0000       862.1143       190.1248         1.2461          3.381        -63.737      -29.37076      0.5888295
      5964.5000       728.3262       192.4771         1.4041         3.0989       -67.5742      -33.19982       0.533336
      5965.0000       664.8398       188.7576         1.5667           2.51       -71.0343      -36.65177      0.4833077
      5965.5000       659.6074       184.1758         1.6335         2.1599       -73.5437      -39.15302      0.4470577
      5966.0000       677.1416       185.5527         1.6051         2.2894       -71.2616      -36.86277      0.4802498
      5966.5000       697.0312        186.271         1.5824         2.3893       -64.3365      -29.92952      0.5807316
      5967.0000       706.0732       179.6482         1.5656         2.3414       -59.7599      -25.34477      0.6471772
      5967.5000       690.6611       176.2068         1.5757         2.1099       -54.7685      -20.34523      0.7196344
      5968.0000       674.7295        175.769          1.572         1.8278       -47.5687      -13.13728      0.8240975
      5968.5000       658.5371       177.9988         1.5528         1.6805       -44.3586      -9.919033      0.8707386
      5969.0000       645.7598       181.5552         1.5388         1.6679       -44.0089      -9.561184      0.8759249
      5969.5000       634.0215       182.4817         1.5347           1.73       -45.2742      -10.81834      0.8577053
      5970.0000       643.8672       178.5212         1.5378          1.858       -47.4713      -13.00729      0.8259814
      5970.5000       662.4219       177.9863         1.5436         2.5255        -47.068      -12.59584      0.8319443
      5971.0000       702.3008       179.6296         1.5164         3.0242       -48.7399      -14.25959       0.807832
      5971.5000       750.5908       177.5776         1.4541         2.4119       -48.0804      -13.59194      0.8175081
      5972.0000         800.96       172.7432         1.3655         1.6644        -46.063      -11.56639      0.8468639
      5972.5000       851.5752       171.7227         1.2647         1.2093       -46.9712      -12.46645      0.8338196
      5973.0000       904.1699       181.3076         1.1611         1.0557       -52.8723       -18.3594      0.7484145
      5973.5000       954.3408        185.959         1.0702         1.1841       -61.6669      -27.14585      0.6210746
      5974.0000       996.4961       184.9744         0.9976         1.4445       -74.1737       -39.6445      0.4399348
      5974.5000       1020.221       185.0723         0.9679         2.3458       -81.2163      -46.67896      0.3379862
      5975.0000       1029.201       180.5125         0.9763         3.0603       -83.7822      -49.23671      0.3009172
      5975.5000       1032.205       178.8271         0.9942         3.5278       -83.4373      -48.88366      0.3060339
      5976.0000       1032.475       179.0935         1.0198         3.1494       -77.6082      -43.04641      0.3906317
      5976.5000       1011.958       181.4661         1.0483          2.481       -70.5408      -35.97086      0.4931759
      5977.0000       971.7568       185.3694         1.0784          1.958        -65.002      -30.42391      0.5735665
      5977.5000       925.9902       188.7156         1.1166         1.5744       -61.1011      -26.51487      0.6302193
      5978.0000        879.085       190.8369         1.1613         1.3695       -58.6219      -24.02752      0.6662678
      5978.5000       828.7666       188.3936         1.2236          1.637       -56.5487      -21.94617      0.6964323
      5979.0000       782.1084        189.238         1.3178         1.9995       -57.0208      -22.41013      0.6897084
      5979.5000       736.8359       194.3081          1.436         2.4473         -59.23      -24.61118      0.6578091
      5980.0000        689.585       196.2646         1.5498         3.0728       -61.6618      -27.03483      0.6226836
      5980.5000        652.749       192.7007         1.6515         3.7299       -62.2227      -27.58758      0.6146728
      5981.0000       627.1191       181.0154         1.7166         3.9047       -57.1653      -22.52203      0.6880865
      5981.5000       622.2451       177.0823         1.7263         2.9166       -52.6588      -18.00738      0.7535162
      5982.0000       631.9307       176.3999          1.705         2.0521       -48.7033      -14.04374      0.8109604
      5982.5000       642.2842        176.302         1.6776          1.521       -43.8196      -9.151886      0.8818567
      5983.0000       653.3174       178.1919         1.6489         1.4166       -39.6482       -4.97234      0.9424298
      5983.5000       660.4814       177.8154         1.6207         1.4379       -38.3231      -3.639091      0.9617523
      5984.0000       662.6289       185.8896         1.6139         1.4845       -37.8587      -3.166542      0.9686009
      5984.5000       656.8555       188.7576         1.6513         1.5446       -37.6776      -2.977295      0.9713436
      5985.0000       645.8467       185.7336         1.7137         1.6081       -37.5724      -2.863945      0.9729863
      5985.5000       628.5049       179.1628         1.8031         1.6738        -37.476      -2.759399      0.9745014
      5986.0000       608.7383       177.3567          1.906         1.6915       -37.3754       -2.65065      0.9760776
      5986.5000        573.708       183.5168          2.021         1.6599       -37.5851      -2.858669      0.9730628
      5987.0000       535.6094        190.957          2.191          1.668       -38.5402      -3.827991      0.9590146
      5987.5000       493.4551        191.864         2.3676         1.8133       -40.0676      -5.369614      0.9366723
      5988.0000       453.7739       190.6077         2.5605         2.2018       -41.8096      -7.125839      0.9112197
      5988.5000       416.6655       188.5322         2.8161         4.0844       -43.2589      -8.589359      0.8900093
      5989.0000       385.7666        191.363          3.082         3.9598       -43.6242       -8.96888       0.884509
