#------------------------------------------------------------------------------
# Created by    : vladimir.rabinovich
# Created on    : 09/19/2023 17:19:49
#------------------------------------------------------------------------------
~Version Information Section
VERS.           2.0     :   CWLS log ASCII Standard - VERSION 2.0
WRAP.           NO      :   One line per depth step
~Well Information Section
#MNEM       .UNIT                                         VALUE :DESCRIPTION
#------------------------------------------------------------------------------
STRT        .FT                                            1295 :START DEPTH
STOP        .FT                                            4592 :STOP DEPTH
STEP        .FT                                             0.5 :STEP      
NULL        .                                           -999.25 :NULL      
COMP        .                     FREEPORT-MCMORAN OIL & GAS CO :COMPANY   
WELL        .                                     ST TR 00662-L :WELL      
FLD         .                                         SIX-SIXTY :FIELD     
LOC         .                                                   :LOCATION  
CNTY        .                      MATAGORDA ISLAND LARGE BLOCK :LOCATION  
STAT        .                                             TEXAS :STATE     
CTRY        .                                     UNITED STATES :COUNTRY   
SRVC        .                                                   :SERVICE COMPANY
DATE        .                             9/13/2023 11:19:13 AM :LOG DATE  
API         .                                    42703300650000 :API NUMBER
UWI         .                                    42703300650000 :UNIQUE WELL ID
XCOORD      .                                  434889.841251994 :SURFACE X 
YCOORD      .                                  10179416.4588751 :SURFACE Y 
LAT         .                                        28.0002971 :LATITUDE  
LON         .                                       -96.7355909 :LONGITUDE 
ELEV        .FT                                              77 :ELEVATION VALUE
ELEV_TYPE   .                                                KB :ELEVATION REFERENCE TYPE
~Curve Information Section
#MNEM       .UNIT                                      API CODE :CURVE DESCRIPTION
#------------------------------------------------------------------------------
DEPT        .FT                                                 :DEPTH     
ASFL        .OHMM                                               :          
CILD        .MMHO                                               :          
ILD         .OHMM                                               :          
SFL         .OHMM                                               :          
SP          .MV                                                 :          
SP_NORM     .MV                                                 :SP Normalized
VSH_SP      .V/V                                                :Volume of Shale from SP
~A        DEPTH           ASFL           CILD            ILD            SFL             SP        SP_NORM         VSH_SP
# ...
      3673.5000         0.5846       4235.406         0.1561         0.5715       -85.3346      -52.46843              0
      3674.0000         0.5595       4231.594         0.1553         0.5589       -85.8647      -53.00841              0
      3674.5000         0.5416       4137.609         0.1545         0.5464       -86.3947      -53.54829              0
      3675.0000         0.5314       4011.098         0.1537         0.5338       -86.2328      -53.39628              0
      3675.5000         0.5212       3869.047          0.153         0.5215       -86.0471      -53.22045              0
      3676.0000         0.5253        3782.48         0.1522         0.5101       -85.4823      -52.66553              0
      3676.5000         0.5406       3719.773         0.1551         0.4988       -84.9176      -52.11072              0
      3677.0000         0.5322       3676.688         0.1592         0.4874       -84.1372      -51.34019              0
      3677.5000         0.5207       3637.684         0.1634          0.476       -83.3137      -50.52657              0
      3678.0000         0.5077        3611.18         0.1675         0.4646       -82.7462      -49.96896   0.0006334733
      3678.5000         0.5245       3594.352         0.1716          0.458       -82.1787      -49.41134     0.01201342
      3679.0000          0.546        3576.98         0.1754         0.4547       -81.4354      -48.67792      0.0269812
      3679.5000         0.5658       3559.273          0.178         0.4514       -80.6039       -47.8563     0.04374905
      3680.0000          0.585       3541.379         0.1807         0.4481       -79.4677      -46.72998     0.06673517
      3680.5000         0.6038       3566.004         0.1834         0.4448       -78.1678      -45.43996     0.09306203
      3681.0000         0.6255       3590.641         0.1861          0.462       -76.8243      -44.10634      0.1202787
      3681.5000         0.6511        3615.25         0.1888         0.5003       -75.3744      -42.66632      0.1496669
      3682.0000          0.676        3458.34         0.1961         0.5373       -74.9701       -42.2719      0.1577162
      3682.5000            0.7        3295.75         0.2047         0.5662       -75.9669      -43.27859      0.1371717
      3683.0000         0.7272       3075.445         0.2132          0.595       -77.3524      -44.67397      0.1086946
      3683.5000          0.759       2878.852         0.2218         0.6238       -78.0945      -45.42594     0.09334813
      3684.0000         0.8047       2778.574         0.2328         0.6552        -79.087      -46.42832     0.07289139
      3684.5000         0.8409       2712.598         0.2502         0.6885       -80.3534      -47.70461      0.0468448
      3685.0000         0.8324       2600.988         0.2676         0.7218       -81.4835      -48.84459     0.02357989
      3685.5000         0.8388       2399.543          0.285          0.755       -82.7684      -50.13937              0
      3686.0000         0.8864       2246.305         0.3025         0.7862       -83.6703      -51.05115              0
      3686.5000         0.9365       2152.414         0.3218         0.8147       -84.3105      -51.70123              0
      3687.0000         1.0092       2069.809         0.3427         0.8432       -84.7465      -52.14711              0
      3687.5000         1.0777       1999.896         0.3636         0.8835         -84.95      -52.36049              0
      3688.0000         1.1283       1964.482         0.3845         0.9293       -84.8677      -52.28807              0
      3688.5000          1.166       1913.305         0.4083          0.975       -84.3594      -51.78965              0
      3689.0000         1.1477       1990.814         0.4164         1.0148       -84.1644      -51.60453              0
      3689.5000         1.0205       2082.773         0.3984         1.0423       -85.0164      -52.46642              0
      3690.0000         0.9504       2251.848         0.3745         1.0125       -85.8213      -53.28119              0
      3690.5000         0.8902       2413.996         0.3506         0.9633       -86.7336      -54.20337              0
      3691.0000         0.7862       2616.332         0.3267         0.8898       -87.8365      -55.31615              0
      3691.5000         0.8303       3337.176         0.3029         0.8105       -87.4751      -54.96463              0
      3692.0000         0.8638       3958.039          0.279         0.7341       -84.8645      -52.36391              0
      3692.5000         0.8906       4041.688         0.2541         0.6829       -83.2632       -50.7725              0
      3693.0000         0.9123       3901.813          0.226         0.7175        -81.663      -49.18218     0.01669024
      3693.5000         0.9328       3766.594         0.1979         0.7574       -80.7427      -48.27176      0.0352703
      3694.0000         0.9415       3304.508         0.1738         0.7973       -82.8387      -50.37764              0
      3694.5000         0.8792        3163.25         0.1854         0.8372          -85.3      -52.84882              0
      3695.0000         0.8249       3044.266         0.1969         0.8567       -86.9039       -54.4626              0
      3695.5000         0.7878       2944.285         0.2134         0.8626       -88.3424      -55.91098              0
      3696.0000         0.7585       2815.203         0.2315         0.8414       -76.6553      -44.23376      0.1176784
      3696.5000         0.7284       2686.266         0.2496         0.8049          -74.5      -42.08834      0.1614624
      3697.0000         0.7211       2591.879         0.2677         0.7684       -71.7894      -39.38762      0.2165792
      3697.5000         0.7189       2525.211          0.288         0.7399       -69.1592       -36.7673       0.270055
      3698.0000         0.7161       2476.828         0.3113         0.7122       -67.5787      -35.19668      0.3021086
      3698.5000         0.7065       2439.063         0.3338         0.6845       -67.3357      -34.96356      0.3068661
      3699.0000         0.6935       2419.711         0.3443          0.664       -71.2738      -38.91154       0.226295
      3699.5000         0.6651       2398.367         0.3549         0.6483       -75.3081      -42.95572      0.1437608
      3700.0000         0.6397       2377.938         0.3637         0.6325       -77.9161       -45.5736      0.0903346
      3700.5000         0.6172       2408.254          0.359         0.6131       -79.9087      -47.57608     0.04946767
      3701.0000         0.5989       3819.602         0.3389         0.5861         -81.61      -49.28727      0.0145456
      3701.5000         0.5979       3872.488         0.3002         0.5555       -82.8184      -50.50554              0
      3702.0000         0.6286       3757.883         0.2636         0.5597       -82.9955      -50.69252              0
      3702.5000          0.694       3600.883         0.2291         0.5781       -78.7527      -46.45961     0.07225294
      3703.0000         0.7667       3185.027         0.1948         0.6293       -76.9218      -44.63859      0.1094166
      3703.5000         0.9663       2931.516         0.2311         0.6815       -75.5487      -43.27537      0.1372374
      3704.0000         1.0793       2707.105         0.2673          0.814       -74.2162      -41.95275      0.1642296
      3704.5000         1.2425        2533.18         0.3036         0.9669       -72.8868      -40.63323      0.1911585
      3705.0000         1.4574       2276.398         0.3813          1.274       -71.7494      -39.50571      0.2141692
      3705.5000         1.6723       1681.668         0.4847         1.5999       -70.7982      -38.56439      0.2333798
      3706.0000         1.7206       1272.246         0.6508         1.6045       -69.7471      -37.52317      0.2546292
      3706.5000         1.6233       1053.875         0.7507         1.6003       -68.9125      -36.69845      0.2714602
