#------------------------------------------------------------------------------
# Created by    : vladimir.rabinovich
# Created on    : 09/19/2023 17:22:51
#------------------------------------------------------------------------------
~Version Information Section
VERS.           2.0     :   CWLS log ASCII Standard - VERSION 2.0
WRAP.           NO      :   One line per depth step
~Well Information Section
#MNEM       .UNIT                                         VALUE :DESCRIPTION
#------------------------------------------------------------------------------
STRT        .FT                                             970 :START DEPTH
STOP        .FT                                           10993 :STOP DEPTH
STEP        .FT                                             0.5 :STEP      
NULL        .                                           -999.25 :NULL      
COMP        .                               AMOCO PRODUCTION CO :COMPANY   
WELL        .                                     ST TR 00558-L :WELL      
FLD         .                                           WILDCAT :FIELD     
LOC         .                                                   :LOCATION  
CNTY        .                      MATAGORDA ISLAND LARGE BLOCK :LOCATION  
STAT        .                                             TEXAS :STATE     
CTRY        .                                     UNITED STATES :COUNTRY   
SRVC        .                                                   :SERVICE COMPANY
DATE        .                             9/13/2023 11:19:13 AM :LOG DATE  
API         .                                    42703301770000 :API NUMBER
UWI         .                                    42703301770000 :UNIQUE WELL ID
XCOORD      .                                   593347.98828382 :SURFACE X 
YCOORD      .                                   10274817.073936 :SURFACE Y 
LAT         .                                        28.2748406 :LATITUDE  
LON         .                                       -96.2531821 :LONGITUDE 
ELEV        .FT                                              93 :ELEVATION VALUE
ELEV_TYPE   .                                                KB :ELEVATION REFERENCE TYPE
~Curve Information Section
#MNEM       .UNIT                                      API CODE :CURVE DESCRIPTION
#------------------------------------------------------------------------------
DEPT        .FT                                                 :DEPTH     
GR          .GAPI                                               :          
GR_NORM     .GAPI                                               :GammaRay Normalized
ILD         .OHMM                                               :          
SP          .MV                                                 :          
SP_NORM     .MV                                                 :SP Normalized
VSH_GR      .V/V                                                :Volume of Shale from GR
VSH_SP      .V/V                                                :Volume of Shale from SP
~A        DEPTH             GR        GR_NORM            ILD             SP        SP_NORM         VSH_GR         VSH_SP
# ...
      2310.0000        46.6672       85.80824         1.0473      -151.3965      -5.471375              1      0.8880202
      2310.5000        47.2252       87.30158         1.0022      -151.3792      -5.460831              1      0.8883603
      2311.0000        48.2503       90.04908          0.946      -151.3877      -5.476089              1      0.8878681
      2311.5000         49.769       94.12186         0.8862      -151.4316      -5.526749              1      0.8862339
      2312.0000         48.713       91.28159         0.8287      -151.5256      -5.627518              1      0.8829833
      2312.5000        47.8503       88.96031         0.7857      -151.6367      -5.745377              1      0.8791814
      2313.0000        47.8622       88.98728         0.7638      -151.8391      -5.954529              1      0.8724346
      2313.5000        48.8893       91.74017         0.7484      -152.0415      -6.163696              1      0.8656872
      2314.0000        48.8716       91.68768         0.7345      -152.1426      -6.271545              1      0.8622082
      2314.5000        47.7711       88.72789         0.7224      -152.3379      -6.473618              1      0.8556898
      2315.0000        47.2374       87.28999         0.7153      -152.4177      -6.560165              1      0.8528979
      2315.5000        46.8989       86.37614         0.7131      -152.1711      -6.320328              1      0.8606346
      2316.0000        45.3663       82.25616         0.7143      -151.8542      -6.010193              1       0.870639
      2316.5000        44.0377       78.68393         0.7158      -151.6331      -5.795853      0.9719985      0.8775532
      2317.0000        44.3394       79.48908         0.7174      -151.4624      -5.631912      0.9891294      0.8828415
      2317.5000        48.1755       89.78413         0.7187      -151.4551      -5.631363              1      0.8828593
      2318.0000        49.4509        93.2037           0.72      -151.3704      -5.553436              1       0.885373
      2318.5000        48.1737       89.76943         0.7193      -151.1643       -5.35408              1      0.8918039
      2319.0000        47.1747       87.08218         0.7184      -150.7393      -4.935837              1      0.9052956
      2319.5000         46.392       84.97569          0.718      -150.2498      -4.453094              1      0.9208679
      2320.0000         45.481       82.52473         0.7182      -149.8303      -4.040359              1      0.9341819
      2320.5000        44.6694       80.34061         0.7177      -149.5259      -3.742706              1      0.9437836
      2321.0000        43.9065       78.28728         0.7163       -149.322      -3.545578      0.9635593      0.9501426
      2321.5000        43.4578       77.07758          0.712      -149.1077      -3.338028      0.9378209      0.9568378
      2322.0000        44.0514       78.66647         0.7073      -148.6982      -2.935287      0.9716269      0.9698294
      2322.5000        45.4073       82.30215         0.7022      -148.2639      -2.507751              1      0.9836209
      2323.0000        44.9749       81.13625         0.6977      -147.8372      -2.087814              1      0.9971673
      2323.5000        43.8804       78.19256         0.6938      -147.6189      -1.876266      0.9615438              1
      2324.0000        42.2091       73.70015         0.6967      -147.4436      -1.707733      0.8659607              1
      2324.5000        40.3395       68.67529         0.7015      -147.2437      -1.514587      0.7590488              1
      2325.0000           39.1       65.34227         0.7087      -146.9871      -1.264755      0.6881334              1
      2325.5000        38.1182       62.70118         0.7171      -146.5527     -0.8371124      0.6319401              1
      2326.0000        38.8713       64.71837         0.7247       -146.116     -0.4071655      0.6748589              1
      2326.5000        40.1209       68.06863         0.7287      -145.6677     0.03437805       0.746141              1
      2327.0000         41.682       72.25528         0.7328      -145.2437      0.4516144      0.8352187              1
      2327.5000        41.6985       72.29466         0.7443      -144.8762      0.8123627      0.8360566              1
      2328.0000        40.9532        70.2886         0.7573      -144.7898      0.8920135      0.7933746              1
      2328.5000        40.0048       67.73717         0.7797       -145.127      0.5480499      0.7390887              1
      2329.0000         39.282       65.79151         0.8002      -145.5649      0.1033936      0.6976917              1
      2329.5000        38.9612       64.92522         0.8121      -145.7947     -0.1331635        0.67926              1
      2330.0000        39.7349       66.99773         0.8135      -145.5928     0.06196594      0.7233559              1
      2330.5000        41.5801       71.94716          0.814      -145.4282      0.2198029      0.8286629              1
      2331.0000         43.325       76.62733         0.8143      -145.2598      0.3814545      0.9282411              1
      2331.5000         44.504       79.78806         0.8166      -145.0513      0.5831909      0.9954906              1
      2332.0000        44.8792       80.79052         0.8214      -144.8428      0.7849274              1              1
      2332.5000        44.4018       79.50377          0.831      -144.6316      0.9893646      0.9894419              1
      2333.0000        43.8998       78.15093         0.8437      -144.4199       1.194305      0.9606581              1
      2333.5000        43.5356       77.16814         0.8587      -144.2532       1.354248      0.9397476              1
      2334.0000        43.2043       76.27366         0.8759      -144.1338       1.466888      0.9207162              1
      2334.5000        42.8085         75.206          0.892       -144.168       1.425934          0.898              1
      2335.0000        42.2566       73.71922         0.9081      -144.3845       1.202667      0.8663663              1
      2335.5000        39.8815       67.33709         0.9222      -144.5969      0.9835205      0.7305764              1
      2336.0000        39.5884        66.5452         0.9364      -144.8096      0.7640533      0.7137276              1
      2336.5000        40.6412       69.36706         0.9499       -144.939      0.6279144      0.7737672              1
      2337.0000        41.6749        72.1376         0.9633      -144.9888      0.5713501       0.832715              1
      2337.5000        42.2584       73.69939         0.9718      -145.0386      0.5147858      0.8659446              1
      2338.0000         41.124       70.64857          0.975      -145.0686      0.4780273      0.8010335              1
      2338.5000        40.0579       67.78114         0.9769      -145.0952      0.4446716      0.7400243              1
      2339.0000        39.6135         66.583         0.9758      -145.0156      0.5175171      0.7145319              1
      2339.5000        40.0458        67.7388         0.9691      -144.7759      0.7504578      0.7391234              1
      2340.0000        40.7896       69.73099         0.9602      -144.3135       1.206085      0.7815104              1
      2340.5000        41.2885       71.06562         0.9498      -143.8745       1.638336      0.8099068              1
      2341.0000        41.7872       72.39971         0.9426      -143.7759       1.730179      0.8382918              1
      2341.5000        42.6281       74.65261         0.9364       -143.833       1.666321      0.8862258              1
      2342.0000        43.9093       78.08773         0.9341      -144.0317       1.460861      0.9593134              1
      2342.5000        43.3963       76.70537         0.9391      -144.2307       1.255096      0.9299014              1
      2343.0000        42.3392        73.8621         0.9485       -144.468       1.011032      0.8694063              1
