#------------------------------------------------------------------------------
# Created by    : vladimir.rabinovich
# Created on    : 09/19/2023 17:20:46
#------------------------------------------------------------------------------
~Version Information Section
VERS.           2.0     :   CWLS log ASCII Standard - VERSION 2.0
WRAP.           NO      :   One line per depth step
~Well Information Section
#MNEM       .UNIT                                         VALUE :DESCRIPTION
#------------------------------------------------------------------------------
STRT        .FT                                             695 :START DEPTH
STOP        .FT                                            9139 :STOP DEPTH
STEP        .FT                                             0.5 :STEP      
NULL        .                                           -999.25 :NULL      
COMP        .                   COASTAL STATES GAS TRANSMISSION :COMPANY   
WELL        .                                     ST TR 00592-L :WELL      
FLD         .                                           WILDCAT :FIELD     
LOC         .                                                   :LOCATION  
CNTY        .                      MATAGORDA ISLAND LARGE BLOCK :LOCATION  
STAT        .                                             TEXAS :STATE     
CTRY        .                                     UNITED STATES :COUNTRY   
SRVC        .                                                   :SERVICE COMPANY
DATE        .                             9/13/2023 11:12:01 AM :LOG DATE  
API         .                                    42703000420000 :API NUMBER
UWI         .                                    42703000420000 :UNIQUE WELL ID
XCOORD      .                                  562172.631053371 :SURFACE X 
YCOORD      .                                   10240692.584136 :SURFACE Y 
LAT         .                                        28.1787665 :LATITUDE  
LON         .                                       -96.3469802 :LONGITUDE 
ELEV        .FT                                              11 :ELEVATION VALUE
ELEV_TYPE   .                                                KB :ELEVATION REFERENCE TYPE
~Curve Information Section
#MNEM       .UNIT                                      API CODE :CURVE DESCRIPTION
#------------------------------------------------------------------------------
DEPT        .FT                                                 :DEPTH     
ASN         .OHMM                                               :          
CALI        .IN                                                 :          
CILD        .MMHO                                               :          
DT          .US/F                                               :          
ILD         .OHMM                                               :          
SP          .MV                                                 :          
SP_NORM     .MV                                                 :SP Normalized
VSH_SP      .V/V                                                :Volume of Shale from SP
~A        DEPTH            ASN           CALI           CILD             DT            ILD             SP        SP_NORM         VSH_SP
# ...
      1255.5000         0.7572         15.624       1263.012       180.8899         0.8051       -56.9789      -3.591999      0.8380001
      1256.0000         0.7563        15.6897       1258.965       180.1113         0.8173       -56.9789       -3.61121      0.8367994
      1256.5000         0.7559        15.7672       1254.916        183.615         0.8295       -56.9265      -3.578018      0.8388739
      1257.0000         0.7554        15.8636       1250.061       184.7019         0.8418       -56.8504      -3.521133      0.8424292
      1257.5000         0.7575        15.8848         1243.1       184.1343          0.854       -56.7743      -3.464245      0.8459847
      1258.0000         0.7635        15.8284       1236.137       181.6755         0.8579       -56.6982      -3.407356      0.8495402
      1258.5000         0.7695        15.7574       1226.939       182.9548         0.8494       -56.6221      -3.350471      0.8530955
      1259.0000         0.7753        15.7098       1215.529       179.6372         0.8408        -56.546      -3.293583      0.8566511
      1259.5000         0.7656        15.6883       1204.123       174.0913         0.8237       -56.4573      -3.224091      0.8609943
      1260.0000         0.7445        15.6858       1219.184       173.0874          0.803        -56.338      -3.124008      0.8672495
      1260.5000         0.7096        15.6891       1256.816       178.8738         0.7907       -56.2186      -3.023819      0.8735113
      1261.0000         0.6671        15.6911       1286.537       182.4116         0.7784       -56.0992       -2.92363      0.8797731
      1261.5000         0.6474        15.6561       1315.502       183.6216         0.7698       -55.9797      -2.823341      0.8860412
      1262.0000         0.6687        15.5852       1342.975       184.3484         0.7637       -55.8604      -2.723255      0.8922966
      1262.5000          0.724         15.646        1369.75       184.0354         0.7576        -55.741      -2.623066      0.8985584
      1263.0000         0.7265        15.8177       1396.529       183.1765         0.7501       -55.6077       -2.50898      0.9056888
      1263.5000         0.7126        15.9325        1430.26       181.9607         0.7427       -55.4601      -2.380589      0.9137132
      1264.0000         0.6987        15.9595       1461.465       180.4954         0.7352       -55.3125      -2.252201      0.9217374
      1264.5000         0.6848        15.9619       1463.783       179.0979         0.7337       -55.1649      -2.123817      0.9297614
      1265.0000         0.6674         15.883        1449.08       178.9309         0.7338       -55.0172      -1.995327      0.9377921
      1265.5000         0.6681        15.7291       1429.807       182.8137         0.7338       -54.8696      -1.866936      0.9458165
      1266.0000         0.6733        15.5908       1408.094       185.5564         0.7362       -54.7219      -1.738453      0.9538467
      1266.5000         0.6784        15.4298       1386.375       185.2295         0.7391       -54.4212      -1.456963      0.9714398
      1267.0000         0.6871        15.3041       1368.197       184.7729          0.742       -54.1021      -1.157074      0.9901829
      1267.5000         0.6959        15.3069       1357.729       184.1587         0.7605        -53.783     -0.8571892              1
      1268.0000         0.7022        15.4743       1348.164       184.7351          0.779       -53.4639     -0.5573006              1
      1268.5000          0.702        15.6806       1350.025       187.8958         0.7933       -53.1448     -0.2574081              1
      1269.0000         0.6929        15.8189       1362.604       190.3794         0.8014       -52.7899     0.07827377              1
      1269.5000         0.6849        15.9391       1388.006       195.4849          0.802       -52.3499      0.4990654              1
      1270.0000         0.6769        15.9409       1412.854       196.3977         0.7915       -51.9098      0.9199524              1
      1270.5000         0.6689        15.9443       1433.867       195.8301          0.781       -51.4697       1.340839              1
      1271.0000         0.6721        15.9477       1438.088       194.8521         0.7705       -51.0297       1.761627              1
      1271.5000         0.6754         15.951       1426.373       193.2966         0.7663        -50.863       1.909119              1
      1272.0000         0.6787        15.9544       1414.654       195.1611         0.7664       -50.9689       1.784004              1
      1272.5000          0.682        15.9578       1399.633       193.3738         0.7664       -51.0747       1.658993              1
      1273.0000         0.6859        15.9612       1378.551       187.3169         0.7665       -51.1805       1.533981              1
      1273.5000         0.6902        15.9646       1357.467       185.3423         0.7713       -51.2864       1.408867              1
      1274.0000         0.6944         15.968       1337.359       187.1355         0.7773       -51.4593       1.216755              1
      1274.5000         0.6994        15.9714       1317.643       190.0913         0.7834       -51.6396       1.017246              1
      1275.0000         0.7049        15.9748       1289.402       184.8167         0.7894       -51.8199      0.8177299              1
      1275.5000         0.7104        15.7978       1263.535       180.1584         0.8021       -52.0002      0.6182213              1
      1276.0000         0.7159        15.6391       1241.154       178.0408         0.8164       -52.1805      0.4187088              1
      1276.5000         0.7253        15.5108       1265.059       176.3262         0.8308       -52.2963      0.2836952              1
      1277.0000         0.7357        15.4061       1308.471        176.801         0.8272        -52.347      0.2137833              1
      1277.5000         0.7451        15.4733       1345.834       180.5312         0.8236       -52.3978      0.1437721              1
      1278.0000         0.7446        15.6474       1380.029        179.801         0.8142       -52.4485     0.07385635              1
      1278.5000         0.7296        15.8165        1414.42       178.7871         0.8033       -52.4992    0.003948212              1
      1279.0000         0.7146        15.9499        1460.15       177.9348         0.7924       -52.5499    -0.06596375              1
      1279.5000         0.7008        15.9585       1477.941        177.106         0.7815       -52.5983     -0.1335793              1
      1280.0000         0.6916        15.9597       1460.557       177.5894         0.7686       -52.6245     -0.1789894              1
      1280.5000         0.6823        15.9181       1408.779       178.5347         0.7526       -52.6506     -0.2243004              1
      1281.0000         0.6959        15.8714       1355.635       179.5559         0.7471       -52.6768     -0.2697144              1
      1281.5000         0.7181        15.7777       1310.346        176.614         0.7571        -52.703     -0.3151245              1
      1282.0000         0.7454          15.75       1259.279       175.1614         0.7944       -52.7292     -0.3605347              1
      1282.5000         0.7775        15.7844       1197.018       174.4778         0.8385       -52.7554     -0.4059525              1
      1283.0000         0.7996        15.8279       1107.713       175.0103         0.8847       -52.8163     -0.4860611              1
      1283.5000         0.8228        15.8436       1055.775       172.7249         0.9314       -52.8812     -0.5701714              1
      1284.0000         0.8468        15.8519       1005.074       166.0615         0.9711       -52.9462     -0.6543884              1
      1284.5000         0.8798         15.906       958.7656       157.3835         1.0003       -53.0111     -0.7384987              1
