#------------------------------------------------------------------------------
# Created by    : vladimir.rabinovich
# Created on    : 09/19/2023 17:20:46
#------------------------------------------------------------------------------
~Version Information Section
VERS.           2.0     :   CWLS log ASCII Standard - VERSION 2.0
WRAP.           NO      :   One line per depth step
~Well Information Section
#MNEM       .UNIT                                         VALUE :DESCRIPTION
#------------------------------------------------------------------------------
STRT        .FT                                            1957 :START DEPTH
STOP        .FT                                            6608 :STOP DEPTH
STEP        .FT                                             0.5 :STEP      
NULL        .                                           -999.25 :NULL      
COMP        .                            HIGHLAND RESOURCES INC :COMPANY   
WELL        .                                     ST TR 00691-L :WELL      
FLD         .                                           WILDCAT :FIELD     
LOC         .                                                   :LOCATION  
CNTY        .                      MATAGORDA ISLAND LARGE BLOCK :LOCATION  
STAT        .                                             TEXAS :STATE     
CTRY        .                                     UNITED STATES :COUNTRY   
SRVC        .                                                   :SERVICE COMPANY
DATE        .                             9/13/2023 11:12:01 AM :LOG DATE  
API         .                                    42703000470000 :API NUMBER
UWI         .                                    42703000470000 :UNIQUE WELL ID
XCOORD      .                                  404407.912506245 :SURFACE X 
YCOORD      .                                  10154689.9311845 :SURFACE Y 
LAT         .                                        27.9298131 :LATITUDE  
LON         .                                       -96.8274765 :LONGITUDE 
ELEV        .FT                                              63 :ELEVATION VALUE
ELEV_TYPE   .                                                KB :ELEVATION REFERENCE TYPE
~Curve Information Section
#MNEM       .UNIT                                      API CODE :CURVE DESCRIPTION
#------------------------------------------------------------------------------
DEPT        .FT                                                 :DEPTH     
ASN         .OHMM                                               :          
CILD        .MMHO                                               :          
ILD         .OHMM                                               :          
SP          .MV                                                 :          
SP_NORM     .MV                                                 :SP Normalized
VSH_SP      .V/V                                                :Volume of Shale from SP
~A        DEPTH            ASN           CILD            ILD             SP        SP_NORM         VSH_SP
# ...
      3781.0000          2.041        914.252         0.8574      -125.8276       -50.0429      0.2978671
      3781.5000         2.0305       1022.265         0.7885      -123.9137       -48.1219      0.3265388
      3782.0000           2.02       1130.275         0.7314      -126.7614       -50.9626      0.2841403
      3782.5000         2.0095       1238.287         0.7488      -128.9233       -53.1174      0.2519791
      3783.0000         1.9989       1327.602         0.7738      -128.7019        -52.889      0.2553881
      3783.5000         1.8561       1347.109         0.7988      -128.4805       -52.6606       0.258797
      3784.0000         1.8022       1368.846         0.8238       -128.259        -52.432       0.262209
      3784.5000         1.7769       1328.871         0.8484      -128.0378       -52.2038      0.2656149
      3785.0000         1.8443       1281.936         0.8678      -127.8164       -51.9753      0.2690254
      3785.5000         1.9694        1222.75         0.8871       -127.595       -51.7469      0.2724344
      3786.0000         1.9885        1158.66         0.9065      -127.3737       -51.5186      0.2758418
      3786.5000         2.0076       1111.303         0.9258      -127.1523       -51.2901      0.2792522
      3787.0000          2.027       1086.996         0.9122      -127.2312        -51.362      0.2781791
      3787.5000         2.0111       1122.807         0.8811       -127.385       -51.5087      0.2759895
      3788.0000         1.9689       1171.385         0.8499      -127.5386       -51.6553      0.2738015
      3788.5000         1.8762       1226.734         0.8188      -128.3899       -52.4995      0.2612015
      3789.0000         1.6383       2009.271         0.7876      -129.6414        -53.744      0.2426269
      3789.5000         1.6817       2259.855         0.7373      -130.8921       -54.9877      0.2240642
      3790.0000         1.7344       2510.438         0.6857      -131.7542       -55.8427       0.211303
      3790.5000         1.8011       2495.473         0.6341      -132.0391       -56.1206      0.2071552
      3791.0000         1.8128        2451.43         0.5824       -132.324       -56.3985      0.2030075
      3791.5000         1.7559       2398.879         0.5308       -132.698       -56.7654      0.1975313
      3792.0000         1.6955       2372.758         0.4792      -133.1809       -57.2413      0.1904284
      3792.5000         1.6352       2350.699         0.4276      -133.6638       -57.7171      0.1833269
      3793.0000         1.4645       2374.043         0.4009       -134.147       -58.1933      0.1762194
      3793.5000         1.2606       2462.035         0.3837      -135.0664       -59.1057      0.1626015
      3794.0000         1.2004       2519.254         0.3665      -136.1401       -60.1723      0.1466821
      3794.5000         1.1794       2562.504         0.3492      -136.9062       -60.9314      0.1353522
      3795.0000         1.1584       2605.727          0.332      -137.4939        -61.512      0.1266866
      3795.5000         1.1375       2648.977         0.3208      -138.0813       -62.0924      0.1180239
      3796.0000         1.1245       2831.238         0.3189      -138.6689       -62.6729      0.1093597
      3796.5000         1.1131       2830.496         0.3171      -139.2563       -63.2533       0.100697
      3797.0000         1.1016       2810.969         0.3153      -140.2903       -64.2803     0.08536872
      3797.5000         1.0931        2790.84         0.3134      -141.3416       -65.3245     0.06978357
      3798.0000         1.0987       2770.719         0.3253      -142.6626       -66.6385      0.0501717
      3798.5000         1.1276        2750.59         0.3569      -144.2856       -68.2544      0.0260537
      3799.0000         1.1566       2490.918         0.3884      -142.9768       -66.9386     0.04569256
      3799.5000         1.2067       2194.121           0.42      -141.7864       -65.7412     0.06356413
      3800.0000         1.2619       2017.938         0.4434       -140.595       -64.5427     0.08145221
      3800.5000         1.3171       1976.504         0.4606      -139.4045       -63.3452     0.09932538
      3801.0000         1.3217       1947.635         0.4778      -139.6501       -63.5837     0.09576569
      3801.5000         1.3098       1967.441         0.4845      -140.3188       -64.2454     0.08588956
      3802.0000         1.2493       1994.184         0.4483      -140.9883       -64.9079     0.07600152
      3802.5000         1.1783       2070.723          0.412       -141.657       -65.5695     0.06612681
      3803.0000         1.1028       2412.438         0.3756      -142.3093       -66.2148     0.05649555
      3803.5000         1.0349       2960.613          0.339      -142.9238       -66.8222      0.0474299
      3804.0000         0.9977       3232.559         0.3024      -143.5386         -67.43      0.0383582
      3804.5000         0.9692       3282.406         0.2658      -144.1528       -68.0372     0.02929551
      3805.0000         0.9661       3317.242         0.2292      -144.7673       -68.6446     0.02022985
      3805.5000         0.9669       3351.652         0.1926      -145.3821       -69.2524     0.01115816
      3806.0000          0.967       3381.707           0.17      -145.9514       -69.8146    0.002767193
      3806.5000         0.9575       3419.625         0.1565      -146.4988        -70.355              0
      3807.0000         0.9481       3336.289         0.1429      -147.0469        -70.896              0
      3807.5000         0.9386       3192.176         0.1741      -147.5227       -71.3648              0
      3808.0000         0.9143       2886.313         0.2294      -147.9958       -71.8309              0
      3808.5000         0.8657       2629.555         0.2846      -145.4927       -69.3207     0.01013878
      3809.0000         0.8198       2372.797         0.3399      -142.2966       -66.1176     0.05794628
      3809.5000         0.7774       2116.238         0.3952      -113.5327       -37.3466      0.4873642
      3810.0000         0.7351       1993.285         0.4506      -110.3367       -34.1436      0.5351701
      3810.5000         0.6993       1997.898          0.506      -108.1633       -31.9632      0.5677134
      3811.0000         0.7034       2002.512         0.5613      -105.9271       -29.7199      0.6011955
      3811.5000         0.7341       1892.037         0.6049      -103.4037       -27.1895      0.6389627
      3812.0000         0.7651       1770.629         0.6436      -100.9431       -24.7218       0.675794
      3812.5000         0.8004       1649.121         0.6751       -98.5234       -22.2951      0.7120134
      3813.0000         0.8357       1527.715         0.7033       -95.8944       -19.6591      0.7513567
      3813.5000         0.8711       1406.307         0.7009       -92.3556       -16.1132      0.8042806
      3814.0000         0.9064       1358.053         0.6654       -89.0206       -12.7712      0.8541612
      3814.5000         0.9497       1457.201         0.6295       -86.4249       -10.1684      0.8843806
      3815.0000         1.0384       1556.348         0.5915       -93.6415        -17.378      0.7680967
      3815.5000         1.0579       1655.545         0.5535      -103.5426       -27.2721      0.6085145
      3816.0000         1.0646       1754.693         0.5155      -113.4363       -37.1587      0.4490532
      3816.5000         1.0558       1853.842         0.4774      -123.3375       -47.0529      0.2894694
      3817.0000         1.0432       1953.039         0.4448      -125.3579       -49.0662      0.2569968
      3817.5000         1.0307       2040.125          0.415      -126.8503       -50.5516      0.2330387
      3818.0000         1.0185        2117.75         0.3853      -128.8828        -52.577       0.200371
      3818.5000         1.0065       2195.375         0.3555       -132.127       -55.8142       0.148158
