#------------------------------------------------------------------------------
# Created by    : vladimir.rabinovich
# Created on    : 09/19/2023 17:19:56
#------------------------------------------------------------------------------
~Version Information Section
VERS.           2.0     :   CWLS log ASCII Standard - VERSION 2.0
WRAP.           NO      :   One line per depth step
~Well Information Section
#MNEM       .UNIT                                         VALUE :DESCRIPTION
#------------------------------------------------------------------------------
STRT        .FT                                             748 :START DEPTH
STOP        .FT                                            7997 :STOP DEPTH
STEP        .FT                                             0.5 :STEP      
NULL        .                                           -999.25 :NULL      
COMP        .                                        EXXON CORP :COMPANY   
WELL        .                                     ST TR 00560-L :WELL      
FLD         .                                           WILDCAT :FIELD     
LOC         .                                                   :LOCATION  
CNTY        .                      MATAGORDA ISLAND LARGE BLOCK :LOCATION  
STAT        .                                             TEXAS :STATE     
CTRY        .                                     UNITED STATES :COUNTRY   
SRVC        .                                                   :SERVICE COMPANY
DATE        .                             9/13/2023 11:19:05 AM :LOG DATE  
API         .                                    42703302000000 :API NUMBER
UWI         .                                    42703302000000 :UNIQUE WELL ID
XCOORD      .                                  556028.985600478 :SURFACE X 
YCOORD      .                                   10283706.324983 :SURFACE Y 
LAT         .                                        28.2964478 :LATITUDE  
LON         .                                       -96.3697382 :LONGITUDE 
ELEV        .FT                                              92 :ELEVATION VALUE
ELEV_TYPE   .                                                KB :ELEVATION REFERENCE TYPE
~Curve Information Section
#MNEM       .UNIT                                      API CODE :CURVE DESCRIPTION
#------------------------------------------------------------------------------
DEPT        .FT                                                 :DEPTH     
ASFL        .OHMM                                               :          
CILD        .MMHO                                               :          
DT          .US/F                                               :          
GR          .GAPI                                               :          
GR_NORM     .GAPI                                               :GammaRay Normalized
ILD         .OHMM                                               :          
SP          .MV                                                 :          
SP_NORM     .MV                                                 :SP Normalized
VSH_GR      .V/V                                                :Volume of Shale from GR
VSH_SP      .V/V                                                :Volume of Shale from SP
~A        DEPTH           ASFL           CILD             DT             GR        GR_NORM            ILD             SP        SP_NORM         VSH_GR         VSH_SP
# ...
      7975.5000         1.1032       936.8145        -999.25        -999.25        -999.25          0.924       -41.3607      -1.839741        -999.25      0.9857671
      7976.0000         1.1203       925.1299        -999.25        -999.25        -999.25         0.9549       -41.8459      -2.324944        -999.25      0.9775434
      7976.5000         1.1374       913.4443        -999.25        -999.25        -999.25         0.9859       -42.2307      -2.709743        -999.25      0.9710213
      7977.0000         1.1545       901.7598        -999.25        -999.25        -999.25         1.0193       -42.6162      -3.095242        -999.25      0.9644874
      7977.5000         1.1796       890.0742        -999.25        -999.25        -999.25         1.0558        -43.001      -3.480042        -999.25      0.9579654
      7978.0000         1.2048       877.3242        -999.25        -999.25        -999.25         1.0922        -43.212      -3.691044        -999.25      0.9543891
      7978.5000         1.2188       862.9844        -999.25        -999.25        -999.25         1.1286       -42.9238      -3.402843        -999.25      0.9592738
      7979.0000         1.2296       848.6689        -999.25        -999.25        -999.25         1.1587         -41.72      -2.199043        -999.25      0.9796773
      7979.5000         1.2396       834.3525        -999.25        -999.25        -999.25         1.1726       -40.4214     -0.9004402        -999.25              1
      7980.0000          1.247       818.8623        -999.25        -999.25        -999.25         1.1866       -39.1821      0.3388596        -999.25              1
      7980.5000         1.2545       803.2256        -999.25        -999.25        -999.25         1.1945       -38.8994      0.6215591        -999.25              1
      7981.0000          1.262       810.9092        -999.25        -999.25        -999.25          1.178       -38.6166      0.9043579        -999.25              1
      7981.5000         1.2757        827.085        -999.25        -999.25        -999.25         1.1615       -38.4054       1.115559        -999.25              1
      7982.0000         1.2902        855.374        -999.25        -999.25        -999.25         1.1405       -38.5511      0.9698563        -999.25              1
      7982.5000         1.1237       890.0742        -999.25        -999.25        -999.25         1.1118       -38.6969      0.8240585        -999.25              1
      7983.0000         1.0947       924.7744        -999.25        -999.25        -999.25         1.0833       -38.8427       0.678257        -999.25              1
      7983.5000         1.0602       959.4756        -999.25        -999.25        -999.25         1.0546       -38.9884      0.5325584        -999.25              1
      7984.0000         1.0195        994.127        -999.25        -999.25        -999.25         1.0145       -39.1342      0.3867569        -999.25              1
      7984.5000         0.9844       1034.014        -999.25        -999.25        -999.25         0.9742       -39.2985      0.2224579        -999.25              1
      7985.0000         0.9507       1080.217        -999.25        -999.25        -999.25         0.9339       -39.5046     0.01635742        -999.25              1
      7985.5000         0.9224       1126.467        -999.25        -999.25        -999.25         0.8869       -39.7107      -0.189743        -999.25              1
      7986.0000         0.8956       1164.643        -999.25        -999.25        -999.25         0.8303       -39.9168     -0.3958435        -999.25              1
      7986.5000         0.8775       1195.379        -999.25        -999.25        -999.25         0.7738       -40.1229     -0.6019402        -999.25              1
      7987.0000           0.86       1226.164        -999.25        -999.25        -999.25         0.7561        -40.329     -0.8080406        -999.25              1
      7987.5000         0.8568       1256.949        -999.25        -999.25        -999.25         0.7444       -40.5527      -1.031742        -999.25       0.999462
      7988.0000         0.8536       1287.734        -999.25        -999.25        -999.25         0.7327       -40.9449      -1.423943        -999.25      0.9928145
      7988.5000         0.8503       1317.418        -999.25        -999.25        -999.25         0.7211        -41.337      -1.816044        -999.25      0.9861687
      7989.0000         0.8471       1338.586        -999.25        -999.25        -999.25         0.7109       -41.7292      -2.208241        -999.25      0.9795213
      7989.5000         0.8453       1316.439        -999.25        -999.25        -999.25         0.7064       -40.8786      -1.357643        -999.25      0.9939383
      7990.0000         0.8491       1293.607        -999.25        -999.25        -999.25         0.7018       -39.9217     -0.4007416        -999.25              1
      7990.5000         0.8529       1270.775        -999.25        -999.25        -999.25         0.6972       -39.1702      0.3507576        -999.25              1
      7991.0000         0.8567       1247.943        -999.25        -999.25        -999.25         0.6926       -38.6091      0.9118576        -999.25              1
      7991.5000         0.8605       1225.111        -999.25        -999.25        -999.25         0.6881       -38.2633       1.257656        -999.25              1
      7992.0000         0.8643       1247.063        -999.25        -999.25        -999.25         0.6835       -38.2824        1.23856        -999.25              1
      7992.5000         0.8681       1276.527        -999.25        -999.25        -999.25         0.6857       -38.3015        1.21946        -999.25              1
      7993.0000         0.8719       1306.039        -999.25        -999.25        -999.25         0.6945       -38.3206       1.200359        -999.25              1
      7993.5000         0.8817       1336.629        -999.25        -999.25        -999.25         0.7033       -38.3397       1.181259        -999.25              1
      7994.0000         0.8373       1364.477        -999.25        -999.25        -999.25         0.7121       -38.3587       1.162258        -999.25              1
      7994.5000         0.8165       1380.922        -999.25        -999.25        -999.25         0.7209       -38.3778       1.143158        -999.25              1
      7995.0000         0.7957       1397.342        -999.25        -999.25        -999.25         0.7298       -38.3969       1.124058        -999.25              1
      7995.5000         0.7891       1413.787        -999.25        -999.25        -999.25         0.7386       -38.5081       1.012859        -999.25              1
      7996.0000         0.7831        1418.35        -999.25        -999.25        -999.25         0.7474       -38.7668       0.754158        -999.25              1
      7996.5000          0.777       1422.682        -999.25        -999.25        -999.25         0.7365       -39.0252      0.4957581        -999.25              1
      7997.0000          0.771       1427.008        -999.25        -999.25        -999.25         0.7241       -39.2836      0.2373581        -999.25              1
