#------------------------------------------------------------------------------
# Created by    : vladimir.rabinovich
# Created on    : 09/19/2023 17:20:46
#------------------------------------------------------------------------------
~Version Information Section
VERS.           2.0     :   CWLS log ASCII Standard - VERSION 2.0
WRAP.           NO      :   One line per depth step
~Well Information Section
#MNEM       .UNIT                                         VALUE :DESCRIPTION
#------------------------------------------------------------------------------
STRT        .FT                                            1000 :START DEPTH
STOP        .FT                                            6719 :STOP DEPTH
STEP        .FT                                             0.5 :STEP      
NULL        .                                           -999.25 :NULL      
COMP        .                                 CALIFORNIA CO THE :COMPANY   
WELL        .                                     ST TR 00695-L :WELL      
FLD         .                                           WILDCAT :FIELD     
LOC         .                                                   :LOCATION  
CNTY        .                      MATAGORDA ISLAND LARGE BLOCK :LOCATION  
STAT        .                                             TEXAS :STATE     
CTRY        .                                     UNITED STATES :COUNTRY   
SRVC        .                                                   :SERVICE COMPANY
DATE        .                             9/13/2023 11:12:01 AM :LOG DATE  
API         .                                    42703000270000 :API NUMBER
UWI         .                                    42703000270000 :UNIQUE WELL ID
XCOORD      .                                   404842.11633791 :SURFACE X 
YCOORD      .                                  10151340.1845366 :SURFACE Y 
LAT         .                                        27.9206537 :LATITUDE  
LON         .                                       -96.8258101 :LONGITUDE 
ELEV        .FT                                              11 :ELEVATION VALUE
ELEV_TYPE   .                                                KB :ELEVATION REFERENCE TYPE
~Curve Information Section
#MNEM       .UNIT                                      API CODE :CURVE DESCRIPTION
#------------------------------------------------------------------------------
DEPT        .FT                                                 :DEPTH     
ASN         .OHMM                                               :          
CILD        .MMHO                                               :          
ILD         .OHMM                                               :          
SP          .MV                                                 :          
SP_NORM     .MV                                                 :SP Normalized
VSH_SP      .V/V                                                :Volume of Shale from SP
~A        DEPTH            ASN           CILD            ILD             SP        SP_NORM         VSH_SP
# ...
      6700.0000          1.124       1291.715         0.9271       -51.8298        -3.3468      0.9827333
      6700.5000         1.1914       1227.225         1.0342       -50.5258        -1.9787              1
      6701.0000         1.2817       1151.854         1.1309       -49.8051        -1.1939              1
      6701.5000         1.3816       1065.203         1.1992       -49.0843         -0.409              1
      6702.0000         1.4889       968.0693         1.2674       -48.5823         0.1571              1
      6702.5000         1.5777       850.6709         1.3354       -48.9632        -0.1598              1
      6703.0000         1.6948       744.2539         1.3886       -49.3442        -0.4767              1
      6703.5000           1.74       691.5439         1.4417       -49.7251        -0.7935              1
      6704.0000          1.768       649.3164         1.4949        -50.106        -1.1103              1
      6704.5000         1.7901       618.1943          1.548       -50.4866          -1.43              1
      6705.0000         1.8009       620.8652         1.6011       -50.8676         -1.811              1
      6705.5000         1.8116       652.6602         1.5675       -51.2012        -2.1446      0.9981462
      6706.0000         1.8214       692.8916         1.4865       -51.5108        -2.4542      0.9941769
      6706.5000         1.6793       735.5186         1.4031       -51.8204        -2.7638      0.9902077
      6707.0000          1.673       778.1455          1.313       -52.1301        -3.0735      0.9862372
      6707.5000         1.6459       820.7725         1.2228       -52.4398        -3.3832      0.9822667
      6708.0000         1.6209       865.6455         1.1501       -52.7491        -3.6925      0.9783013
      6708.5000          1.596       921.5498         1.0935       -53.0588        -4.0022      0.9743308
      6709.0000           1.57       977.4531         1.0399       -53.6068        -4.5502      0.9673051
      6709.5000         1.5162       1033.307         1.0103       -54.1794        -5.1228      0.9599641
      6710.0000          1.452       1065.957         1.0056       -54.7521        -5.6955      0.9526218
      6710.5000         1.3781       1065.727          1.028       -55.3247        -6.2681      0.9452808
      6711.0000         1.3361        1039.82         1.0504       -55.8898        -6.8332      0.9380359
      6711.5000          1.294        1013.94         1.0728       -56.4979        -7.4413      0.9302397
      6712.0000         1.2707       988.0352         1.0944       -57.1633        -8.1067       0.921709
      6712.5000         1.2678       962.1299         1.1138       -57.8281        -8.7715      0.9131859
      6713.0000         1.2812        936.249         1.1331       -58.4935        -9.4369      0.9046551
      6713.5000         1.2946        907.374         1.1525       -59.1588       -10.1022      0.8961257
      6714.0000           1.31       877.7998         1.1719       -59.7215       -10.6649      0.8889115
      6714.5000         1.3256       848.2256         1.1912       -60.1149       -11.0583      0.8838679
      6715.0000         1.3412       818.6504         1.2017       -60.5082       -11.4516      0.8788257
      6715.5000         1.3568       798.6104         1.2123       -60.2636        -11.207      0.8819615
      6716.0000         1.3704       782.5381         1.2245       -59.7725       -10.7159      0.8882577
      6716.5000         1.3803       766.4658         1.2535        -59.282       -10.2254      0.8945462
      6717.0000         1.3902       751.0166         1.2805       -58.7474        -9.6908         0.9014
      6717.5000            1.4        736.791         1.2992       -58.2121        -9.1555      0.9082628
      6718.0000         1.4099       722.5781         1.3135       -57.6768        -8.6202      0.9151257
      6718.5000         1.4316       708.3525         1.3236       -57.1409        -8.0843      0.9219962
      6719.0000         1.4567       737.6396         1.3242       -56.6057        -7.5491      0.9288577
