#------------------------------------------------------------------------------
# Created by    : vladimir.rabinovich
# Created on    : 09/19/2023 17:19:56
#------------------------------------------------------------------------------
~Version Information Section
VERS.           2.0     :   CWLS log ASCII Standard - VERSION 2.0
WRAP.           NO      :   One line per depth step
~Well Information Section
#MNEM       .UNIT                                         VALUE :DESCRIPTION
#------------------------------------------------------------------------------
STRT        .FT                                             748 :START DEPTH
STOP        .FT                                            7997 :STOP DEPTH
STEP        .FT                                             0.5 :STEP      
NULL        .                                           -999.25 :NULL      
COMP        .                                        EXXON CORP :COMPANY   
WELL        .                                     ST TR 00560-L :WELL      
FLD         .                                           WILDCAT :FIELD     
LOC         .                                                   :LOCATION  
CNTY        .                      MATAGORDA ISLAND LARGE BLOCK :LOCATION  
STAT        .                                             TEXAS :STATE     
CTRY        .                                     UNITED STATES :COUNTRY   
SRVC        .                                                   :SERVICE COMPANY
DATE        .                             9/13/2023 11:19:05 AM :LOG DATE  
API         .                                    42703302000000 :API NUMBER
UWI         .                                    42703302000000 :UNIQUE WELL ID
XCOORD      .                                  556028.985600478 :SURFACE X 
YCOORD      .                                   10283706.324983 :SURFACE Y 
LAT         .                                        28.2964478 :LATITUDE  
LON         .                                       -96.3697382 :LONGITUDE 
ELEV        .FT                                              92 :ELEVATION VALUE
ELEV_TYPE   .                                                KB :ELEVATION REFERENCE TYPE
~Curve Information Section
#MNEM       .UNIT                                      API CODE :CURVE DESCRIPTION
#------------------------------------------------------------------------------
DEPT        .FT                                                 :DEPTH     
ASFL        .OHMM                                               :          
CILD        .MMHO                                               :          
DT          .US/F                                               :          
GR          .GAPI                                               :          
GR_NORM     .GAPI                                               :GammaRay Normalized
ILD         .OHMM                                               :          
SP          .MV                                                 :          
SP_NORM     .MV                                                 :SP Normalized
VSH_GR      .V/V                                                :Volume of Shale from GR
VSH_SP      .V/V                                                :Volume of Shale from SP
~A        DEPTH           ASFL           CILD             DT             GR        GR_NORM            ILD             SP        SP_NORM         VSH_GR         VSH_SP
# ...
      7020.0000         1.2805       776.8691        -999.25        -999.25        -999.25         0.9925       -46.3309       -4.41473        -999.25      0.9421232
      7020.5000         1.1968       816.5625        -999.25        -999.25        -999.25         0.9585       -43.9987      -2.082531        -999.25       0.981652
      7021.0000         1.1608       857.2822        -999.25        -999.25        -999.25         0.9401       -42.3818     -0.4656334        -999.25              1
      7021.5000         1.1482       898.0518        -999.25        -999.25        -999.25         0.9332       -42.3845     -0.4683304        -999.25              1
      7022.0000         1.1479       938.7725        -999.25        -999.25        -999.25         0.9263       -42.3872     -0.4710312        -999.25              1
      7022.5000         1.1476       970.9766        -999.25        -999.25        -999.25         0.9201         -42.39     -0.4738312        -999.25              1
      7023.0000         1.1321       1001.273        -999.25        -999.25        -999.25         0.9158       -42.5679     -0.6517334        -999.25              1
      7023.5000         1.0736       1028.533        -999.25        -999.25        -999.25         0.9116       -42.7603     -0.8441315        -999.25              1
      7024.0000         1.0461       1048.502        -999.25        -999.25        -999.25         0.9073        -42.953      -1.036831        -999.25      0.9993758
      7024.5000         1.0264       1068.445        -999.25        -999.25        -999.25         0.9031       -43.1454      -1.229233        -999.25      0.9961147
      7025.0000         1.0096       1079.422        -999.25        -999.25        -999.25         0.9007       -43.4376      -1.521431        -999.25      0.9911622
      7025.5000         0.9974       1087.938        -999.25        -999.25        -999.25         0.8989       -44.1021      -2.185932        -999.25      0.9798995
      7026.0000         0.9907       1096.453        -999.25        -999.25        -999.25         0.8971       -44.7666      -2.850433        -999.25      0.9686368
      7026.5000         0.9841       1104.969        -999.25        -999.25        -999.25         0.8953        -45.397      -3.480831        -999.25       0.957952
      7027.0000         0.9857       1104.676        -999.25        -999.25        -999.25         0.8892       -46.0148      -4.098633        -999.25      0.9474808
      7027.5000         0.9873       1098.252        -999.25        -999.25        -999.25          0.881       -46.6324      -4.716232        -999.25       0.937013
      7028.0000         0.9897       1091.834        -999.25        -999.25        -999.25         0.8727       -46.6995      -4.783333        -999.25      0.9358757
      7028.5000           1.01       1062.352        -999.25        -999.25        -999.25         0.9026       -46.7022      -4.786034        -999.25      0.9358299
      7029.0000         1.0341       996.2803        -999.25        -999.25        -999.25          0.938       -46.7049      -4.788731        -999.25      0.9357842
      7029.5000         1.1482       896.4365        -999.25        -999.25        -999.25         0.9768       -46.7076      -4.791431        -999.25      0.9357384
      7030.0000         1.3534       826.6934        -999.25        -999.25        -999.25         1.0441       -45.8226      -3.906433        -999.25      0.9507384
      7030.5000          1.504       788.5176        -999.25        -999.25        -999.25         1.1114         -44.89      -2.973831        -999.25      0.9665452
      7031.0000         1.5499       754.3555        -999.25        -999.25        -999.25         1.1787       -43.3105      -1.394333        -999.25      0.9933164
      7031.5000         1.6039       733.3594        -999.25        -999.25        -999.25         1.2414       -42.4754     -0.5592308        -999.25              1
      7032.0000          1.453       711.1025        -999.25        -999.25        -999.25         1.3014       -42.4122     -0.4960327        -999.25              1
      7032.5000         1.3314       701.6562        -999.25        -999.25        -999.25         1.2976        -42.349     -0.4328308        -999.25              1
      7033.0000         1.2824       692.2227        -999.25        -999.25        -999.25         1.2456       -42.2858     -0.3696327        -999.25              1
      7033.5000         1.2501       723.3262        -999.25        -999.25        -999.25         1.1759       -42.3894     -0.4732323        -999.25              1
      7034.0000         1.2127       761.9912        -999.25        -999.25        -999.25         1.1062       -42.6633     -0.7471313        -999.25              1
      7034.5000         1.1817       794.4893        -999.25        -999.25        -999.25         1.0603       -42.9372       -1.02103        -999.25      0.9996436
      7035.0000         1.1916       814.0908        -999.25        -999.25        -999.25         1.0189       -43.2111      -1.294933        -999.25      0.9950011
      7035.5000         1.2014        833.417        -999.25        -999.25        -999.25         1.0113       -43.8516      -1.935432        -999.25      0.9841452
      7036.0000         1.2113       840.2754        -999.25        -999.25        -999.25         1.0133       -44.5289      -2.612732        -999.25      0.9726655
      7036.5000         1.2211       847.1328        -999.25        -999.25        -999.25         1.0401       -45.2068       -3.29063        -999.25      0.9611757
      7037.0000          1.231       853.9971        -999.25        -999.25        -999.25         1.0757       -45.8524      -3.936234        -999.25      0.9502333
      7037.5000         1.2409       855.6309        -999.25        -999.25        -999.25         1.1113       -46.4829       -4.56673        -999.25      0.9395469
      7038.0000         1.2507       849.4395        -999.25        -999.25        -999.25         1.1469       -47.1133      -5.197132        -999.25      0.9288622
      7038.5000         1.2606        843.248        -999.25        -999.25        -999.25         1.1839       -48.9157      -6.999531        -999.25       0.898313
      7039.0000         1.3081       837.0635        -999.25        -999.25        -999.25         1.2304       -48.5649      -6.648731        -999.25      0.9042588
      7039.5000         1.3801       810.8359        -999.25        -999.25        -999.25          1.277       -48.1098       -6.19363        -999.25      0.9119723
      7040.0000         1.4521       780.1973        -999.25        -999.25        -999.25         1.3235       -47.1881      -5.271931        -999.25      0.9275944
      7040.5000          1.524       749.6084        -999.25        -999.25        -999.25         1.3783       -46.2677      -4.351532        -999.25      0.9431944
      7041.0000         1.5711       719.3369        -999.25        -999.25        -999.25         1.4564       -45.3472       -3.43103        -999.25      0.9587961
      7041.5000         1.5905       691.2686        -999.25        -999.25        -999.25         1.5343       -44.8055      -2.889332        -999.25      0.9679774
      7042.0000         1.6091       663.2002        -999.25        -999.25        -999.25         1.6123       -44.6798       -2.76363        -999.25       0.970108
      7042.5000         1.6481       647.4766        -999.25        -999.25        -999.25         1.6818       -44.5543       -2.63813        -999.25      0.9722351
      7043.0000         1.7307       636.4648        -999.25        -999.25        -999.25          1.618       -44.4285      -2.512333        -999.25      0.9743673
      7043.5000         1.7609       625.4404        -999.25        -999.25        -999.25         1.5542       -44.3528       -2.43663        -999.25      0.9756503
      7044.0000          1.793       619.8701        -999.25        -999.25        -999.25         1.4904       -44.3203      -2.404133        -999.25      0.9762011
