#------------------------------------------------------------------------------
# Created by    : vladimir.rabinovich
# Created on    : 09/19/2023 17:19:56
#------------------------------------------------------------------------------
~Version Information Section
VERS.           2.0     :   CWLS log ASCII Standard - VERSION 2.0
WRAP.           NO      :   One line per depth step
~Well Information Section
#MNEM       .UNIT                                         VALUE :DESCRIPTION
#------------------------------------------------------------------------------
STRT        .FT                                             748 :START DEPTH
STOP        .FT                                            7997 :STOP DEPTH
STEP        .FT                                             0.5 :STEP      
NULL        .                                           -999.25 :NULL      
COMP        .                                        EXXON CORP :COMPANY   
WELL        .                                     ST TR 00560-L :WELL      
FLD         .                                           WILDCAT :FIELD     
LOC         .                                                   :LOCATION  
CNTY        .                      MATAGORDA ISLAND LARGE BLOCK :LOCATION  
STAT        .                                             TEXAS :STATE     
CTRY        .                                     UNITED STATES :COUNTRY   
SRVC        .                                                   :SERVICE COMPANY
DATE        .                             9/13/2023 11:19:05 AM :LOG DATE  
API         .                                    42703302000000 :API NUMBER
UWI         .                                    42703302000000 :UNIQUE WELL ID
XCOORD      .                                  556028.985600478 :SURFACE X 
YCOORD      .                                   10283706.324983 :SURFACE Y 
LAT         .                                        28.2964478 :LATITUDE  
LON         .                                       -96.3697382 :LONGITUDE 
ELEV        .FT                                              92 :ELEVATION VALUE
ELEV_TYPE   .                                                KB :ELEVATION REFERENCE TYPE
~Curve Information Section
#MNEM       .UNIT                                      API CODE :CURVE DESCRIPTION
#------------------------------------------------------------------------------
DEPT        .FT                                                 :DEPTH     
ASFL        .OHMM                                               :          
CILD        .MMHO                                               :          
DT          .US/F                                               :          
GR          .GAPI                                               :          
GR_NORM     .GAPI                                               :GammaRay Normalized
ILD         .OHMM                                               :          
SP          .MV                                                 :          
SP_NORM     .MV                                                 :SP Normalized
VSH_GR      .V/V                                                :Volume of Shale from GR
VSH_SP      .V/V                                                :Volume of Shale from SP
~A        DEPTH           ASFL           CILD             DT             GR        GR_NORM            ILD             SP        SP_NORM         VSH_GR         VSH_SP
# ...
      5084.5000         1.0703       2821.941       114.9541        -999.25        -999.25          0.289      -101.4333       -40.9898        -999.25              0
      5085.0000         1.0957       2713.137       114.2821        -999.25        -999.25         0.3011      -101.2462      -40.80438        -999.25              0
      5085.5000         1.1548       2640.828         113.61        -999.25        -999.25         0.3178      -101.0658      -40.62566        -999.25              0
      5086.0000         1.1877       2568.469       112.2976        -999.25        -999.25         0.3344      -100.8856      -40.44713        -999.25              0
      5086.5000         1.2114       2532.266       109.3806        -999.25        -999.25          0.351      -100.7052      -40.26841        -999.25              0
      5087.0000         1.1763       2499.168       108.4724        -999.25        -999.25         0.3677      -100.5249      -40.08978        -999.25              0
      5087.5000         1.1096       2466.047       107.6233        -999.25        -999.25         0.3843      -100.2107      -39.77726        -999.25              0
      5088.0000         1.0608       2432.949       107.2594        -999.25        -999.25         0.4009       -99.3947      -38.96293        -999.25              0
      5088.5000         1.0199       2399.828       106.8959        -999.25        -999.25         0.3982       -98.5793       -38.1492        -999.25              0
      5089.0000         0.9897       2380.555        106.373        -999.25        -999.25         0.3948       -97.3989      -36.97048        -999.25     0.02782481
      5089.5000         0.9598       2398.531       105.0997        -999.25        -999.25         0.3913       -96.1675      -35.74076        -999.25     0.06106062
      5090.0000         0.9196         2416.5       104.0559        -999.25        -999.25         0.3878       -94.6207      -34.19563        -999.25      0.1028209
      5090.5000         0.8852        2434.48       103.7668        -999.25        -999.25         0.3885       -93.9661      -33.54271        -999.25      0.1204673
      5091.0000         0.8966       2448.094        104.301        -999.25        -999.25          0.394       -93.8154      -33.39368        -999.25      0.1244951
      5091.5000         0.9302       2460.066       104.9664        -999.25        -999.25         0.3994       -93.9854      -33.56535        -999.25      0.1198553
      5092.0000         0.9639       2472.039       105.6318        -999.25        -999.25         0.4049       -94.1553      -33.73693        -999.25      0.1152182
      5092.5000         0.9976       2484.016       106.3889        -999.25        -999.25         0.4157       -94.6055       -34.1888        -999.25      0.1030053
      5093.0000         1.1877       2592.195       107.8322        -999.25        -999.25         0.4387       -95.2657      -34.85068        -999.25     0.08511672
      5093.5000         1.1969       2452.078       105.8862        -999.25        -999.25         0.4114       -95.9259      -35.51256        -999.25     0.06722816
      5094.0000          1.061       2405.922       102.3441        -999.25        -999.25         0.3841       -96.6207      -36.20903        -999.25     0.04840469
      5094.5000          0.984       2389.188        99.5677        -999.25        -999.25         0.3568       -97.3223      -36.91231        -999.25     0.02939709
      5095.0000          0.963       2372.457       106.4537        -999.25        -999.25         0.3301       -98.0232      -37.61488        -999.25     0.01040866
      5095.5000         0.9071       2354.418       110.3088        -999.25        -999.25         0.3112       -98.7108      -38.30415        -999.25              0
      5096.0000         0.8573       2335.164       102.7856        -999.25        -999.25         0.2923       -99.3307      -38.92573        -999.25              0
      5096.5000         0.8081       2315.926       102.8823        -999.25        -999.25         0.2734       -99.2759       -38.8726        -999.25              0
      5097.0000         0.7748       2486.523        97.1912        -999.25        -999.25         0.2545       -99.1002      -38.69857        -999.25              0
      5097.5000         0.7637       2691.707        95.6832        -999.25        -999.25         0.2482       -98.8267      -38.42675        -999.25              0
      5098.0000         0.7526       2818.711        94.5996        -999.25        -999.25         0.2426       -98.5529      -38.15463        -999.25              0
      5098.5000         0.7527       2954.816        93.8633        -999.25        -999.25          0.237       -98.2794       -37.8828        -999.25    0.003167436
      5099.0000          0.753       3112.352        97.1436        -999.25        -999.25         0.2314       -98.0059      -37.61097        -999.25     0.01051423
      5099.5000         0.7533       3852.855       100.4875        -999.25        -999.25         0.2259       -97.7472      -37.35395        -999.25      0.0174608
      5100.0000         0.7536       3913.863       105.2747        -999.25        -999.25         0.2203        -97.546      -37.15442        -999.25     0.02285344
      5100.5000         0.7534       3939.852       110.8788        -999.25        -999.25          0.224        -97.345       -36.9551        -999.25     0.02824051
      5101.0000         0.7469       3930.988       118.0437        -999.25        -999.25         0.2324       -97.1437      -36.75547        -999.25     0.03363584
      5101.5000         0.7405       3882.113        117.567        -999.25        -999.25         0.2407       -96.9791      -36.59255        -999.25     0.03803913
      5102.0000         0.7341       3833.238       117.0903        -999.25        -999.25          0.249        -97.109      -36.72412        -999.25     0.03448311
      5102.5000         0.7273        3826.48       116.6135        -999.25        -999.25         0.2573       -97.2389       -36.8557        -999.25     0.03092709
      5103.0000         0.7205       3827.816       116.1289        -999.25        -999.25         0.2522       -97.3687      -36.98717        -999.25     0.02737375
      5103.5000         0.7173       3838.766       115.6427        -999.25        -999.25         0.2393       -97.5273      -37.14745        -999.25     0.02304201
      5104.0000         0.7197       3865.895       115.0581        -999.25        -999.25         0.2263       -97.8112      -37.43303        -999.25     0.01532364
      5104.5000         0.7221       3893.047       115.0679        -999.25        -999.25         0.2134       -98.0951       -37.7186        -999.25    0.007605475
      5105.0000         0.7244        4050.41       117.4713        -999.25        -999.25         0.2004       -98.3789      -38.00407        -999.25              0
      5105.5000         0.7268       4433.672       120.0337        -999.25        -999.25         0.1875       -98.6627      -38.28954        -999.25              0
      5106.0000         0.7292       4467.086       121.7631        -999.25        -999.25         0.1746       -98.9463      -38.57482        -999.25              0
      5106.5000         0.7315       4499.219       123.7017        -999.25        -999.25         0.1777       -99.0627      -38.69289        -999.25              0
      5107.0000         0.7314        4511.07       119.8636        -999.25        -999.25         0.1808       -99.1018      -38.73367        -999.25              0
      5107.5000         0.7307       4438.172       115.3259        -999.25        -999.25         0.1839       -99.1409      -38.77444        -999.25              0
      5108.0000           0.73       4321.055       113.3837        -999.25        -999.25          0.187       -99.1798      -38.81502        -999.25              0
      5108.5000         0.7293       4084.164       112.1387        -999.25        -999.25         0.2078       -99.2189       -38.8558        -999.25              0
