#------------------------------------------------------------------------------
# Created by    : vladimir.rabinovich
# Created on    : 09/19/2023 17:20:46
#------------------------------------------------------------------------------
~Version Information Section
VERS.           2.0     :   CWLS log ASCII Standard - VERSION 2.0
WRAP.           NO      :   One line per depth step
~Well Information Section
#MNEM       .UNIT                                         VALUE :DESCRIPTION
#------------------------------------------------------------------------------
STRT        .FT                                            1957 :START DEPTH
STOP        .FT                                            6608 :STOP DEPTH
STEP        .FT                                             0.5 :STEP      
NULL        .                                           -999.25 :NULL      
COMP        .                            HIGHLAND RESOURCES INC :COMPANY   
WELL        .                                     ST TR 00691-L :WELL      
FLD         .                                           WILDCAT :FIELD     
LOC         .                                                   :LOCATION  
CNTY        .                      MATAGORDA ISLAND LARGE BLOCK :LOCATION  
STAT        .                                             TEXAS :STATE     
CTRY        .                                     UNITED STATES :COUNTRY   
SRVC        .                                                   :SERVICE COMPANY
DATE        .                             9/13/2023 11:12:01 AM :LOG DATE  
API         .                                    42703000470000 :API NUMBER
UWI         .                                    42703000470000 :UNIQUE WELL ID
XCOORD      .                                  404407.912506245 :SURFACE X 
YCOORD      .                                  10154689.9311845 :SURFACE Y 
LAT         .                                        27.9298131 :LATITUDE  
LON         .                                       -96.8274765 :LONGITUDE 
ELEV        .FT                                              63 :ELEVATION VALUE
ELEV_TYPE   .                                                KB :ELEVATION REFERENCE TYPE
~Curve Information Section
#MNEM       .UNIT                                      API CODE :CURVE DESCRIPTION
#------------------------------------------------------------------------------
DEPT        .FT                                                 :DEPTH     
ASN         .OHMM                                               :          
CILD        .MMHO                                               :          
ILD         .OHMM                                               :          
SP          .MV                                                 :          
SP_NORM     .MV                                                 :SP Normalized
VSH_SP      .V/V                                                :Volume of Shale from SP
~A        DEPTH            ASN           CILD            ILD             SP        SP_NORM         VSH_SP
# ...
      3477.0000         1.8703       905.3203         1.0947      -102.4198       -30.9159      0.5833448
      3477.5000         2.0106       893.1318         1.0883      -105.2286       -33.7177      0.5415269
      3478.0000         2.1215       878.7646         1.0843      -108.0355       -36.5175      0.4997388
      3478.5000         2.7192       864.3984         1.0839      -110.8444       -39.3194      0.4579194
      3479.0000          2.852       850.0313         1.0835      -113.8495       -42.3174      0.4131731
      3479.5000         2.9596       835.6709         1.0965      -116.8713       -45.3322      0.3681761
      3480.0000         3.0452       821.3047         1.1116      -119.0909       -47.5448      0.3351522
      3480.5000         3.1011       808.4316         1.1325      -121.0679       -49.5147      0.3057507
      3481.0000          3.114       796.5986          1.166      -122.3824       -50.8222      0.2862358
      3481.5000         3.0591       784.7715         1.2016      -123.1499       -51.5826      0.2748866
      3482.0000         3.0043       772.9375         1.2331      -123.6191       -52.0448      0.2679881
      3482.5000         2.9494       761.1113         1.2577      -124.0869       -52.5056      0.2611105
      3483.0000         2.8855       750.8682         1.2738      -123.8582       -52.2698      0.2646299
      3483.5000           2.69       757.6279         1.2948      -122.7585       -51.1631      0.2811477
      3484.0000         2.4944       775.4404         1.3097      -121.6593       -50.0568      0.2976597
      3484.5000         2.3646        794.501         1.3046      -120.5597       -48.9502      0.3141761
      3485.0000         2.2646       813.5605         1.2907      -118.4684       -46.8519      0.3454941
      3485.5000         2.1813       832.6084         1.2701      -115.9098       -44.2862       0.383788
      3486.0000         2.0776       851.6689         1.2457      -113.3511       -41.7205      0.4220821
      3486.5000         1.9575        902.749           1.22      -110.7739       -39.1362      0.4606537
      3487.0000         1.8991       970.2754         1.2005      -108.0745       -36.4298      0.5010478
      3487.5000         1.8553       1026.223         1.1711      -105.4889       -33.8372      0.5397433
      3488.0000         1.8087       1080.154         1.1166      -103.9603       -32.3015      0.5626642
      3488.5000         1.8573        1146.76         1.0739      -102.7524       -31.0866       0.580797
      3489.0000         1.9994       1224.494         1.0485      -116.6602       -44.9873      0.3733239
      3489.5000         2.0065       1290.477         0.9983      -135.5916       -63.9117     0.09087013
      3490.0000         2.0136       1332.631         0.9617      -138.4355       -66.7486     0.04852841
      3490.5000           2.03       1366.492         0.8858      -140.0881       -68.3941     0.02396871
      3491.0000         2.0542       1394.754          0.787      -140.4255       -68.7245     0.01903727
      3491.5000         2.0602       1422.541         0.7461      -140.7627       -69.0546     0.01411039
      3492.0000         2.0794       1465.094         0.7315      -141.0996       -69.3845    0.009186588
      3492.5000         2.1391       1521.938          0.717      -140.1025       -68.3803     0.02417459
      3493.0000         2.1981       1727.305          0.704      -138.9976       -67.2684     0.04077012
      3493.5000         2.0768       1855.883         0.6877      -135.9102        -64.174     0.08695517
      3494.0000         1.9521       1977.662         0.6617       -131.634       -59.8907      0.1508851
      3494.5000         1.5471       1979.777         0.6368       -127.358       -55.6077      0.2148104
      3495.0000         1.1423       2055.484         0.6091      -124.4065       -52.6491      0.2589687
      3495.5000         0.8836       2213.145         0.5725      -121.9479       -50.1835      0.2957687
      3496.0000         0.8717       2370.707         0.5361      -119.4893       -47.7179      0.3325687
      3496.5000         0.8576       2517.711         0.4824      -117.0306       -45.2521      0.3693716
      3497.0000         0.8317       2518.879         0.4531      -114.5702       -42.7847      0.4061985
      3497.5000         0.9839       2484.543         0.4314      -112.5007       -40.7081      0.4371926
      3498.0000         1.1969       2377.477         0.4354       -110.998       -39.1984      0.4597254
      3498.5000           1.41       2182.766         0.4393      -118.7056       -46.8989      0.3447925
      3499.0000          1.623        2163.32         0.4463      -126.3945       -54.5808      0.2301373
      3499.5000         1.8361        2212.57         0.4592      -134.0872       -62.2665      0.1154254
      3500.0000         1.9308       2251.527         0.4603      -138.3125       -66.4847     0.05246712
      3500.5000         1.8963       2279.539         0.4595      -140.0261       -68.1913     0.02699553
      3501.0000         1.8606       2307.563         0.4561       -141.741       -69.8991    0.001505951
      3501.5000         1.8204       2335.586         0.4484      -142.4827       -70.6338              0
      3502.0000         1.7301       2363.609         0.4435       -142.939       -71.0831              0
      3502.5000         1.6599       2378.164         0.4399      -140.5088       -68.6458     0.02021197
      3503.0000         1.5883       2369.137         0.4364      -134.0427       -62.1727      0.1168254
      3503.5000         1.4789       2343.566         0.4329      -128.4436       -56.5665         0.2005
      3504.0000         1.3696           2177         0.4316      -123.6191        -51.735      0.2726119
      3504.5000         1.2603       1786.615         0.4375      -118.7982       -46.9071      0.3446701
      3505.0000         1.1049       1748.021         0.4435      -113.9736       -42.0754      0.4167851
      3505.5000         1.0306       1709.402         0.4722       -110.269       -38.3638      0.4721821
      3506.0000         1.0116       1658.459         0.5048      -108.9971       -37.0848      0.4912716
      3506.5000         1.0675       1608.611          0.539      -107.7252       -35.8059      0.5103597
      3507.0000          1.103       1581.969         0.5942      -106.4542       -34.5279      0.5294343
      3507.5000         1.1385       1556.211         0.6164      -105.5426       -33.6092      0.5431463
      3508.0000         1.1836       1533.889          0.627      -104.7603       -32.8199      0.5549269
      3508.5000         1.2731       1517.631         0.6349       -103.978       -32.0305       0.566709
      3509.0000         1.3269        1499.33         0.6423      -105.0601       -33.1056      0.5506627
      3509.5000         1.3638       1476.496          0.646      -107.1907       -35.2291      0.5189686
      3510.0000         1.4006       1453.664         0.6536      -109.3204       -37.3518      0.4872866
      3510.5000         1.4375       1430.832         0.6679       -111.451       -39.4754      0.4555911
      3511.0000         1.4852           1408         0.6823      -113.2065       -41.2238      0.4294955
      3511.5000         1.5666       1376.203         0.6966      -114.4063       -42.4166      0.4116926
      3512.0000         1.6094       1336.713          0.711       -115.606       -43.6093      0.3938911
      3512.5000         1.4974       1297.225         0.7245      -116.8065       -44.8027      0.3760791
      3513.0000         1.4008       1251.037         0.7376       -113.881       -41.8702      0.4198478
      3513.5000         1.2984       1204.574         0.7506      -108.0707       -36.0528      0.5066746
      3514.0000         1.2196       1154.303         0.7842      -102.2605       -30.2356      0.5934985
      3514.5000         1.1962       1112.523         0.8178       -97.3284       -25.2964      0.6672179
