#------------------------------------------------------------------------------
# Created by    : vladimir.rabinovich
# Created on    : 09/19/2023 17:20:49
#------------------------------------------------------------------------------
~Version Information Section
VERS.           2.0     :   CWLS log ASCII Standard - VERSION 2.0
WRAP.           NO      :   One line per depth step
~Well Information Section
#MNEM       .UNIT                                         VALUE :DESCRIPTION
#------------------------------------------------------------------------------
STRT        .FT                                            2010 :START DEPTH
STOP        .FT                                            6610 :STOP DEPTH
STEP        .FT                                             0.5 :STEP      
NULL        .                                           -999.25 :NULL      
COMP        .                                      SHELL OIL CO :COMPANY   
WELL        .                                ST TR 00691-L SE/4 :WELL      
FLD         .                                           WILDCAT :FIELD     
LOC         .                                                   :LOCATION  
CNTY        .                      MATAGORDA ISLAND LARGE BLOCK :LOCATION  
STAT        .                                             TEXAS :STATE     
CTRY        .                                     UNITED STATES :COUNTRY   
SRVC        .                                                   :SERVICE COMPANY
DATE        .                             9/13/2023 11:12:05 AM :LOG DATE  
API         .                                    42703000190000 :API NUMBER
UWI         .                                    42703000190000 :UNIQUE WELL ID
XCOORD      .                                  412077.623085271 :SURFACE X 
YCOORD      .                                  10154908.2726125 :SURFACE Y 
LAT         .                                        27.9310704 :LATITUDE  
LON         .                                         -96.80379 :LONGITUDE 
ELEV        .FT                                              82 :ELEVATION VALUE
ELEV_TYPE   .                                                DF :ELEVATION REFERENCE TYPE
~Curve Information Section
#MNEM       .UNIT                                      API CODE :CURVE DESCRIPTION
#------------------------------------------------------------------------------
DEPT        .FT                                                 :DEPTH     
ASN         .OHMM                                               :          
CILD        .MMHO                                               :          
ILD         .OHMM                                               :          
SP          .MV                                                 :          
SP_NORM     .MV                                                 :SP Normalized
VSH_SP      .V/V                                                :Volume of Shale from SP
~A        DEPTH            ASN           CILD            ILD             SP        SP_NORM         VSH_SP
# ...
      5658.0000         0.7973       1841.379         0.5399       -90.2252       -41.3457      0.1628575
      5658.5000         0.8265       1806.145         0.5282       -88.2374       -39.3616      0.2050724
      5659.0000           0.86       1770.912         0.5164       -86.8583       -37.9863       0.234334
      5659.5000         0.8117       1791.049         0.5047       -88.6296       -39.7613      0.1965681
      5660.0000         0.5713       2143.816         0.4929       -89.1801       -40.3155      0.1847766
      5660.5000         0.5685       2389.469         0.4812       -89.5537       -40.6929      0.1767468
      5661.0000         0.5729       2563.527         0.4694       -89.9243       -41.0672       0.168783
      5661.5000         0.5834       2599.961         0.4567       -90.2885       -41.4351      0.1609553
      5662.0000         0.5961       2617.477         0.4428        -90.653       -41.8034      0.1531192
      5662.5000         0.6085       2593.621          0.429       -91.0172       -42.1713      0.1452915
      5663.0000         0.6207       2572.215         0.4152       -91.3816       -42.5394      0.1374596
      5663.5000         0.6328       2564.262         0.4013       -92.0494        -43.211      0.1231702
      5664.0000          0.645       2614.957         0.3875       -93.0968       -44.2621      0.1008064
      5664.5000         0.6549       2746.395         0.3737       -94.3728       -45.5418     0.07357869
      5665.0000         0.6625       2872.551         0.3598       -95.8245       -46.9973     0.04261066
      5665.5000          0.609       2998.703         0.3464        -97.157       -48.3335     0.01418085
      5666.0000         0.5227       3124.855         0.3353       -96.6187        -47.799      0.0255532
      5666.5000         0.3985       3251.008         0.3243       -95.2922       -46.4762     0.05369787
      5667.0000         0.3904        3377.16         0.3132       -93.6647       -44.8524     0.08824677
      5667.5000         0.3823       3503.313         0.3021       -92.2216       -43.4131      0.1188702
      5668.0000           0.37       3577.473          0.291       -90.9923       -42.1875      0.1449468
      5668.5000         0.3575       3595.824         0.2799       -89.6007       -40.7996      0.1744766
      5669.0000          0.345       3606.203         0.2688       -88.1884       -39.3911      0.2044446
      5669.5000         0.3349       3600.875         0.2767          -86.9       -38.1064      0.2317787
      5670.0000         0.3251       3595.555         0.2958       -82.6198       -33.8299      0.3227681
      5670.5000         0.3154       3569.105          0.315       -78.2239       -29.4378       0.416217
      5671.0000         0.3177       3542.242          0.329       -73.8231       -25.0407      0.5097723
      5671.5000         0.3339        3376.77         0.3417       -76.0406       -27.2619      0.4625128
      5672.0000         0.3517       3207.457         0.3544       -81.1003       -32.3254      0.3547787
      5672.5000         0.3695        3038.34         0.3672         -86.16       -37.3888      0.2470468
      5673.0000         0.3873       2869.027         0.3799       -89.5626       -40.7951      0.1745723
      5673.5000         0.4078       2699.711         0.3926       -85.1766       -36.4129      0.2678107
      5674.0000         0.4285       2530.398         0.4015       -80.7905       -32.0305      0.3610532
      5674.5000         0.4431       2651.563         0.3891       -76.3997       -27.6435      0.4543936
      5675.0000         0.4485       2861.195         0.3767       -72.0135        -23.261      0.5476383
      5675.5000         0.4425       3071.027         0.3643       -74.8851       -26.1363      0.4864617
      5676.0000         0.4362        3280.66         0.3518       -79.2614       -30.5164      0.3932681
      5676.5000         0.4291       3490.297         0.3612       -83.6376       -34.8963      0.3000787
      5677.0000         0.4196       3699.934         0.3762       -88.0138       -39.2762      0.2068894
      5677.5000         0.4101       3720.289         0.3998       -92.3899       -43.6561         0.1137
      5678.0000         0.4005       3487.359         0.4235       -93.0829       -44.3528     0.09887663
      5678.5000         0.4202       3254.434         0.4472       -92.4496       -43.7232      0.1122723
      5679.0000         0.4416       3021.504         0.4777       -91.6094       -42.8868      0.1300681
      5679.5000         0.4681       2788.578         0.5556       -90.1724       -41.4535      0.1605639
      5680.0000         0.4959       2555.648         0.6335       -88.1268       -39.4116      0.2040085
      5680.5000         0.5513       2322.723         0.7113        -84.144       -35.4326      0.2886681
      5681.0000         0.8197           1975         0.7705       -68.7094       -20.0017      0.6169851
      5681.5000         0.9045           1344         0.8149       -59.0056       -10.3017      0.8233681
      5682.0000         0.9318       1035.307         0.8285       -57.5919        -8.8917      0.8533681
      5682.5000         0.9453       983.9492          0.842       -56.2471        -7.5506      0.8819021
      5683.0000         0.9558       961.8799         0.8556       -54.9385        -6.2458      0.9096639
      5683.5000         0.9612       964.0762         0.8692       -54.2796        -5.5906      0.9236042
      5684.0000         0.9651        967.208         0.8827       -53.6207        -4.9354      0.9375447
      5684.5000         0.9689       968.2314          0.896       -53.0199        -4.3384      0.9502468
      5685.0000         0.9734       969.2549         0.9055       -52.7796        -4.1018      0.9552808
      5685.5000         0.9779       970.2773          0.915       -52.5396        -3.8655      0.9603085
      5686.0000         0.9999       948.2764         0.9245       -52.2996        -3.6293      0.9653341
      5686.5000         1.0326       934.0791         0.9341       -52.0596         -3.393      0.9703617
      5687.0000           1.07       930.0117         0.9436       -51.8195        -3.1566      0.9753915
      5687.5000         1.0735       925.9434          0.949       -51.7233        -3.0642      0.9773574
      5688.0000         1.0678       924.3721         0.9459       -51.7958        -3.1404      0.9757362
      5688.5000         1.0548       926.5371         0.9188       -51.8683        -3.2166      0.9741149
      5689.0000         1.0375       928.7021         0.8917       -51.9408        -3.2929      0.9724915
      5689.5000          1.015       945.3398         0.8646       -52.0133        -3.3691      0.9708702
      5690.0000         0.9883       965.1582         0.8374       -52.0858        -3.4454      0.9692468
      5690.5000         0.9597       1044.701         0.8103       -52.1909        -3.5542      0.9669319
      5691.0000         0.9292       1153.531         0.7831       -52.3756        -3.7426      0.9629234
      5691.5000         0.8911       1211.371         0.7657       -52.5603        -3.9311      0.9589128
      5692.0000         0.8503       1225.514         0.7557        -52.745        -4.1195      0.9549043
      5692.5000         0.8184       1236.096         0.7456       -52.9299        -4.3081      0.9508915
      5693.0000         0.7915       1246.666         0.7356       -53.1146        -4.4966      0.9468809
      5693.5000         0.7738       1241.209         0.7255       -53.2993         -4.685      0.9428723
      5694.0000         0.7762        1226.75         0.7303       -53.4839        -4.8733       0.938866
      5694.5000          0.785       1212.277         0.7566       -53.6688         -5.062      0.9348511
      5695.0000         0.7987       1195.027         0.7828       -53.8535        -5.2504      0.9308426
      5695.5000         0.8124       1177.424          0.809       -53.5491        -4.9497      0.9372404
