#------------------------------------------------------------------------------
# Created by    : vladimir.rabinovich
# Created on    : 09/19/2023 17:22:51
#------------------------------------------------------------------------------
~Version Information Section
VERS.           2.0     :   CWLS log ASCII Standard - VERSION 2.0
WRAP.           NO      :   One line per depth step
~Well Information Section
#MNEM       .UNIT                                         VALUE :DESCRIPTION
#------------------------------------------------------------------------------
STRT        .FT                                             970 :START DEPTH
STOP        .FT                                           10993 :STOP DEPTH
STEP        .FT                                             0.5 :STEP      
NULL        .                                           -999.25 :NULL      
COMP        .                               AMOCO PRODUCTION CO :COMPANY   
WELL        .                                     ST TR 00558-L :WELL      
FLD         .                                           WILDCAT :FIELD     
LOC         .                                                   :LOCATION  
CNTY        .                      MATAGORDA ISLAND LARGE BLOCK :LOCATION  
STAT        .                                             TEXAS :STATE     
CTRY        .                                     UNITED STATES :COUNTRY   
SRVC        .                                                   :SERVICE COMPANY
DATE        .                             9/13/2023 11:19:13 AM :LOG DATE  
API         .                                    42703301770000 :API NUMBER
UWI         .                                    42703301770000 :UNIQUE WELL ID
XCOORD      .                                   593347.98828382 :SURFACE X 
YCOORD      .                                   10274817.073936 :SURFACE Y 
LAT         .                                        28.2748406 :LATITUDE  
LON         .                                       -96.2531821 :LONGITUDE 
ELEV        .FT                                              93 :ELEVATION VALUE
ELEV_TYPE   .                                                KB :ELEVATION REFERENCE TYPE
~Curve Information Section
#MNEM       .UNIT                                      API CODE :CURVE DESCRIPTION
#------------------------------------------------------------------------------
DEPT        .FT                                                 :DEPTH     
GR          .GAPI                                               :          
GR_NORM     .GAPI                                               :GammaRay Normalized
ILD         .OHMM                                               :          
SP          .MV                                                 :          
SP_NORM     .MV                                                 :SP Normalized
VSH_GR      .V/V                                                :Volume of Shale from GR
VSH_SP      .V/V                                                :Volume of Shale from SP
~A        DEPTH             GR        GR_NORM            ILD             SP        SP_NORM         VSH_GR         VSH_SP
# ...
      1640.0000        24.6651       39.80477         0.9061      -166.6572        -10.291      0.1447824      0.5393889
      1640.5000        24.6437       39.74632         0.9321      -167.1477      -10.78883      0.1435387      0.5117314
      1641.0000        25.4876       41.74074         0.9457      -167.8311      -11.47955      0.1859732      0.4733582
      1641.5000        26.3426       43.76152         0.9435      -168.1792      -11.83498      0.2289686      0.4536124
      1642.0000        27.1919       45.76879         0.9144      -167.6162       -11.2793      0.2716763      0.4844835
      1642.5000          28.03       47.74945         0.8813      -166.9043      -10.57472      0.3138181      0.5236266
      1643.0000        28.8578        49.7057         0.8401      -166.2595      -9.937256      0.3554403      0.5590413
      1643.5000        29.2697       50.67523         0.7714      -165.6096      -9.294693      0.3760688      0.5947393
      1644.0000        29.5338       51.29409         0.7262      -164.9626      -8.655014       0.389236       0.630277
      1644.5000        29.6408       51.54026         0.7034      -164.3269      -8.026642      0.3944736      0.6651866
      1645.0000        29.3127       50.75415          0.696      -163.8196      -7.526657       0.377748      0.6929635
      1645.5000        28.3671       48.50301         0.6953      -163.9902       -7.70459      0.3298513      0.6830783
      1646.0000        27.1716       45.65901         0.6959      -166.0178      -9.739517      0.2693406      0.5700268
      1646.5000        25.9091       42.65605         0.6946      -169.2542      -12.98323      0.2054479      0.3898205
      1647.0000        24.6964       39.77124         0.6949      -171.3992      -15.13556       0.144069      0.2702467
      1647.5000        23.2534       36.34004         0.6942       -173.082      -16.82568     0.07106473      0.1763509
      1648.0000        21.7585       32.78572         0.6916      -174.5015       -18.2525              0      0.0970832
      1648.5000        21.0697       31.14387         0.6865      -175.3567      -19.11504              0     0.04916467
      1649.0000         21.002       30.97554         0.6781      -175.8574      -19.62306              0     0.02094099
      1649.5000        20.9616         30.872         0.6673      -176.2349      -20.00787              0              0
      1650.0000        20.8282       30.54779         0.6572      -176.3677      -20.14801              0              0
      1650.5000        20.9004       30.71139          0.664      -176.3948      -20.18243              0              0
      1651.0000        21.0799       31.12955         0.6803      -176.4219      -20.21686              0              0
      1651.5000        21.3361       31.72969         0.6992      -176.5339      -20.33618              0              0
      1652.0000        22.2958       33.99886         0.7198      -176.0063       -19.8159     0.02125233     0.01022763
      1652.5000         23.471        36.7793         0.7308      -174.8684      -18.68533     0.08041065     0.07303704
      1653.0000        24.7502        39.8065         0.7337      -173.9521      -17.77637      0.1448191      0.1235352
      1653.5000         25.926       42.58835         0.7202      -173.1694      -17.00099      0.2040075      0.1666116
      1654.0000        26.7701       44.58326         0.7039      -172.5723      -16.41121      0.2464524      0.1993773
      1654.5000         27.473       46.24319         0.6862      -172.0422      -15.88844      0.2817699      0.2284198
      1655.0000        28.2201       48.00796         0.6718      -171.6479      -15.50146      0.3193183      0.2499186
      1655.5000        27.9538       47.36849         0.6662       -171.303      -15.16388      0.3057126      0.2686734
      1656.0000         27.306       45.82389          0.672      -170.9321      -14.80031      0.2728487      0.2888718
      1656.5000        26.7523       44.50255          0.682      -170.7085      -14.58403      0.2447351      0.3008872
      1657.0000        26.4867        43.8647         0.6928      -170.8049      -14.68776      0.2311638      0.2951245
      1657.5000        26.2195       43.22308         0.7018      -171.1594      -15.04958      0.2175123      0.2750236
      1658.0000        25.9487       42.57292         0.7075      -171.6804      -15.57791      0.2036791      0.2456716
      1658.5000        25.6668        41.8964         0.7129      -172.1384      -16.04323      0.1892852      0.2198207
      1659.0000        25.3436       41.12192          0.718      -172.4404      -16.35255      0.1728068      0.2026359
      1659.5000        25.0202       40.34696         0.7266      -172.6123      -16.53178      0.1563183      0.1926787
      1660.0000        24.7892       39.79121         0.7394      -172.7063       -16.6331      0.1444939      0.1870499
      1660.5000        24.5361       39.18304         0.7552      -172.7437      -16.67783       0.131554      0.1845652
      1661.0000        24.2343       38.45933         0.7781      -172.4089      -16.35036       0.116156      0.2027579
      1661.5000        24.3475       38.72019         0.7989      -171.8716      -15.82037      0.1217062      0.2322015
      1662.0000        25.2806       40.92625         0.8212      -171.1726      -15.12872      0.1686437      0.2706265
      1662.5000        26.1065       42.87798         0.8592      -170.2825      -14.24594      0.2101699      0.3196699
      1663.0000        26.5659       43.96021         0.8959      -168.8533      -12.82407      0.2331959       0.398663
      1663.5000         26.057       42.74514         0.9336      -167.3037      -11.28178      0.2073434      0.4843453
      1664.0000        24.9622       40.14006         0.9691       -165.718      -9.703415      0.1519161      0.5720325
      1664.5000        24.8188       39.79213         0.9878      -164.7864      -8.779144      0.1445135      0.6233809
      1665.0000        25.0166       40.25372         0.9961      -164.1912      -8.191254      0.1543345      0.6560414
      1665.5000        25.2727       40.85362         0.9932      -163.8264      -7.833786      0.1670983      0.6759008
      1666.0000        25.6148       41.65755         0.9872      -163.4912      -7.505905      0.1842031      0.6941164
      1666.5000         26.104       42.81046         0.9749       -163.218      -7.240036      0.2087333      0.7088869
      1667.0000        26.5249       43.80134         0.9628      -162.9583      -6.987656      0.2298158       0.722908
      1667.5000        27.1777       45.34239         0.9489       -162.772      -6.808685       0.262604      0.7328508
      1668.0000         29.079       49.84551         0.9336      -162.6448      -6.688812      0.3584151      0.7395104
      1668.5000        30.9071       54.17495         0.9186      -162.6077      -6.659027      0.4505308      0.7411652
      1669.0000        31.8311       56.35942         0.9056      -162.4561      -6.514755       0.497009      0.7491803
      1669.5000        31.9042       56.52516         0.8928      -162.2778      -6.343781      0.5005354      0.7586789
      1670.0000        31.5959       55.78601         0.8802      -162.0925      -6.165802      0.4848087      0.7685665
      1670.5000        31.0444       54.46989         0.8677      -161.8225      -5.903122      0.4568062      0.7831599
      1671.0000        30.4932       53.15447         0.8527      -161.5337      -5.621674      0.4288185      0.7987959
      1671.5000        29.9583       51.87774         0.8378      -161.2964      -5.391693      0.4016539      0.8115726
      1672.0000        29.4244       50.60338          0.826      -161.3181      -5.420715        0.37454      0.8099602
      1672.5000        29.1646       49.97929         0.8138      -161.6946      -5.804535      0.3612614      0.7886369
      1673.0000        29.0187       49.62545         0.8005      -162.2129       -6.33017      0.3537329       0.759435
