#------------------------------------------------------------------------------
# Created by    : vladimir.rabinovich
# Created on    : 09/19/2023 17:20:45
#------------------------------------------------------------------------------
~Version Information Section
VERS.           2.0     :   CWLS log ASCII Standard - VERSION 2.0
WRAP.           NO      :   One line per depth step
~Well Information Section
#MNEM       .UNIT                                         VALUE :DESCRIPTION
#------------------------------------------------------------------------------
STRT        .FT                                            1401 :START DEPTH
STOP        .FT                                            4951 :STOP DEPTH
STEP        .FT                                             0.5 :STEP      
NULL        .                                           -999.25 :NULL      
COMP        .                      GULF ENERGY EXPLORATION CORP :COMPANY   
WELL        .                                ST TR 00596-L NE/4 :WELL      
FLD         .                        SHERMAN OFFSHORE SOUTHWEST :FIELD     
LOC         .                                                   :LOCATION  
CNTY        .                      MATAGORDA ISLAND LARGE BLOCK :LOCATION  
STAT        .                                             TEXAS :STATE     
CTRY        .                                     UNITED STATES :COUNTRY   
SRVC        .                                                   :SERVICE COMPANY
DATE        .                             9/13/2023 11:12:01 AM :LOG DATE  
API         .                                    42703301240000 :API NUMBER
UWI         .                                    42703301240000 :UNIQUE WELL ID
XCOORD      .                                    480210.3272994 :SURFACE X 
YCOORD      .                                  10243409.1849528 :SURFACE Y 
LAT         .                                        28.1797739 :LATITUDE  
LON         .                                       -96.6012532 :LONGITUDE 
ELEV        .FT                                              82 :ELEVATION VALUE
ELEV_TYPE   .                                                KB :ELEVATION REFERENCE TYPE
~Curve Information Section
#MNEM       .UNIT                                      API CODE :CURVE DESCRIPTION
#------------------------------------------------------------------------------
DEPT        .FT                                                 :DEPTH     
ASN         .OHMM                                               :          
CILD        .MMHO                                               :          
ILD         .OHMM                                               :          
SP          .MV                                                 :          
SP_NORM     .MV                                                 :SP Normalized
VSH_SP      .V/V                                                :Volume of Shale from SP
~A        DEPTH            ASN           CILD            ILD             SP        SP_NORM         VSH_SP
      1401.0000         0.3008        -999.25         0.3476        -999.25        -999.25        -999.25
      1401.5000         0.3255        -999.25         0.3775        -999.25        -999.25        -999.25
      1402.0000         0.3295        -999.25         0.4273            -32        -9.3585         0.7645
      1402.5000         0.4296        -999.25          0.497         -31.36        -8.7185      0.7882037
      1403.0000         0.5297        -999.25         0.5666       -30.6149        -7.9734         0.8158
      1403.5000         0.6298        -999.25         0.5966       -30.2171        -7.5756      0.8305333
      1404.0000         0.7299        -999.25         0.6464       -29.0241        -6.3826      0.8747185
      1404.5000         0.8179        -999.25         0.6565       -28.6183        -5.9768      0.8897482
      1405.0000         0.8274        -999.25         0.6666       -28.2126        -5.5711      0.9047741
      1405.5000          0.837        -999.25         0.6668       -27.8068        -5.1653      0.9198037
      1406.0000         0.8466         1470.4          0.677        -27.401        -4.7595      0.9348333
      1406.5000         0.8577         1507.2         0.6772       -26.8367        -4.1952      0.9557334
      1407.0000         0.8657       1511.266         0.6774       -26.7373        -4.0958      0.9594148
      1407.5000         0.8697       1519.091         0.6676       -26.6377        -3.9962      0.9631037
      1408.0000         0.8552       1526.917         0.6579       -26.6376        -3.9961      0.9631074
      1408.5000         0.8513       1534.743         0.6581       -26.6374        -3.9959      0.9631148
      1409.0000         0.8474       1538.588         0.6484       -26.7366        -4.0951      0.9594408
      1409.5000         0.8395       1546.414         0.6387       -26.8358        -4.1943      0.9557667
      1410.0000         0.8356        1554.24         0.6389       -27.3324         -4.735      0.9357407
      1410.5000         0.8277       1570.028         0.6391       -27.7296        -5.2095      0.9181667
      1411.0000         0.8298       1577.854         0.6393       -28.2261        -5.7834      0.8969111
      1411.5000         0.8523       1581.698         0.6395       -28.1266        -5.7612      0.8977333
      1412.0000         0.8749        1577.58         0.6496        -27.729        -5.4409      0.9095963
      1412.5000         0.8975       1569.481         0.6597       -27.3315        -5.1207      0.9214556
      1413.0000           0.92       1532.381         0.6699       -27.2319        -5.0984      0.9222815
      1413.5000         0.9426       1495.281         0.6899       -27.9026        -5.8465      0.8945741
      1414.0000         0.9651       1458.181         0.7101       -28.5732        -6.5944      0.8668741
      1414.5000         0.9877       1421.081         0.7202       -29.2439        -7.3424      0.8391704
      1415.0000         1.0103       1383.981         0.7502       -29.9145        -8.0903      0.8114704
      1415.5000         1.0328       1346.882            0.8       -30.5851        -8.8383      0.7837667
      1416.0000         1.0615       1309.782         0.8299       -31.2558        -9.5863       0.756063
      1416.5000         1.0889       1272.682         0.8897       -31.9264       -10.3342       0.728363
      1417.0000         1.0762       1235.582         0.9196       -32.4945       -10.9796      0.7044592
      1417.5000         1.0635       1198.482         0.9198        -31.736       -10.2985      0.7296852
      1418.0000         1.0136       1161.382         0.9101       -30.9774        -9.6172      0.7549185
      1418.5000         0.9859       1113.768         0.9004       -30.2189         -8.936      0.7801481
      1419.0000         0.9819       1109.719         0.8609       -29.4604        -8.2548      0.8053778
      1419.5000          0.982       1121.594         0.7917       -28.7019        -7.5737      0.8306037
      1420.0000         0.9939        1200.89         0.7621       -27.9434        -6.8925      0.8558334
      1420.5000         0.9698       1280.185         0.7524       -27.5272        -6.5536      0.8683852
      1421.0000         0.9464        1359.48         0.7427       -26.7325        -5.8362      0.8949556
      1421.5000         0.9425       1403.719          0.733       -25.2325        -4.4135      0.9476482
      1422.0000         0.9425        1395.62         0.7431       -23.2568        -2.5152              1
      1422.5000         0.9484        1387.52         0.7532       -23.3561        -2.6918              1
      1423.0000         0.9502       1367.409         0.7633       -23.6539        -3.0669      0.9975222
      1423.5000         0.9545       1347.366         0.7635       -24.3783        -3.8686      0.9678296
      1424.0000         0.9546       1343.316         0.7836       -25.1028        -4.6705      0.9381297
      1424.5000         0.9586       1323.205         0.7838       -25.8273        -5.4723      0.9084333
      1425.0000         0.9666       1315.106          0.784       -26.5517         -6.274      0.8787407
      1425.5000         0.9666       1314.969         0.7941       -27.2762        -7.0758      0.8490444
      1426.0000         0.9494       1310.851         0.7943       -28.0006        -7.8776      0.8193482
      1426.5000         0.9534       1310.714         0.7945       -28.7251        -8.6794      0.7896518
      1427.0000         0.9575       1314.559         0.7947       -29.5101        -9.5417      0.7577148
      1427.5000         0.9615       1318.404         0.7949       -29.7084        -9.8173      0.7475074
      1428.0000         0.9676       1322.248         0.7951       -29.5097         -9.696          0.752
      1428.5000         0.9736       1322.112         0.7953       -29.4103        -9.6739      0.7528185
      1429.0000         0.9836       1317.994         0.7955       -28.1337        -8.4746       0.797237
      1429.5000         0.9936       1309.895         0.8057       -26.8571        -7.2753      0.8416556
      1430.0000         0.9997       1306.138         0.8158       -25.5804         -6.076      0.8860741
      1430.5000         1.0177       1301.659         0.8358       -24.8436        -5.4165         0.9105
      1431.0000         1.0356       1249.697         0.8559        -25.042        -5.6922      0.9002889
      1431.5000         1.0437       1209.748         0.8561       -25.2403        -5.9678      0.8900815
      1432.0000         1.0498       1201.649         0.8563        -25.538        -6.3428      0.8761926
      1432.5000         1.0518       1197.531         0.8367       -25.6371        -6.5193      0.8696555
      1433.0000         1.0618       1209.338         0.8268       -25.8354        -6.7949      0.8594481
      1433.5000         1.0633       1249.014         0.8073       -25.9345        -6.9713      0.8529148
      1434.0000         1.0699       1264.802         0.8075       -25.8352        -6.9493      0.8537297
      1434.5000           1.07       1280.591         0.7978        -20.774        -1.9061              1
      1435.0000         1.0715       1308.323          0.788       -20.9724        -2.1045              1
      1435.5000         1.0721       1332.074         0.7883       -21.1709         -2.303              1
      1436.0000         1.0762       1355.825         0.7785       -21.2701        -2.4022              1
      1436.5000         1.0782       1367.632         0.7688       -21.4685        -2.6006              1
      1437.0000         1.0783       1363.514          0.769       -21.5677        -2.6998              1
      1437.5000         1.0784       1359.396         0.7692       -21.5677        -2.6998              1
      1438.0000           1.08       1351.297         0.7694       -21.5676        -2.6997              1
      1438.5000         1.0805       1335.235         0.7696       -21.5676        -2.6997              1
