#------------------------------------------------------------------------------
# Created by    : vladimir.rabinovich
# Created on    : 09/19/2023 17:20:49
#------------------------------------------------------------------------------
~Version Information Section
VERS.           2.0     :   CWLS log ASCII Standard - VERSION 2.0
WRAP.           NO      :   One line per depth step
~Well Information Section
#MNEM       .UNIT                                         VALUE :DESCRIPTION
#------------------------------------------------------------------------------
STRT        .FT                                             556 :START DEPTH
STOP        .FT                                            7001 :STOP DEPTH
STEP        .FT                                             0.5 :STEP      
NULL        .                                           -999.25 :NULL      
COMP        .                          HUMBLE OIL & REFINING CO :COMPANY   
WELL        .                                     ST TR 00598-L :WELL      
FLD         .                                           WILDCAT :FIELD     
LOC         .                                                   :LOCATION  
CNTY        .                      MATAGORDA ISLAND LARGE BLOCK :LOCATION  
STAT        .                                             TEXAS :STATE     
CTRY        .                                     UNITED STATES :COUNTRY   
SRVC        .                                                   :SERVICE COMPANY
DATE        .                             9/13/2023 11:12:05 AM :LOG DATE  
API         .                                    42703000080000 :API NUMBER
UWI         .                                    42703000080000 :UNIQUE WELL ID
XCOORD      .                                  502144.869554487 :SURFACE X 
YCOORD      .                                  10234432.9570627 :SURFACE Y 
LAT         .                                        28.1568958 :LATITUDE  
LON         .                                       -96.5324651 :LONGITUDE 
ELEV        .FT                                              15 :ELEVATION VALUE
ELEV_TYPE   .                                                KB :ELEVATION REFERENCE TYPE
~Curve Information Section
#MNEM       .UNIT                                      API CODE :CURVE DESCRIPTION
#------------------------------------------------------------------------------
DEPT        .FT                                                 :DEPTH     
ASN         .OHMM                                               :          
CALI        .IN                                                 :          
CILD        .MMHO                                               :          
DT          .US/F                                               :          
ILD         .OHMM                                               :          
SP          .MV                                                 :          
SP_NORM     .MV                                                 :SP Normalized
VSH_SP      .V/V                                                :Volume of Shale from SP
~A        DEPTH            ASN           CALI           CILD             DT            ILD             SP        SP_NORM         VSH_SP
# ...
      2680.0000         1.0092         9.7739       851.4014       120.7961         1.1082       -52.1851        -4.0714      0.8705375
      2680.5000         1.0154         9.6431       847.1309       121.4899         1.0964       -52.5088        -4.3986      0.8500875
      2681.0000         1.0138         9.9803       851.8516       124.0917         1.0718       -52.8228         -4.716        0.83025
      2681.5000         1.0077        10.3325       875.0059       127.6681         1.0473       -52.9827        -4.8794      0.8200375
      2682.0000         1.0009        10.4903       933.5693       134.9832         1.0227       -53.1349         -5.035      0.8103125
      2682.5000         0.9808        10.5023       966.4219       135.7163          0.993       -53.1729        -5.0765      0.8077188
      2683.0000         0.9608        10.3526       997.8311       135.0371         0.9547       -53.2108        -5.1179      0.8051313
      2683.5000         0.9408        10.2376        1029.02       134.0535         0.9164       -53.2488        -5.1593      0.8025438
      2684.0000         0.9216        10.1255       1056.529       132.0542         0.8781       -53.4983        -5.4123      0.7867312
      2684.5000         0.9027        10.0532       1078.365       132.5596         0.8397       -53.8606         -5.778       0.763875
      2685.0000         0.8854        10.3345       1107.453         133.79         0.8014       -54.3572        -6.2781      0.7326187
      2685.5000         0.8767        11.1993       1140.891       137.4744         0.7631       -55.0005        -6.9248         0.6922
      2686.0000          0.868        11.2582       1176.408       138.2031          0.722       -55.7318        -7.6596       0.646275
      2686.5000         0.8593         9.8316       1222.086       140.1323         0.6792       -56.5411        -8.4724       0.595475
      2687.0000         0.8432         9.2653           1284       135.1003         0.6447       -57.3804        -9.3151      0.5428063
      2687.5000          0.816         9.0102       1373.424       123.3055         0.6357       -58.2278        -10.166       0.489625
      2688.0000         0.7891         8.9119       1505.518       120.2708         0.6237       -59.1116       -11.0532       0.434175
      2688.5000         0.7672         8.9049       1625.531       118.0071         0.6081        -60.014       -11.9591      0.3775563
      2689.0000         0.7452          9.084       1747.305       114.4562         0.5925        -60.657       -12.6055      0.3371562
      2689.5000         0.7233         9.4104       2035.563       118.8232         0.5769       -61.2797       -13.2317      0.2980188
      2690.0000         0.7058         9.8434       1959.277       121.0569         0.5466       -61.5859       -13.5414      0.2786625
      2690.5000           0.69         9.9956       2099.977       124.8254          0.514       -61.8846       -13.8435      0.2597812
      2691.0000         0.6742         9.9212       2408.129       129.2041         0.4813       -62.1415       -14.1039      0.2435063
      2691.5000         0.6584         9.7759       2500.828       127.7979         0.4486       -62.2337       -14.1995      0.2375312
      2692.0000         0.6461         9.3731       2544.602       125.1636         0.4212        -62.326       -14.2953      0.2315438
      2692.5000         0.6339          9.027        2573.02       123.1146         0.4061       -62.5517       -14.5244       0.217225
      2693.0000         0.6221         9.1058       2590.387       119.8839         0.3911       -62.7775       -14.7537      0.2028937
      2693.5000         0.6208         9.1283       2606.984       116.0031         0.3776        -63.012       -14.9917      0.1880187
      2694.0000         0.6195         8.9635       2614.922        112.333         0.3772       -63.7589        -15.742       0.141125
      2694.5000         0.6191         8.8255       2592.883       112.3867         0.3767       -64.4576       -16.4442     0.09723747
      2695.0000         0.6197         8.9689       2514.008       114.0739         0.3762       -64.5784       -16.5684     0.08947504
      2695.5000         0.6204          9.148       2459.566       120.4655         0.3758       -64.6825        -16.676     0.08274996
      2696.0000          0.621         9.2413       2426.238       124.4592         0.3753       -64.5897       -16.5866     0.08833754
      2696.5000         0.6209         9.0697       2393.531       125.0278         0.3748       -64.4838       -16.4842     0.09473753
      2697.0000         0.6184         8.9403       2356.559       124.6383         0.3744       -64.1628       -16.1666      0.1145875
      2697.5000         0.6158         8.8852       2309.266       121.6683         0.3739       -63.8499       -15.8572       0.133925
      2698.0000         0.6132         8.8771       2286.195       117.2468         0.3734       -64.0038       -16.0146      0.1240875
      2698.5000         0.6106         8.9361       2297.359        116.739          0.373       -64.1576       -16.1718      0.1142625
      2699.0000         0.6079         9.0128        2350.91       115.8713         0.3725        -64.324       -16.3417      0.1036438
      2699.5000         0.6049         9.0097       2432.828       116.8591          0.372       -64.5076       -16.5287     0.09195626
      2700.0000         0.6019         8.9712       2487.758       118.8082         0.3744        -64.691       -16.7156     0.08027506
      2700.5000         0.5989         9.0394         2496.5       119.8771         0.3975       -64.8745       -16.9025     0.06859374
      2701.0000         0.5959         9.2317        2498.98       121.5548         0.4206       -65.0493       -17.0808     0.05745006
      2701.5000         0.5974         9.4483        2479.75       123.9894         0.4437        -65.204        -17.239     0.04756248
      2702.0000         0.6046         9.7364        2392.09       125.6097         0.4667       -65.3586        -17.397     0.03768754
      2702.5000         0.6117         9.5669        2244.59        125.976         0.4898         -65.51       -17.5519      0.0280062
      2703.0000         0.6188         9.1907        2008.23       125.1718         0.5035       -65.6578       -17.7031     0.01855624
      2703.5000         0.6322         9.1335       2000.586        121.858         0.5158       -65.2029       -17.2517     0.04676878
      2704.0000         0.6498         9.2185       1897.787       120.6963         0.5281       -64.4606       -16.5128     0.09294999
      2704.5000         0.6675         9.2935       1766.035        120.236         0.5325       -63.6752       -15.7309      0.1418188
      2705.0000         0.6843         9.3048       1724.209       122.5056         0.5113       -62.8184       -14.8776        0.19515
      2705.5000         0.6939         9.3028       1762.857       121.0643           0.49       -61.8871       -13.9497      0.2531437
      2706.0000         0.7035         9.3128       1834.602        115.474         0.4688        -60.861       -12.9271      0.3170562
      2706.5000         0.7006         9.3111       1913.486       107.9368         0.4475       -59.9362       -12.0057      0.3746437
      2707.0000         0.6958          9.305       1970.264        95.3308         0.4263       -59.7947       -11.8677      0.3832688
      2707.5000          0.691         9.2998        1949.35        96.2693         0.4112       -60.0012       -12.0776        0.37015
      2708.0000         0.6841         9.2903       2092.445       102.2915         0.3961       -60.2078       -12.2877      0.3570188
      2708.5000         0.6713         9.2878       2503.887       107.0933          0.381       -60.4143       -12.4976         0.3439
      2709.0000         0.6585         9.2785       2549.488       113.4474         0.3659       -60.6716       -12.7584         0.3276
