#------------------------------------------------------------------------------
# Created by    : vladimir.rabinovich
# Created on    : 09/19/2023 17:20:46
#------------------------------------------------------------------------------
~Version Information Section
VERS.           2.0     :   CWLS log ASCII Standard - VERSION 2.0
WRAP.           NO      :   One line per depth step
~Well Information Section
#MNEM       .UNIT                                         VALUE :DESCRIPTION
#------------------------------------------------------------------------------
STRT        .FT                                             695 :START DEPTH
STOP        .FT                                            9139 :STOP DEPTH
STEP        .FT                                             0.5 :STEP      
NULL        .                                           -999.25 :NULL      
COMP        .                   COASTAL STATES GAS TRANSMISSION :COMPANY   
WELL        .                                     ST TR 00592-L :WELL      
FLD         .                                           WILDCAT :FIELD     
LOC         .                                                   :LOCATION  
CNTY        .                      MATAGORDA ISLAND LARGE BLOCK :LOCATION  
STAT        .                                             TEXAS :STATE     
CTRY        .                                     UNITED STATES :COUNTRY   
SRVC        .                                                   :SERVICE COMPANY
DATE        .                             9/13/2023 11:12:01 AM :LOG DATE  
API         .                                    42703000420000 :API NUMBER
UWI         .                                    42703000420000 :UNIQUE WELL ID
XCOORD      .                                  562172.631053371 :SURFACE X 
YCOORD      .                                   10240692.584136 :SURFACE Y 
LAT         .                                        28.1787665 :LATITUDE  
LON         .                                       -96.3469802 :LONGITUDE 
ELEV        .FT                                              11 :ELEVATION VALUE
ELEV_TYPE   .                                                KB :ELEVATION REFERENCE TYPE
~Curve Information Section
#MNEM       .UNIT                                      API CODE :CURVE DESCRIPTION
#------------------------------------------------------------------------------
DEPT        .FT                                                 :DEPTH     
ASN         .OHMM                                               :          
CALI        .IN                                                 :          
CILD        .MMHO                                               :          
DT          .US/F                                               :          
ILD         .OHMM                                               :          
SP          .MV                                                 :          
SP_NORM     .MV                                                 :SP Normalized
VSH_SP      .V/V                                                :Volume of Shale from SP
~A        DEPTH            ASN           CALI           CILD             DT            ILD             SP        SP_NORM         VSH_SP
# ...
      4618.5000         0.7373        15.9389        1292.24       132.8269         0.5458       -54.5993      -3.253849      0.9540031
      4619.0000         0.7415        15.9384       1282.717       134.6089         0.5594       -54.2042      -2.856476      0.9621127
      4619.5000         0.7456         15.938       1269.641        134.228         0.5715       -53.8088      -2.458797      0.9702286
      4620.0000         0.7521        15.9383        1259.41       131.3218         0.5837       -53.4135      -2.061226      0.9783424
      4620.5000         0.7599        15.9386       1250.881       128.7183         0.5958       -53.0184      -1.663845      0.9864522
      4621.0000         0.7678        15.9389       1245.598       130.1951         0.6012        -52.623      -1.266174      0.9945679
      4621.5000         0.7756        15.9392        1242.66       131.1777         0.6059       -52.2644     -0.9052963              1
      4622.0000         0.7835        15.9395       1237.566       128.1648         0.6106       -51.9213     -0.5599174              1
      4622.5000         0.7908        15.9385       1237.088       124.7971         0.6134       -51.5779     -0.2142448              1
      4623.0000         0.7951        15.9361       1238.504       124.3602         0.6152       -51.2349       0.131031              1
      4623.5000         0.7993        15.9338       1239.918       124.4304          0.617       -50.8801      0.4881058              1
      4624.0000         0.7988        15.9314       1241.488        125.322         0.6188       -50.3141       1.056385              1
      4624.5000          0.798        15.9291       1244.248       126.5071         0.6127       -49.7478       1.624958              1
      4625.0000         0.7954        15.9267       1247.756       126.1887         0.6053       -49.1758       2.199234              1
      4625.5000         0.7927        15.9243       1252.877       124.4385          0.598        -48.581        2.79631              1
      4626.0000           0.79         15.922       1258.738       122.5361         0.5922       -47.9729       3.406685              1
      4626.5000          0.786        15.9241       1265.688       121.7928         0.5881       -47.3565       4.025364              1
      4627.0000         0.7819        15.9264       1278.404       123.6691          0.584       -46.6722       4.711937              1
      4627.5000         0.7779        15.9287        1291.17       124.7418         0.5799       -45.9671       5.419315              1
      4628.0000         0.7758         15.931       1304.014       124.7773         0.5755       -45.8453       5.543388              1
      4628.5000         0.7744        15.9332       1323.604       124.6128         0.5699       -45.8568       5.534164              1
      4629.0000          0.773        15.9355       1339.797       125.7761         0.5643       -46.5568       4.836441              1
      4629.5000          0.772        15.9375        1353.18        127.097         0.5593        -47.257       4.138515              1
      4630.0000          0.774        15.9394       1365.486       128.0171         0.5561       -47.9146       3.483192              1
      4630.5000         0.7761        15.9413       1376.176        125.894          0.553       -48.4802       2.919865              1
      4631.0000         0.7781        15.9432       1386.865       122.4182           0.55       -49.0461       2.356243              1
      4631.5000         0.7817        15.9452       1398.412       123.2981         0.5473       -49.6118       1.792816              1
      4632.0000          0.789        15.9423        1388.51       125.3281         0.5445       -50.1774       1.229496              1
      4632.5000         0.7963        15.9393         1378.6       128.2256         0.5449       -50.7279      0.6812706              1
      4633.0000          0.803        15.9285       1368.697       129.6924         0.5565       -51.1375      0.2739449              1
      4633.5000         0.8076        15.7744       1347.375       130.6138         0.5698       -51.5472     -0.1334763              1
      4634.0000         0.8122        15.5856           1323       129.1055         0.5894       -51.9568      -0.540802              1
      4634.5000         0.8168        15.3869       1292.707       126.7205          0.609       -52.3665     -0.9482269              1
      4635.0000         0.8253        15.1806       1256.496       125.3951         0.6363       -52.7622      -1.341652      0.9930275
      4635.5000         0.8348        15.3019       1211.799       124.9916         0.6619       -53.1212      -1.698376      0.9857475
      4636.0000         0.8424        15.7727       1167.531       124.1704         0.6686         -53.48      -2.054897      0.9784715
      4636.5000         0.8497        15.9405       1104.148        122.582         0.6754       -53.8255      -2.398125      0.9714668
      4637.0000         0.8577         15.943       1072.924       119.7639         0.6821       -53.9551      -2.525448      0.9688684
      4637.5000         0.8699         15.934       1089.783       116.7212         0.6944       -54.0848      -2.652874      0.9662679
      4638.0000         0.8782        15.9141       1106.643       113.8101         0.7086       -54.0938      -2.659595      0.9661307
      4638.5000         0.8786        15.8037       1123.502       112.3905         0.7164       -53.9487      -2.512222      0.9691383
      4639.0000         0.8789        15.7152       1141.418       113.3608         0.7186       -53.8037      -2.364944       0.972144
      4639.5000         0.8793        15.8229       1159.637       118.5652         0.7208       -53.6413      -2.200268      0.9755048
      4640.0000         0.8771        15.8871       1168.488        121.804         0.7215       -53.4128      -1.969494      0.9802144
      4640.5000         0.8725        15.9007       1177.338       123.8403         0.7192       -53.1842      -1.738617      0.9849262
      4641.0000         0.8678        15.8779       1179.803       125.5577         0.7168       -52.9557      -1.507843      0.9896359
      4641.5000         0.8639        15.7914        1178.27       128.1401         0.7144       -52.7274      -1.277267      0.9943415
      4642.0000         0.8602        15.5881       1174.461       129.7917         0.7121       -52.5515      -1.099091      0.9979777
      4642.5000         0.8566        15.4194        1172.76       129.9299         0.7098       -52.4709      -1.016216      0.9996691
      4643.0000         0.8529         15.282       1176.359       125.6235         0.7075       -52.3904     -0.9334373              1
      4643.5000         0.8515        15.1934       1179.965       122.7942         0.7052         -52.31     -0.8507652              1
      4644.0000          0.851           15.2       1185.184       119.0752         0.7049       -52.2294     -0.7678871              1
      4644.5000         0.8505        15.2097       1196.615       107.0645         0.7066        -52.149     -0.6852112              1
      4645.0000         0.8502        15.1565       1207.563        86.5522         0.7084       -52.2424     -0.7763367              1
      4645.5000         0.8507        15.0283       1216.754         94.566         0.7101       -52.4093     -0.9409637              1
      4646.0000         0.8512         14.935       1225.945       123.7373         0.7123       -52.5761      -1.105484      0.9978473
      4646.5000         0.8517        14.9096        1235.23       127.5494         0.7151        -52.743      -1.270107      0.9944876
      4647.0000         0.8521        14.8797       1246.801       130.1851         0.7179       -52.9612      -1.486034       0.990081
      4647.5000         0.8526        14.8339       1258.385       132.9871         0.7206       -53.2042      -1.726757      0.9851682
