#------------------------------------------------------------------------------
# Created by    : vladimir.rabinovich
# Created on    : 09/19/2023 17:22:51
#------------------------------------------------------------------------------
~Version Information Section
VERS.           2.0     :   CWLS log ASCII Standard - VERSION 2.0
WRAP.           NO      :   One line per depth step
~Well Information Section
#MNEM       .UNIT                                         VALUE :DESCRIPTION
#------------------------------------------------------------------------------
STRT        .FT                                             970 :START DEPTH
STOP        .FT                                           10993 :STOP DEPTH
STEP        .FT                                             0.5 :STEP      
NULL        .                                           -999.25 :NULL      
COMP        .                               AMOCO PRODUCTION CO :COMPANY   
WELL        .                                     ST TR 00558-L :WELL      
FLD         .                                           WILDCAT :FIELD     
LOC         .                                                   :LOCATION  
CNTY        .                      MATAGORDA ISLAND LARGE BLOCK :LOCATION  
STAT        .                                             TEXAS :STATE     
CTRY        .                                     UNITED STATES :COUNTRY   
SRVC        .                                                   :SERVICE COMPANY
DATE        .                             9/13/2023 11:19:13 AM :LOG DATE  
API         .                                    42703301770000 :API NUMBER
UWI         .                                    42703301770000 :UNIQUE WELL ID
XCOORD      .                                   593347.98828382 :SURFACE X 
YCOORD      .                                   10274817.073936 :SURFACE Y 
LAT         .                                        28.2748406 :LATITUDE  
LON         .                                       -96.2531821 :LONGITUDE 
ELEV        .FT                                              93 :ELEVATION VALUE
ELEV_TYPE   .                                                KB :ELEVATION REFERENCE TYPE
~Curve Information Section
#MNEM       .UNIT                                      API CODE :CURVE DESCRIPTION
#------------------------------------------------------------------------------
DEPT        .FT                                                 :DEPTH     
GR          .GAPI                                               :          
GR_NORM     .GAPI                                               :GammaRay Normalized
ILD         .OHMM                                               :          
SP          .MV                                                 :          
SP_NORM     .MV                                                 :SP Normalized
VSH_GR      .V/V                                                :Volume of Shale from GR
VSH_SP      .V/V                                                :Volume of Shale from SP
~A        DEPTH             GR        GR_NORM            ILD             SP        SP_NORM         VSH_GR         VSH_SP
# ...
      4286.5000        48.2406       85.13797         0.9765      -120.4626      -2.707237              1      0.9813885
      4287.0000        48.2379       85.13688         0.9976       -119.651      -1.899979              1              1
      4287.5000         47.837        84.1517         1.0049      -119.0215      -1.274811              1              1
      4288.0000        47.1576       82.47824          1.001       -118.709     -0.9666519              1              1
      4288.5000        47.1827       82.54586         0.9758      -118.5038     -0.7657928              1              1
      4289.0000        48.1953       85.05392         0.9165      -118.4297     -0.6960297              1              1
      4289.5000        48.9957       87.03754         0.8602      -118.7024     -0.9730682              1              1
      4290.0000        48.8317       86.63783         0.8305      -122.1462      -4.421204              1      0.9362841
      4290.5000        47.3149       82.89486         0.8275      -127.6465      -9.925842              1      0.7914252
      4291.0000        45.2269        77.7403         0.8245      -129.6479      -11.93158      0.9519213      0.7386426
      4291.5000        44.4081       75.72236         0.8211       -128.364      -10.65202      0.9089863      0.7723154
      4292.0000        45.5403       78.52596         0.8179      -125.0554      -7.347748      0.9686375      0.8592698
      4292.5000        46.4399       80.75475         0.8155      -122.2419      -4.538589              1       0.933195
      4293.0000        46.9835       82.10376         0.8131      -120.8921      -3.193123              1       0.968602
      4293.5000         46.401       80.66978         0.8103      -120.4375      -2.742867              1      0.9804509
      4294.0000        45.5989       78.69309          0.806       -121.095      -3.404701      0.9721935      0.9630342
      4294.5000        46.1061       79.95214         0.7893      -120.1665      -2.480537      0.9989817      0.9873543
      4295.0000         47.011       82.19402         0.7704         -119.2      -1.518372              1              1
      4295.5000        48.4609       85.78281         0.7537      -118.3417     -0.6644135              1              1
      4296.0000        49.6287        88.6744          0.765      -117.8022     -0.1292496              1              1
      4296.5000        50.0172       89.64008         0.7812      -118.4709     -0.8022919              1              1
      4297.0000        49.8159       89.14819         0.7987      -119.1133       -1.44902              1              1
      4297.5000        49.3628         88.034         0.8165      -119.7401      -2.080162              1      0.9978905
      4298.0000        48.8033       86.65688         0.8404      -119.9399      -2.284302              1      0.9925184
      4298.5000        48.2213       85.22412         0.8651      -119.6683      -2.017036              1      0.9995517
      4299.0000        47.7436       84.04916         0.8949       -119.014      -1.367073              1              1
      4299.5000        47.5847       83.66201         0.9177      -118.3082     -0.6656113              1              1
      4300.0000        47.4257       83.27468         0.9219      -117.7446     -0.1063461              1              1
      4300.5000        47.4229       83.27331         0.9207      -117.6021     0.03181458              1              1
      4301.0000        47.4536       83.35477         0.9079       -117.859     -0.2294235              1              1
      4301.5000        47.1729       82.66661         0.8891      -117.9333     -0.3080597              1              1
      4302.0000        46.8887       81.96986         0.8619      -117.9956     -0.3746948              1              1
      4302.5000        46.3576        80.6629         0.8336      -118.1704     -0.5538406              1              1
      4303.0000        46.0001       79.78499         0.7987      -118.7759      -1.163673      0.9954253              1
      4303.5000        45.8703       79.46975         0.7611      -119.6414      -2.033516      0.9887181       0.999118
      4304.0000         45.674       78.99023         0.7191      -121.3472      -3.743645      0.9785154      0.9541146
      4304.5000        45.3746       78.25589         0.6754      -123.3246      -5.725388      0.9628913      0.9019635
      4305.0000        45.0266       77.40144         0.6103       -125.675      -8.080124      0.9447114      0.8399968
      4305.5000        44.2352        75.4512         0.5502      -128.7373      -11.14677      0.9032171      0.7592956
      4306.0000        43.4643       73.55163         0.5057      -132.5461      -14.95989      0.8628006      0.6589502
      4306.5000        42.6443       71.53068         0.4698      -136.0845      -18.50264      0.8198016        0.56572
      4307.0000        41.6377       69.04865         0.4473      -139.1467      -21.56917      0.7669924      0.4850219
      4307.5000        40.1902       65.47691         0.4346      -141.2671      -23.69392      0.6909981      0.4291075
      4308.0000        38.8756       62.23368         0.4499      -140.1838      -22.61495      0.6219933      0.4575013
      4308.5000        39.1448       62.90455         0.4763      -136.1609      -18.59639       0.636267      0.5632529
      4309.0000        41.1831       67.94748         0.5186      -131.0796      -13.51942      0.7435634      0.6968573
      4309.5000        43.2203       72.98763         0.5832      -126.3342      -8.778358      0.8508005      0.8216221
      4310.0000        44.0337       75.00339         0.6655      -124.5602      -7.008698      0.8936891      0.8681922
      4310.5000         44.358       75.81044         0.7541      -123.4543      -5.907135      0.9108604      0.8971807
      4311.0000        43.0289       72.53134         0.8358      -122.5674      -5.024567      0.8410923      0.9204062
      4311.5000        42.4675       71.14952         0.8897      -121.9124      -4.373909      0.8116919      0.9375287
      4312.0000        43.3494       73.33457         0.9354      -122.0983       -4.56414      0.8581824      0.9325226
      4312.5000        45.2227       77.96971         0.9735      -122.7288      -5.198982      0.9568024      0.9158162
      4313.0000        46.5649       81.29231         0.9962      -123.2438      -5.718315              1      0.9021496
      4313.5000        47.3693       83.28584           1.01      -122.7205      -5.199356              1      0.9158064
      4314.0000        47.5992       83.85959         1.0163      -122.0021      -4.485291              1      0.9345976
      4314.5000        46.9889       82.35688         1.0198      -122.0631      -4.550636              1       0.932878
      4315.0000        46.4157       80.94591         1.0225      -121.9692      -4.461067              1      0.9352351
      4315.5000        46.5161       81.19962         1.0236      -121.3903      -3.886505              1      0.9503551
      4316.0000        46.5176        81.2089         1.0203      -120.3573      -2.857841              1      0.9774252
      4316.5000        45.8346       79.52654         1.0171      -119.6366      -2.141479      0.9899265      0.9962769
      4317.0000        44.4069       76.00377         1.0142      -119.2434      -1.752617      0.9149738              1
      4317.5000        43.0133       72.56533         1.0119      -119.1906      -1.704155      0.8418155              1
      4318.0000        42.2489        70.6818         1.0096      -119.7117      -2.229591      0.8017405      0.9939581
      4318.5000        42.0178       70.11623         1.0126      -120.1823      -2.704529      0.7897071      0.9814598
      4319.0000        42.8961       72.29237         1.0161      -120.3459      -2.872467      0.8360078      0.9770404
      4319.5000        43.8901       74.75449         1.0281      -120.3739      -2.904808      0.8883933      0.9761893
