#------------------------------------------------------------------------------
# Created by    : vladimir.rabinovich
# Created on    : 09/19/2023 17:20:49
#------------------------------------------------------------------------------
~Version Information Section
VERS.           2.0     :   CWLS log ASCII Standard - VERSION 2.0
WRAP.           NO      :   One line per depth step
~Well Information Section
#MNEM       .UNIT                                         VALUE :DESCRIPTION
#------------------------------------------------------------------------------
STRT        .FT                                            2010 :START DEPTH
STOP        .FT                                            6610 :STOP DEPTH
STEP        .FT                                             0.5 :STEP      
NULL        .                                           -999.25 :NULL      
COMP        .                                      SHELL OIL CO :COMPANY   
WELL        .                                ST TR 00691-L SE/4 :WELL      
FLD         .                                           WILDCAT :FIELD     
LOC         .                                                   :LOCATION  
CNTY        .                      MATAGORDA ISLAND LARGE BLOCK :LOCATION  
STAT        .                                             TEXAS :STATE     
CTRY        .                                     UNITED STATES :COUNTRY   
SRVC        .                                                   :SERVICE COMPANY
DATE        .                             9/13/2023 11:12:05 AM :LOG DATE  
API         .                                    42703000190000 :API NUMBER
UWI         .                                    42703000190000 :UNIQUE WELL ID
XCOORD      .                                  412077.623085271 :SURFACE X 
YCOORD      .                                  10154908.2726125 :SURFACE Y 
LAT         .                                        27.9310704 :LATITUDE  
LON         .                                         -96.80379 :LONGITUDE 
ELEV        .FT                                              82 :ELEVATION VALUE
ELEV_TYPE   .                                                DF :ELEVATION REFERENCE TYPE
~Curve Information Section
#MNEM       .UNIT                                      API CODE :CURVE DESCRIPTION
#------------------------------------------------------------------------------
DEPT        .FT                                                 :DEPTH     
ASN         .OHMM                                               :          
CILD        .MMHO                                               :          
ILD         .OHMM                                               :          
SP          .MV                                                 :          
SP_NORM     .MV                                                 :SP Normalized
VSH_SP      .V/V                                                :Volume of Shale from SP
~A        DEPTH            ASN           CILD            ILD             SP        SP_NORM         VSH_SP
# ...
      3226.0000         1.1251       932.0273         1.1613       -71.3745        -0.2862              1
      3226.5000         1.1343       929.4365         1.1326       -71.5834        -0.5017              1
      3227.0000         1.1434       949.7686         1.1025        -71.792        -0.7169              1
      3227.5000         1.1321       972.0098         1.0723            -72        -0.9314              1
      3228.0000         1.1043       996.0732         1.0362       -72.0519        -0.9899              1
      3228.5000         1.0743       1021.054         0.9922       -72.0142        -0.9588              1
      3229.0000         1.0443       1051.748         0.9481       -71.8463        -0.7975              1
      3229.5000         1.0056       1118.984         0.9041       -71.6785        -0.6363              1
      3230.0000         0.9661       1186.023           0.86       -71.5107        -0.4751              1
      3230.5000         0.9284       1322.576         0.8449       -71.3428        -0.3137              1
      3231.0000         0.9074       1337.732          0.831       -71.7085         -0.686              1
      3231.5000         0.9221       1324.025         0.8164       -72.4888        -1.4729              1
      3232.0000         0.9601       1310.311         0.8009       -73.3732        -2.3639      0.9889727
      3232.5000         1.0108       1296.598         0.7853       -74.3173        -3.3146      0.9601637
      3233.0000         1.0729       1282.889         0.7698       -75.2607        -4.2646      0.9313757
      3233.5000         1.2718       1287.514         0.7533       -76.4562        -5.4667      0.8949485
      3234.0000         1.2895       1329.451         0.7041        -77.828         -6.845      0.8531818
      3234.5000         1.2634       1366.873         0.6549          -79.2        -8.2236      0.8114061
      3235.0000         1.2278       1401.238         0.6057        -94.127       -23.1572      0.3588727
      3235.5000         1.1804       1446.697         0.5614       -96.1053       -25.1421      0.2987243
      3236.0000         1.1312       1496.635         0.5258         -97.39       -26.4334       0.259594
      3236.5000         1.0843       1561.154         0.4903       -98.3436       -27.3936       0.230497
      3237.0000         1.0427       1634.215         0.4547       -97.8953       -26.9519      0.2438818
      3237.5000          1.001           1871          0.425       -97.4103       -26.4734      0.2583818
      3238.0000         0.9498       2048.883         0.4124       -96.9253        -25.995      0.2728788
      3238.5000         0.8801       2291.895         0.4088       -96.4404       -25.5167      0.2873727
      3239.0000         0.7611       2521.297         0.4098       -96.3878       -25.4707      0.2887667
      3239.5000          0.796       2750.703         0.4107       -99.9279       -29.0174      0.1812909
      3240.0000         0.8558       2677.742          0.418      -103.1436       -32.2397     0.08364545
      3240.5000          0.877       2563.578         0.4326      -104.7042       -33.8069     0.03615455
      3241.0000         0.8953       2449.461         0.4473      -104.5444       -33.6536     0.04080003
      3241.5000         0.9137       2335.297         0.4619      -104.3846       -33.5004     0.04544241
      3242.0000          0.932       2221.133         0.4768      -103.8975       -33.0199     0.06000299
      3242.5000         0.9504       2020.094         0.5056      -103.2509       -32.3799     0.07939691
      3243.0000         0.9567       1969.375         0.5344      -102.5056       -31.6412      0.1017818
      3243.5000         0.9546       1879.523         0.5632      -101.3329       -30.4751      0.1371182
      3244.0000         0.9524       1769.518          0.592      -100.1602        -29.309      0.1724546
      3244.5000         0.9608       1662.693         0.6208       -98.9874       -28.1427       0.207797
      3245.0000          0.976       1555.871         0.6568       -97.5037       -26.6656      0.2525576
      3245.5000         0.9778       1449.096         0.6936       -94.0691       -23.2376      0.3564363
      3246.0000         0.9467       1342.271         0.7303        -90.637       -19.8121      0.4602394
      3246.5000          0.915       1262.949          0.767       -87.2024       -16.3841      0.5641182
      3247.0000         0.8783       1181.295           0.79       -83.7678       -12.9561      0.6679969
      3247.5000         0.8566        1176.08         0.8129       -77.8489        -7.0437      0.8471606
      3248.0000         0.8602       1170.869         0.8358        -76.568        -5.7694      0.8857757
      3248.5000         0.8567       1161.643         0.8587       -75.4716        -4.6796         0.9188
      3249.0000         0.8444       1152.039         0.8809       -74.6826        -3.8972      0.9425091
      3249.5000         0.8315       1141.486         0.8971       -73.8934        -3.1146      0.9662243
      3250.0000         0.8186       1127.889         0.9134        -73.239        -2.4668      0.9858546
      3250.5000         0.8056       1114.285         0.9296       -72.9958        -2.2302      0.9930242
      3251.0000         0.7927       1055.197         0.9459       -72.7526        -1.9935              1
      3251.5000         0.7886       1032.561         0.9622       -72.5651        -1.8126              1
      3252.0000         0.7849       1028.734         0.9646       -72.5923        -1.8464              1
      3252.5000         0.7811       1039.795         0.9505       -72.6195        -1.8802              1
      3253.0000         0.7774       1052.891         0.9248       -72.6469        -1.9142              1
      3253.5000         0.7737       1080.998         0.8862       -72.6741         -1.948              1
      3254.0000          0.766        1109.76         0.8477       -72.7856        -2.0661       0.997997
      3254.5000          0.756       1180.104         0.8091       -73.0187        -2.3057      0.9907364
      3255.0000          0.746       1228.279         0.7726       -73.2518        -2.5454      0.9834727
      3255.5000         0.7242       1285.361         0.7453       -73.4847        -2.7849      0.9762151
      3256.0000          0.698       1370.018         0.7181       -73.6675        -2.9743      0.9704757
      3256.5000         0.6718           1481         0.6908       -73.8236         -3.137      0.9655455
      3257.0000         0.6568       1505.357         0.6635       -73.9796        -3.2996      0.9606182
      3257.5000          0.642        1522.24         0.6362       -74.1357        -3.4622      0.9556909
      3258.0000         0.6273       1538.719         0.6266       -74.2919         -3.625      0.9507576
      3258.5000         0.6149       1554.707         0.6249       -74.4479        -3.7876      0.9458303
      3259.0000         0.6068       1546.775         0.6233       -74.4301        -3.7764      0.9461697
      3259.5000         0.6015       1537.049         0.6216       -74.2382        -3.5911      0.9517848
      3260.0000          0.598       1527.316           0.62       -74.0463        -3.4058         0.9574
      3260.5000         0.5945       1517.592         0.6183       -73.8542        -3.2203      0.9630212
      3261.0000          0.591       1517.711         0.6167       -73.6624         -3.035      0.9686363
      3261.5000         0.5874       1524.301         0.6151       -73.4856        -2.8648      0.9737939
      3262.0000         0.5941       1521.953         0.6147       -73.3563        -2.7421      0.9775121
      3262.5000         0.6024        1508.66         0.6271       -73.2271        -2.6195      0.9812273
      3263.0000         0.6107       1495.369         0.6395       -73.0978        -2.4968      0.9849455
      3263.5000         0.6268       1482.076         0.6518       -72.9685        -2.3741      0.9886636
