~VERSION INFORMATION
VERS.                             2.0:   CWLS Log ASCII Standard-VERSION 2.0
WRAP.                              NO:   One line per depth step
~Well Information Block
STRT.F                      4530.0000:   Top Depth
STOP.F                      8517.0000:   Bottom Depth
STEP.F                         .50000:   Depth Increment
NULL.                        -999.250:   Null Value
FLD .                     MU BLK A 16:   Field Name
WELL.       OCSG03011  A005 ST00 BP00:   NAME
API .                    427024017200:   WELL API
R1  .                           38396:   COMMENT  1
EDF .F                       109.0000:   ELEV DRILL FLOOR
COMP.                     OXY USA INC:   OPERATOR
BN  .                            A 16:   BLOCK
CTRY.                             USA:   COUNTRY NAME
CNTY.                        MG ILD L:   COUNTY NAME
EKB .F                       110.0000:   ELEV KELLY BUSHING
TDD .F                       8534.000:   FINAL TD DRILLER
STAT.                           TEXAS:   STATE NAME
UWI .                    427024017200:   WELL API
DICO.               IHS : Digitizing Company
~PARAMETER INFORMATION (zones)
#MNEM.UNIT                       Value     Description
#=========                       =====     ===========
#ZONATION                          CNL:   ZONATION NAME
#ZONE                            RUN_1:   ZONE NAME
TOP .                       4530.0000:   TOP DEPTH
BOT .                       8517.5000:   BOTTOM DEPTH
RUN .                               1:   RUN NUMBER
LCCD.                             440:   LOGGING CONTRACTOR
SRVC.                    Schlumberger:   LOGGING CONT NAME
DICO.          QC Data Collectors Ltd:   DIG COMPANY NAME
LDAT.                      08/24/1989:   DATE LOGGED
ELD .F                       110.0000:   LOG DATUM ELEVATION
TDD .F                      8534.0000:   TOTAL DEPTH DRILLER
TDL .F                      8523.0000:   TOTAL DEPTH LOGGER
BOTL.F                      8517.0000:   BOTTOM DEPTH LOGGED
TOPL.F                      4580.0000:   TOP DEPTH LOGGED
CS1 .IN                       13.3750:   CASING SIZE 1
BS1 .IN                       12.2500:   BIT SIZE 1
DDB1.F                      8534.0000:   DEPTH DRILLED BIT 1
BHF .                              81:   FLUID CODE
DPT .          Lignosulfonate (Ligno):   DRILLING FLUID TYPE
MUDD.                         10.5000:   FLUID DENSITY
MUDV.                         29.0000:   FLUID VISCOSITY
DFPH.                          9.8000:   FLUID PH
FL  .                          6.8000:   FLUID LOSS
RM  .OHMM                       .7680:   RM
RMT .DEGC                     89.0000:   RM TEMP
RMF .OHMM                       .8480:   RMF
RMFT.DEGC                     89.0000:   RMF TEMP
FSC .                               M:   RMF CODE
RMC .OHMM                       .8250:   RMC
RMCT.DEGC                     89.0000:   RMC TEMP
CMC .                               M:   RMC CODE
TMAX.DEGC                    162.0000:   MAX REC TEMP
TIMC.                         16.2500:   TIME SINCE CIRCLN
~PARAMETER INFORMATION (zones)
#MNEM.UNIT                       Value     Description
#=========                       =====     ===========
#ZONATION                          DIL:   ZONATION NAME
#ZONE                            RUN_1:   ZONE NAME
TOP .                       4580.0000:   TOP DEPTH
BOT .                       8517.5000:   BOTTOM DEPTH
RUN .                               1:   RUN NUMBER
LCCD.                             440:   LOGGING CONTRACTOR
SRVC.                    Schlumberger:   LOGGING CONT NAME
DICO.          QC Data Collectors Ltd:   DIG COMPANY NAME
LDAT.                      08/24/1989:   DATE LOGGED
ELD .F                       110.0000:   LOG DATUM ELEVATION
TDD .F                      8534.0000:   TOTAL DEPTH DRILLER
TDL .F                      8523.0000:   TOTAL DEPTH LOGGER
BOTL.F                      8517.0000:   BOTTOM DEPTH LOGGED
TOPL.F                      4580.0000:   TOP DEPTH LOGGED
CS1 .IN                       13.3750:   CASING SIZE 1
BS1 .IN                       12.2500:   BIT SIZE 1
DDB1.F                      8534.0000:   DEPTH DRILLED BIT 1
BHF .                              81:   FLUID CODE
DPT .          Lignosulfonate (Ligno):   DRILLING FLUID TYPE
MUDD.                         10.5000:   FLUID DENSITY
MUDV.                         29.0000:   FLUID VISCOSITY
DFPH.                          9.8000:   FLUID PH
FL  .                          6.8000:   FLUID LOSS
RM  .OHMM                       .7680:   RM
RMT .DEGC                     89.0000:   RM TEMP
RMF .OHMM                       .8480:   RMF
RMFT.DEGC                     89.0000:   RMF TEMP
FSC .                               M:   RMF CODE
RMC .OHMM                       .8250:   RMC
RMCT.DEGC                     89.0000:   RMC TEMP
CMC .                               M:   RMC CODE
TMAX.DEGC                    162.0000:   MAX REC TEMP
TIMC.                         16.2500:   TIME SINCE CIRCLN
~PARAMETER INFORMATION (zones)
#MNEM.UNIT                       Value     Description
#=========                       =====     ===========
#ZONATION                          FDC:   ZONATION NAME
#ZONE                            RUN_1:   ZONE NAME
TOP .                       4530.0000:   TOP DEPTH
BOT .                       8517.5000:   BOTTOM DEPTH
RUN .                               1:   RUN NUMBER
LCCD.                             440:   LOGGING CONTRACTOR
SRVC.                    Schlumberger:   LOGGING CONT NAME
DICO.          QC Data Collectors Ltd:   DIG COMPANY NAME
LDAT.                      08/24/1989:   DATE LOGGED
ELD .F                       110.0000:   LOG DATUM ELEVATION
TDD .F                      8534.0000:   TOTAL DEPTH DRILLER
TDL .F                      8523.0000:   TOTAL DEPTH LOGGER
BOTL.F                      8517.0000:   BOTTOM DEPTH LOGGED
TOPL.F                      4580.0000:   TOP DEPTH LOGGED
CS1 .IN                       13.3750:   CASING SIZE 1
BS1 .IN                       12.2500:   BIT SIZE 1
DDB1.F                      8534.0000:   DEPTH DRILLED BIT 1
BHF .                              81:   FLUID CODE
DPT .          Lignosulfonate (Ligno):   DRILLING FLUID TYPE
MUDD.                         10.5000:   FLUID DENSITY
MUDV.                         29.0000:   FLUID VISCOSITY
DFPH.                          9.8000:   FLUID PH
FL  .                          6.8000:   FLUID LOSS
RM  .OHMM                       .7680:   RM
RMT .DEGC                     89.0000:   RM TEMP
RMF .OHMM                       .8480:   RMF
RMFT.DEGC                     89.0000:   RMF TEMP
FSC .                               M:   RMF CODE
RMC .OHMM                       .8250:   RMC
RMCT.DEGC                     89.0000:   RMC TEMP
CMC .                               M:   RMC CODE
TMAX.DEGC                    162.0000:   MAX REC TEMP
TIMC.                         16.2500:   TIME SINCE CIRCLN
~Curve Information Block
#MNEM.UNIT                    API CODE    No Description
#=========                    ========    == ===========
DEPT.F                   00 001 00 00:     1  DEPTH
NPHI.%                               :     2  Neutron Porosity
ILD.OHMM                             :     3  Deep Induction Resistivity
ILM.OHMM                             :     4  Medium Induction Resistivity
SFL.OHMM                             :     5  Medium Resistivity
SP.MV                                :     6  Spontaneous Potential
CALI.IN                              :     7  Caliper
DPHI.%                               :     8  Porosity
DRHO.G/C3                            :     9  Bulk Density Correction
GR.GAPI                              :    10  Gamma Ray
~ASCII
# ...
 7961.0000    32.9803     1.3382     1.3248     1.1639   -44.3637    13.8127    20.3713      .0051    83.0591
 7961.5000    33.0414     1.3399     1.3253     1.1531   -44.3569    13.8219    20.3055      .0037    84.3984
 7962.0000    33.1026     1.3446     1.3259     1.1396   -44.3500    13.8217    19.9405      .0026    81.2324
 7962.5000    32.5590     1.3505     1.3271     1.1358   -44.3397    13.8086    19.5038      .0017    78.9264
 7963.0000    32.0217     1.3561     1.3290     1.1383   -44.3057    13.7826    19.3658      .0009    77.1493
 7963.5000    31.9617     1.3608     1.3310     1.1575   -44.2717    13.7858    19.4829      .0000    75.4712
 7964.0000    32.9271     1.3654     1.3339     1.1757   -44.2377    13.8002    19.4331     -.0011    73.6237
 7964.5000    33.7631     1.3689     1.3369     1.1906   -44.1653    13.8229    19.2390     -.0027    72.4875
 7965.0000    34.0775     1.3713     1.3415     1.1873   -44.0906    13.8539    19.0265     -.0040    72.8536
 7965.5000    33.9922     1.3719     1.3472     1.1918   -44.0181    13.8884    18.9529     -.0049    74.1161
 7966.0000    33.9171     1.3684     1.3530     1.2121   -43.9522    13.8825    19.2125     -.0052    76.2998
 7966.5000    34.0696     1.3650     1.3538     1.2105   -43.8864    13.8129    19.5482     -.0049    79.4866
 7967.0000    34.5710     1.3523     1.3546     1.1864   -43.8247    13.7721    19.7091     -.0040    81.5087
 7967.5000    35.2542     1.3389     1.3524     1.1469   -43.7642    13.7960    19.6967     -.0028    81.8031
 7968.0000    36.2430     1.3315     1.3462     1.1172   -43.7015    13.8321    19.6778     -.0020    80.3126
 7968.5000    37.1242     1.3244     1.3401     1.1035   -43.6237    13.8696    19.7225     -.0016    78.2098
 7969.0000    36.5494     1.3177     1.3295     1.1193   -43.5460    13.9090    19.9826     -.0014    76.7128
 7969.5000    36.1767     1.3092     1.3179     1.1314   -43.4808    13.9260    20.6010     -.0013    76.5437
 7970.0000    36.0107     1.2990     1.3127     1.1234   -43.4269    13.9281    20.6681     -.0013    76.7129
 7970.5000    37.5667     1.2925     1.3116     1.1044   -43.3752    13.9009    20.1019     -.0014    76.4965
 7971.0000    37.4147     1.2886     1.3115     1.0903   -43.3315    13.8577    19.5849     -.0014    75.3591
 7971.5000    36.8462     1.2949     1.3117     1.0855   -43.2891    13.8237    19.2686     -.0013    76.8365
 7972.0000    35.4406     1.3035     1.3105     1.0999   -43.2523    13.7295    19.0387     -.0003    78.6398
 7972.5000    33.9169     1.3069     1.3094     1.1320   -43.2153    13.5361    18.9825      .0011    80.3700
 7973.0000    34.3751     1.3104     1.3101     1.1712   -43.3478    13.5538    19.3201      .0026    82.0637
 7973.5000    35.2453     1.3095     1.3111     1.2031   -43.5068    13.6325    19.6937      .0036    83.6401
 7974.0000    36.0942     1.3083     1.3137     1.2048   -43.7068    13.7060    19.8925      .0041    84.6759
 7974.5000    36.5912     1.3094     1.3178     1.1933   -43.8276    13.7342    19.9526      .0045    85.7417
 7975.0000    36.4013     1.3141     1.3219     1.1649   -43.8459    13.7418    19.8169      .0048    84.4115
 7975.5000    35.7303     1.3169     1.3217     1.1421   -43.8543    13.7571    19.5814      .0049    82.9562
 7976.0000    34.4814     1.3187     1.3195     1.1236   -43.7963    13.8463    19.6371      .0045    81.8213
 7976.5000    33.5712     1.3121     1.3157     1.1091   -43.7382    13.9156    19.9202      .0041    81.1888
 7977.0000    33.0223     1.3050     1.3058     1.1040   -43.6758    13.9760    20.2487      .0037    81.1830
 7977.5000    32.7756     1.2935     1.2959     1.1079   -43.6071    13.9824    20.4341      .0032    81.6897
 7978.0000    34.0043     1.2820     1.2909     1.1128   -43.5387    13.9859    20.5312      .0025    80.7609
 7978.5000    35.4626     1.2794     1.2865     1.1246   -43.5188    13.9476    20.6116      .0016    77.8971
 7979.0000    37.6624     1.2772     1.2850     1.1379   -43.4989    13.9004    20.5792      .0007    76.3818
 7979.5000    37.0612     1.2766     1.2850     1.1448   -43.5406    13.8241    20.5425      .0019    79.0853
 7980.0000    35.8627     1.2767     1.2860     1.1350   -43.5952    13.7329    20.4115      .0044    80.4794
 7980.5000    36.9257     1.2749     1.2880     1.1162   -43.6307    13.6463    20.2918      .0066    81.3419
 7981.0000    38.0463     1.2724     1.2890     1.1044   -43.6491    13.7468    20.2696      .0071    81.3458
 7981.5000    38.9164     1.2683     1.2845     1.1059   -43.6731    13.8284    20.5043      .0063    80.6351
 7982.0000    39.4114     1.2638     1.2801     1.1110   -43.7131    13.9028    20.8221      .0044    79.9823
 7982.5000    39.1291     1.2615     1.2786     1.1187   -43.7802    13.9034    21.0939      .0009    81.8396
 7983.0000    38.5361     1.2604     1.2774     1.1274   -43.9009    13.8893    21.3638     -.0006    82.7516
 7983.5000    37.7510     1.2602     1.2833     1.1296   -44.0035    13.8371    21.2101     -.0013    79.0514
 7984.0000    36.7430     1.2624     1.2860     1.1296   -44.0942    13.8208    20.9278     -.0016    76.5421
 7984.5000    35.9355     1.2646     1.2803     1.1273   -44.1317    13.8258    20.7076     -.0017    75.8385
 7985.0000    36.7005     1.2652     1.2631     1.1235   -44.1692    13.8474    20.6429     -.0015    77.6860
 7985.5000    38.1447     1.2630     1.2408     1.1198   -44.2039    13.9193    20.5027     -.0013    77.7114
 7986.0000    37.7337     1.2609     1.2351     1.1161   -44.2383    13.9891    20.0239     -.0010    77.4893
 7986.5000    36.7415     1.2588     1.2485     1.1110   -44.2725    14.0207    19.5552     -.0006    77.9847
 7987.0000    35.1208     1.2567     1.2622     1.1052   -44.3059    14.0345    19.2805     -.0004    78.0183
 7987.5000    34.6043     1.2578     1.2730     1.1057   -44.3394    14.0470    19.1491     -.0003    76.9590
 7988.0000    34.1964     1.2626     1.2825     1.1069   -44.3568    14.0367    19.1020     -.0003    74.8693
 7988.5000    34.1226     1.2675     1.2969     1.1173   -44.3602    13.7112    19.1696     -.0008    73.4425
 7989.0000    34.2948     1.2711     1.3084     1.1334   -44.3637    13.7331    19.2950     -.0017    74.2712
 7989.5000    34.4795     1.2747     1.3179     1.1578   -44.3663    13.8099    19.3266     -.0028    74.6948
 7990.0000    34.9161     1.2804     1.3318     1.1857   -44.3687    13.8865    19.2309     -.0040    76.1382
 7990.5000    35.7256     1.2882     1.3455     1.2014   -44.3751    13.9232    18.9680     -.0044    77.7056
 7991.0000    35.9479     1.2960     1.3475     1.2124   -44.4094    13.9556    18.6732     -.0044    78.2700
 7991.5000    36.1032     1.3008     1.3496     1.2012   -44.4438    14.0049    18.6563     -.0033    78.4514
 7992.0000    35.4910     1.3056     1.3417     1.1850   -44.4771    14.0577    18.7222     -.0021    78.9081
 7992.5000    33.9731     1.3069     1.3298     1.1594   -44.5093    14.1676    18.9027     -.0010    80.4091
 7993.0000    34.0035     1.3048     1.3167     1.1435   -44.5414    14.0308    19.1310      .0002    80.8025
 7993.5000    34.3940     1.3027     1.3044     1.1347   -44.5604    14.0088    19.4149      .0006    77.6704
 7994.0000    35.1682     1.2982     1.2931     1.1368   -44.5671    14.0136    19.5285      .0000    74.1500
 7994.5000    35.3351     1.2931     1.2836     1.1335   -44.5737    14.0101    19.4981     -.0011    73.0282
 7995.0000    34.0562     1.2875     1.2776     1.1273   -44.5804    13.9739    19.6519     -.0018    72.8551
 7995.5000    33.6083     1.2802     1.2717     1.1153   -44.5870    13.8668    20.0583     -.0028    72.8289
 7996.0000    33.6184     1.2730     1.2661     1.1055   -44.5936    13.7652    20.4380     -.0040    74.2281
 7996.5000    34.0168     1.2671     1.2616     1.1031   -44.6003    13.7003    20.7199     -.0047    75.8359
 7997.0000    35.0287     1.2615     1.2570     1.1102   -44.5977    13.6523    20.8800     -.0045    77.3381
