~VERSION INFORMATION
VERS.                             2.0:   CWLS Log ASCII Standard-VERSION 2.0
WRAP.                              NO:   One line per depth step
~Well Information Block
STRT.F                      4530.0000:   Top Depth
STOP.F                      8517.0000:   Bottom Depth
STEP.F                         .50000:   Depth Increment
NULL.                        -999.250:   Null Value
FLD .                     MU BLK A 16:   Field Name
WELL.       OCSG03011  A005 ST00 BP00:   NAME
API .                    427024017200:   WELL API
R1  .                           38396:   COMMENT  1
EDF .F                       109.0000:   ELEV DRILL FLOOR
COMP.                     OXY USA INC:   OPERATOR
BN  .                            A 16:   BLOCK
CTRY.                             USA:   COUNTRY NAME
CNTY.                        MG ILD L:   COUNTY NAME
EKB .F                       110.0000:   ELEV KELLY BUSHING
TDD .F                       8534.000:   FINAL TD DRILLER
STAT.                           TEXAS:   STATE NAME
UWI .                    427024017200:   WELL API
DICO.               IHS : Digitizing Company
~PARAMETER INFORMATION (zones)
#MNEM.UNIT                       Value     Description
#=========                       =====     ===========
#ZONATION                          CNL:   ZONATION NAME
#ZONE                            RUN_1:   ZONE NAME
TOP .                       4530.0000:   TOP DEPTH
BOT .                       8517.5000:   BOTTOM DEPTH
RUN .                               1:   RUN NUMBER
LCCD.                             440:   LOGGING CONTRACTOR
SRVC.                    Schlumberger:   LOGGING CONT NAME
DICO.          QC Data Collectors Ltd:   DIG COMPANY NAME
LDAT.                      08/24/1989:   DATE LOGGED
ELD .F                       110.0000:   LOG DATUM ELEVATION
TDD .F                      8534.0000:   TOTAL DEPTH DRILLER
TDL .F                      8523.0000:   TOTAL DEPTH LOGGER
BOTL.F                      8517.0000:   BOTTOM DEPTH LOGGED
TOPL.F                      4580.0000:   TOP DEPTH LOGGED
CS1 .IN                       13.3750:   CASING SIZE 1
BS1 .IN                       12.2500:   BIT SIZE 1
DDB1.F                      8534.0000:   DEPTH DRILLED BIT 1
BHF .                              81:   FLUID CODE
DPT .          Lignosulfonate (Ligno):   DRILLING FLUID TYPE
MUDD.                         10.5000:   FLUID DENSITY
MUDV.                         29.0000:   FLUID VISCOSITY
DFPH.                          9.8000:   FLUID PH
FL  .                          6.8000:   FLUID LOSS
RM  .OHMM                       .7680:   RM
RMT .DEGC                     89.0000:   RM TEMP
RMF .OHMM                       .8480:   RMF
RMFT.DEGC                     89.0000:   RMF TEMP
FSC .                               M:   RMF CODE
RMC .OHMM                       .8250:   RMC
RMCT.DEGC                     89.0000:   RMC TEMP
CMC .                               M:   RMC CODE
TMAX.DEGC                    162.0000:   MAX REC TEMP
TIMC.                         16.2500:   TIME SINCE CIRCLN
~PARAMETER INFORMATION (zones)
#MNEM.UNIT                       Value     Description
#=========                       =====     ===========
#ZONATION                          DIL:   ZONATION NAME
#ZONE                            RUN_1:   ZONE NAME
TOP .                       4580.0000:   TOP DEPTH
BOT .                       8517.5000:   BOTTOM DEPTH
RUN .                               1:   RUN NUMBER
LCCD.                             440:   LOGGING CONTRACTOR
SRVC.                    Schlumberger:   LOGGING CONT NAME
DICO.          QC Data Collectors Ltd:   DIG COMPANY NAME
LDAT.                      08/24/1989:   DATE LOGGED
ELD .F                       110.0000:   LOG DATUM ELEVATION
TDD .F                      8534.0000:   TOTAL DEPTH DRILLER
TDL .F                      8523.0000:   TOTAL DEPTH LOGGER
BOTL.F                      8517.0000:   BOTTOM DEPTH LOGGED
TOPL.F                      4580.0000:   TOP DEPTH LOGGED
CS1 .IN                       13.3750:   CASING SIZE 1
BS1 .IN                       12.2500:   BIT SIZE 1
DDB1.F                      8534.0000:   DEPTH DRILLED BIT 1
BHF .                              81:   FLUID CODE
DPT .          Lignosulfonate (Ligno):   DRILLING FLUID TYPE
MUDD.                         10.5000:   FLUID DENSITY
MUDV.                         29.0000:   FLUID VISCOSITY
DFPH.                          9.8000:   FLUID PH
FL  .                          6.8000:   FLUID LOSS
RM  .OHMM                       .7680:   RM
RMT .DEGC                     89.0000:   RM TEMP
RMF .OHMM                       .8480:   RMF
RMFT.DEGC                     89.0000:   RMF TEMP
FSC .                               M:   RMF CODE
RMC .OHMM                       .8250:   RMC
RMCT.DEGC                     89.0000:   RMC TEMP
CMC .                               M:   RMC CODE
TMAX.DEGC                    162.0000:   MAX REC TEMP
TIMC.                         16.2500:   TIME SINCE CIRCLN
~PARAMETER INFORMATION (zones)
#MNEM.UNIT                       Value     Description
#=========                       =====     ===========
#ZONATION                          FDC:   ZONATION NAME
#ZONE                            RUN_1:   ZONE NAME
TOP .                       4530.0000:   TOP DEPTH
BOT .                       8517.5000:   BOTTOM DEPTH
RUN .                               1:   RUN NUMBER
LCCD.                             440:   LOGGING CONTRACTOR
SRVC.                    Schlumberger:   LOGGING CONT NAME
DICO.          QC Data Collectors Ltd:   DIG COMPANY NAME
LDAT.                      08/24/1989:   DATE LOGGED
ELD .F                       110.0000:   LOG DATUM ELEVATION
TDD .F                      8534.0000:   TOTAL DEPTH DRILLER
TDL .F                      8523.0000:   TOTAL DEPTH LOGGER
BOTL.F                      8517.0000:   BOTTOM DEPTH LOGGED
TOPL.F                      4580.0000:   TOP DEPTH LOGGED
CS1 .IN                       13.3750:   CASING SIZE 1
BS1 .IN                       12.2500:   BIT SIZE 1
DDB1.F                      8534.0000:   DEPTH DRILLED BIT 1
BHF .                              81:   FLUID CODE
DPT .          Lignosulfonate (Ligno):   DRILLING FLUID TYPE
MUDD.                         10.5000:   FLUID DENSITY
MUDV.                         29.0000:   FLUID VISCOSITY
DFPH.                          9.8000:   FLUID PH
FL  .                          6.8000:   FLUID LOSS
RM  .OHMM                       .7680:   RM
RMT .DEGC                     89.0000:   RM TEMP
RMF .OHMM                       .8480:   RMF
RMFT.DEGC                     89.0000:   RMF TEMP
FSC .                               M:   RMF CODE
RMC .OHMM                       .8250:   RMC
RMCT.DEGC                     89.0000:   RMC TEMP
CMC .                               M:   RMC CODE
TMAX.DEGC                    162.0000:   MAX REC TEMP
TIMC.                         16.2500:   TIME SINCE CIRCLN
~Curve Information Block
#MNEM.UNIT                    API CODE    No Description
#=========                    ========    == ===========
DEPT.F                   00 001 00 00:     1  DEPTH
NPHI.%                               :     2  Neutron Porosity
ILD.OHMM                             :     3  Deep Induction Resistivity
ILM.OHMM                             :     4  Medium Induction Resistivity
SFL.OHMM                             :     5  Medium Resistivity
SP.MV                                :     6  Spontaneous Potential
CALI.IN                              :     7  Caliper
DPHI.%                               :     8  Porosity
DRHO.G/C3                            :     9  Bulk Density Correction
GR.GAPI                              :    10  Gamma Ray
~ASCII
# ...
 6902.5000    32.2256     1.3345     1.3307     1.2104   -52.4836    17.2768    20.0145      .0002    78.9149
 6903.0000    33.2789     1.3310     1.3318     1.1837   -52.4672    17.1934    20.8000     -.0001    81.7626
 6903.5000    34.7501     1.3267     1.3307     1.1537   -52.4091    17.1275    21.3826     -.0004    84.2250
 6904.0000    35.7293     1.3206     1.3279     1.1139   -52.3714    17.0721    21.8004     -.0007    87.2131
 6904.5000    36.4816     1.3123     1.3221     1.0759   -52.4417    17.0460    22.1369     -.0013    89.5350
 6905.0000    36.2593     1.3011     1.3091     1.0462   -52.5205    17.0422    22.4272     -.0018    89.9517
 6905.5000    36.1816     1.2912     1.3053     1.0456   -52.5811    17.0778    22.6314     -.0023    88.1241
 6906.0000    36.3747     1.2853     1.3072     1.0552   -52.5974    17.0870    22.7004     -.0026    82.6892
 6906.5000    36.9592     1.2816     1.3005     1.0649   -52.5895    17.0523    22.6739     -.0019    78.3892
 6907.0000    36.8155     1.2808     1.2934     1.0656   -52.5434    16.9833    22.5459      .0004    77.2498
 6907.5000    35.1343     1.2811     1.2957     1.0607   -52.5050    16.9243    22.3372      .0032    78.1133
 6908.0000    34.1184     1.2866     1.2965     1.0542   -52.4788    16.8638    22.0514      .0068    79.3224
 6908.5000    34.6244     1.2925     1.2994     1.0546   -52.5187    16.7596    21.7857      .0088    80.1656
 6909.0000    35.9823     1.2997     1.3092     1.0653   -52.6512    16.6267    21.5983      .0098    80.8965
 6909.5000    37.3676     1.3085     1.3245     1.0835   -52.9635    16.5479    21.4587      .0100    81.2716
 6910.0000    37.6940     1.3206     1.3466     1.0903   -53.3859    16.5437    21.4236      .0098    80.8580
 6910.5000    36.3431     1.3391     1.3782     1.0858   -53.7307    16.6017    21.3721      .0092    79.4447
 6911.0000    34.6501     1.3705     1.4129     1.0853   -54.0411    16.6829    21.1866      .0082    78.4530
 6911.5000    32.5856     1.4086     1.4414     1.0998   -54.2409    16.7430    20.5010      .0067    76.9862
 6912.0000    30.4304     1.4630     1.4765     1.1574   -54.4504    16.7380    17.9866      .0051    70.2003
 6912.5000    28.9052     1.5136     1.5172     1.2661   -54.7221    16.3564    16.8731      .0034    67.6846
 6913.0000    29.1221     1.5555     1.5612     1.3960   -55.0654    15.7140    16.0844      .0021    67.2778
 6913.5000    29.7792     1.5845     1.5900     1.4896   -55.7025    15.0898    15.5174      .0005    67.4524
 6914.0000    29.5964     1.5933     1.6112     1.5361   -56.0509    14.8326    16.1032     -.0016    67.6476
 6914.5000    29.7838     1.5822     1.5989     1.5376   -56.0728    14.7221    17.4478     -.0016    67.3992
 6915.0000    29.2169     1.5351     1.5498     1.5203   -55.8707    14.6396    18.4317     -.0010    64.9164
 6915.5000    30.4148     1.4765     1.4908     1.4571   -55.8146    14.5580    19.0291      .0001    62.9537
 6916.0000    31.8937     1.3852     1.4155     1.3962   -55.8988    14.4668    19.5472      .0039    62.5999
 6916.5000    33.3898     1.3102     1.3053     1.3301   -56.4085    14.3404    20.0157      .0072    62.7231
 6917.0000    34.9687     1.2474     1.2023     1.2643   -56.9825    14.1519    22.2751      .0069    62.8461
 6917.5000    36.7850     1.1938     1.1443     1.1942   -57.2569    13.9801    28.2315      .0052    63.2954
 6918.0000    38.6669     1.1505     1.1077     1.1153   -57.6033    13.8362    31.1425      .0030    63.4119
 6918.5000    38.8043     1.1140     1.0882     1.0893   -59.0883    13.7171    31.7705      .0008    62.7585
 6919.0000    36.3493     1.0782     1.0863     1.0919   -62.0869    13.6282    31.3932     -.0013    61.7876
 6919.5000    31.8953     1.0447     1.0989     1.1017   -67.1730    13.6061    27.7036     -.0022    61.0497
 6920.0000    29.9166     1.0267     1.1333     1.1256   -70.9680    13.6056    25.8952     -.0026    64.5597
 6920.5000    31.1097     1.0152     1.1166     1.1275   -73.2430    13.6025    26.4308     -.0019    66.0734
 6921.0000    32.5184     1.0068     1.0573     1.0587   -74.4131    13.5477    27.5631     -.0016    66.7982
 6921.5000    33.4996     1.0013     1.0190     1.0088   -75.0676    13.5145    28.4853     -.0011    65.7883
 6922.0000    33.9372      .9964      .9937      .9912   -75.6058    13.5135    28.3846     -.0003    62.6627
 6922.5000    34.1875      .9927      .9900      .9972   -74.9023    13.5374    27.9141      .0022    63.5225
 6923.0000    34.7275      .9898     1.0121     1.0230   -74.7476    13.5682    27.6064      .0084    65.6973
 6923.5000    35.5192      .9923     1.0527     1.0659   -75.0852    13.5998    27.3423      .0194    69.1643
 6924.0000    33.6881      .9974     1.1127     1.1140   -75.4952    13.6314    26.4261      .0446    72.5039
 6924.5000    33.1978     1.0109     1.1250     1.1388   -75.2466    13.6897    23.8868      .0507    74.5199
 6925.0000    33.7740     1.0276     1.0916     1.0539   -74.2009    13.7549    22.5172      .0539    75.6938
 6925.5000    36.0494     1.0458     1.0470      .9967   -72.2748    13.8292    21.7371      .0511    76.4910
 6926.0000    38.0828     1.0600     1.0488      .9682   -69.8618    13.8939    21.3184      .0409    77.0292
 6926.5000    35.9073     1.0697     1.0853      .9649   -67.0116    13.9289    21.2412      .0239    77.5667
 6927.0000    34.5549     1.0766     1.1218      .9738   -64.0494    13.9562    21.6953      .0147    77.7159
 6927.5000    36.4836     1.0808     1.1365      .9808   -61.7146    13.9666    22.2267      .0089    77.8590
 6928.0000    38.1109     1.0811     1.1384      .9822   -60.2349    13.9770    22.9232      .0051    77.8445
 6928.5000    39.1241     1.0782     1.1345      .9828   -59.3967    13.9792    23.8790      .0019    77.8110
 6929.0000    38.0641     1.0753     1.1280      .9822   -59.2181    13.9743    25.4017     -.0002    77.7938
 6929.5000    36.6367     1.0739     1.1217      .9918   -59.2321    13.9636    26.2024     -.0013    77.7947
 6930.0000    35.3873     1.0720     1.1165     1.0118   -59.5193    13.9977    25.5453     -.0017    77.7241
 6930.5000    33.3914     1.0737     1.1197     1.0420   -59.8018    14.0750    24.1726     -.0012    74.5941
 6931.0000    32.3060     1.1021     1.1280     1.0833   -60.0572    14.0554    23.3566      .0018    69.5834
 6931.5000    31.4877     1.1156     1.1473     1.1169   -60.2631    14.0108    22.9982      .0060    67.4906
 6932.0000    31.5177     1.1207     1.1638     1.1389   -60.3079    13.9259    22.8334      .0061    69.3049
 6932.5000    34.2347     1.1200     1.1765     1.1101   -60.1509    13.8668    22.7159      .0045    74.0110
 6933.0000    36.8896     1.1186     1.1874     1.0619   -59.7247    13.9533    22.5812      .0029    77.5250
 6933.5000    38.3319     1.1165     1.1972     1.0255   -59.0179    14.0290    22.3669      .0045    79.6438
 6934.0000    39.1073     1.1131     1.2055     1.0095   -57.9924    14.1004    22.0580      .0077    80.7474
 6934.5000    39.9202     1.1132     1.2111      .9999   -56.9681    14.1711    21.9713      .0054    79.6647
 6935.0000    40.6823     1.1182     1.2168      .9880   -56.0955    14.2427    22.5750      .0030    78.7601
 6935.5000    41.0823     1.1260     1.2180      .9815   -55.5274    14.2267    23.3824      .0012    77.9259
 6936.0000    40.5847     1.1343     1.2145     1.0058   -55.3332    14.1283    24.2577      .0001    75.5208
 6936.5000    38.6856     1.1392     1.2079     1.1240   -55.8151    13.9247    25.1163      .0007    71.9235
 6937.0000    37.5992     1.1412     1.1984     1.1743   -56.6376    13.8612    24.4240      .0073    71.7959
 6937.5000    37.9579     1.1388     1.1835     1.1160   -57.1211    13.9184    23.2637      .0116    75.0782
 6938.0000    40.2723     1.1323     1.1570     1.0093   -57.4794    13.9032    22.3883      .0109    78.2225
 6938.5000    41.4085     1.1238     1.1285      .9685   -57.5326    13.8680    22.9388      .0084    79.7258
