~VERSION INFORMATION
VERS.                             2.0:   CWLS Log ASCII Standard-VERSION 2.0
WRAP.                              NO:   One line per depth step
~Well Information Block
STRT.F                      4530.0000:   Top Depth
STOP.F                      8517.0000:   Bottom Depth
STEP.F                         .50000:   Depth Increment
NULL.                        -999.250:   Null Value
FLD .                     MU BLK A 16:   Field Name
WELL.       OCSG03011  A005 ST00 BP00:   NAME
API .                    427024017200:   WELL API
R1  .                           38396:   COMMENT  1
EDF .F                       109.0000:   ELEV DRILL FLOOR
COMP.                     OXY USA INC:   OPERATOR
BN  .                            A 16:   BLOCK
CTRY.                             USA:   COUNTRY NAME
CNTY.                        MG ILD L:   COUNTY NAME
EKB .F                       110.0000:   ELEV KELLY BUSHING
TDD .F                       8534.000:   FINAL TD DRILLER
STAT.                           TEXAS:   STATE NAME
UWI .                    427024017200:   WELL API
DICO.               IHS : Digitizing Company
~PARAMETER INFORMATION (zones)
#MNEM.UNIT                       Value     Description
#=========                       =====     ===========
#ZONATION                          CNL:   ZONATION NAME
#ZONE                            RUN_1:   ZONE NAME
TOP .                       4530.0000:   TOP DEPTH
BOT .                       8517.5000:   BOTTOM DEPTH
RUN .                               1:   RUN NUMBER
LCCD.                             440:   LOGGING CONTRACTOR
SRVC.                    Schlumberger:   LOGGING CONT NAME
DICO.          QC Data Collectors Ltd:   DIG COMPANY NAME
LDAT.                      08/24/1989:   DATE LOGGED
ELD .F                       110.0000:   LOG DATUM ELEVATION
TDD .F                      8534.0000:   TOTAL DEPTH DRILLER
TDL .F                      8523.0000:   TOTAL DEPTH LOGGER
BOTL.F                      8517.0000:   BOTTOM DEPTH LOGGED
TOPL.F                      4580.0000:   TOP DEPTH LOGGED
CS1 .IN                       13.3750:   CASING SIZE 1
BS1 .IN                       12.2500:   BIT SIZE 1
DDB1.F                      8534.0000:   DEPTH DRILLED BIT 1
BHF .                              81:   FLUID CODE
DPT .          Lignosulfonate (Ligno):   DRILLING FLUID TYPE
MUDD.                         10.5000:   FLUID DENSITY
MUDV.                         29.0000:   FLUID VISCOSITY
DFPH.                          9.8000:   FLUID PH
FL  .                          6.8000:   FLUID LOSS
RM  .OHMM                       .7680:   RM
RMT .DEGC                     89.0000:   RM TEMP
RMF .OHMM                       .8480:   RMF
RMFT.DEGC                     89.0000:   RMF TEMP
FSC .                               M:   RMF CODE
RMC .OHMM                       .8250:   RMC
RMCT.DEGC                     89.0000:   RMC TEMP
CMC .                               M:   RMC CODE
TMAX.DEGC                    162.0000:   MAX REC TEMP
TIMC.                         16.2500:   TIME SINCE CIRCLN
~PARAMETER INFORMATION (zones)
#MNEM.UNIT                       Value     Description
#=========                       =====     ===========
#ZONATION                          DIL:   ZONATION NAME
#ZONE                            RUN_1:   ZONE NAME
TOP .                       4580.0000:   TOP DEPTH
BOT .                       8517.5000:   BOTTOM DEPTH
RUN .                               1:   RUN NUMBER
LCCD.                             440:   LOGGING CONTRACTOR
SRVC.                    Schlumberger:   LOGGING CONT NAME
DICO.          QC Data Collectors Ltd:   DIG COMPANY NAME
LDAT.                      08/24/1989:   DATE LOGGED
ELD .F                       110.0000:   LOG DATUM ELEVATION
TDD .F                      8534.0000:   TOTAL DEPTH DRILLER
TDL .F                      8523.0000:   TOTAL DEPTH LOGGER
BOTL.F                      8517.0000:   BOTTOM DEPTH LOGGED
TOPL.F                      4580.0000:   TOP DEPTH LOGGED
CS1 .IN                       13.3750:   CASING SIZE 1
BS1 .IN                       12.2500:   BIT SIZE 1
DDB1.F                      8534.0000:   DEPTH DRILLED BIT 1
BHF .                              81:   FLUID CODE
DPT .          Lignosulfonate (Ligno):   DRILLING FLUID TYPE
MUDD.                         10.5000:   FLUID DENSITY
MUDV.                         29.0000:   FLUID VISCOSITY
DFPH.                          9.8000:   FLUID PH
FL  .                          6.8000:   FLUID LOSS
RM  .OHMM                       .7680:   RM
RMT .DEGC                     89.0000:   RM TEMP
RMF .OHMM                       .8480:   RMF
RMFT.DEGC                     89.0000:   RMF TEMP
FSC .                               M:   RMF CODE
RMC .OHMM                       .8250:   RMC
RMCT.DEGC                     89.0000:   RMC TEMP
CMC .                               M:   RMC CODE
TMAX.DEGC                    162.0000:   MAX REC TEMP
TIMC.                         16.2500:   TIME SINCE CIRCLN
~PARAMETER INFORMATION (zones)
#MNEM.UNIT                       Value     Description
#=========                       =====     ===========
#ZONATION                          FDC:   ZONATION NAME
#ZONE                            RUN_1:   ZONE NAME
TOP .                       4530.0000:   TOP DEPTH
BOT .                       8517.5000:   BOTTOM DEPTH
RUN .                               1:   RUN NUMBER
LCCD.                             440:   LOGGING CONTRACTOR
SRVC.                    Schlumberger:   LOGGING CONT NAME
DICO.          QC Data Collectors Ltd:   DIG COMPANY NAME
LDAT.                      08/24/1989:   DATE LOGGED
ELD .F                       110.0000:   LOG DATUM ELEVATION
TDD .F                      8534.0000:   TOTAL DEPTH DRILLER
TDL .F                      8523.0000:   TOTAL DEPTH LOGGER
BOTL.F                      8517.0000:   BOTTOM DEPTH LOGGED
TOPL.F                      4580.0000:   TOP DEPTH LOGGED
CS1 .IN                       13.3750:   CASING SIZE 1
BS1 .IN                       12.2500:   BIT SIZE 1
DDB1.F                      8534.0000:   DEPTH DRILLED BIT 1
BHF .                              81:   FLUID CODE
DPT .          Lignosulfonate (Ligno):   DRILLING FLUID TYPE
MUDD.                         10.5000:   FLUID DENSITY
MUDV.                         29.0000:   FLUID VISCOSITY
DFPH.                          9.8000:   FLUID PH
FL  .                          6.8000:   FLUID LOSS
RM  .OHMM                       .7680:   RM
RMT .DEGC                     89.0000:   RM TEMP
RMF .OHMM                       .8480:   RMF
RMFT.DEGC                     89.0000:   RMF TEMP
FSC .                               M:   RMF CODE
RMC .OHMM                       .8250:   RMC
RMCT.DEGC                     89.0000:   RMC TEMP
CMC .                               M:   RMC CODE
TMAX.DEGC                    162.0000:   MAX REC TEMP
TIMC.                         16.2500:   TIME SINCE CIRCLN
~Curve Information Block
#MNEM.UNIT                    API CODE    No Description
#=========                    ========    == ===========
DEPT.F                   00 001 00 00:     1  DEPTH
NPHI.%                               :     2  Neutron Porosity
ILD.OHMM                             :     3  Deep Induction Resistivity
ILM.OHMM                             :     4  Medium Induction Resistivity
SFL.OHMM                             :     5  Medium Resistivity
SP.MV                                :     6  Spontaneous Potential
CALI.IN                              :     7  Caliper
DPHI.%                               :     8  Porosity
DRHO.G/C3                            :     9  Bulk Density Correction
GR.GAPI                              :    10  Gamma Ray
~ASCII
# ...
 4822.0000    38.0313     1.1538     1.1647      .9212   -40.4191    19.2036    27.5040      .0010    84.1122
 4822.5000    37.3856     1.1530     1.1641      .9090   -40.1736    19.2117    27.2605      .0022    84.2222
 4823.0000    36.6041     1.1524     1.1639      .8971   -40.2574    19.2771    27.0205      .0040    84.4502
 4823.5000    36.4390     1.1535     1.1642      .8936   -40.8674    19.4023    27.0316      .0068    84.7733
 4824.0000    37.5389     1.1551     1.1645      .8901   -41.7844    19.5535    26.9533      .0094    85.2373
 4824.5000    38.6543     1.1583     1.1625      .8946   -42.6740    19.6197    26.8257      .0112    86.0117
 4825.0000    38.8976     1.1619     1.1601      .9008   -43.3111    19.6169    26.3701      .0119    86.7018
 4825.5000    38.8127     1.1642     1.1591      .9082   -43.7933    19.5127    25.8798      .0113    86.8025
 4826.0000    39.0364     1.1620     1.1607      .9165   -44.1848    19.3095    25.9389      .0098    87.2886
 4826.5000    39.8300     1.1605     1.1622      .9276   -44.4386    19.2254    26.2074      .0067    88.4379
 4827.0000    40.4449     1.1636     1.1637      .9376   -44.6357    19.2025    27.0193      .0029    89.7458
 4827.5000    40.3621     1.1703     1.1650      .9349   -44.7767    19.2417    28.1231     -.0011    90.0568
 4828.0000    40.1456     1.1788     1.1664      .9281   -44.8359    19.3132    28.5558     -.0043    89.9316
 4828.5000    40.7883     1.1818     1.1679      .9158   -44.8951    19.3787    28.4626     -.0058    93.4852
 4829.0000    41.6816     1.1840     1.1694      .9065   -44.9314    19.4401    28.1913     -.0051    94.9196
 4829.5000    41.7911     1.1848     1.1702      .9043   -44.9573    19.4937    27.8923     -.0031    95.1447
 4830.0000    40.0764     1.1829     1.1706      .9178   -44.9834    19.5424    27.5439     -.0007    93.4735
 4830.5000    38.4228     1.1781     1.1692      .9308   -44.9421    19.5505    27.2554      .0009    91.1919
 4831.0000    38.9008     1.1715     1.1662      .9413   -44.8753    19.5396    27.1343      .0021    89.4742
 4831.5000    40.4097     1.1543     1.1607      .9408   -44.8085    19.4933    27.3827      .0017    89.8552
 4832.0000    42.2776     1.1519     1.1544      .9309   -44.7465    19.3819    27.6369      .0005    92.7095
 4832.5000    42.0899     1.1531     1.1493      .9196   -44.6890    19.2913    27.6399     -.0000    97.4757
 4833.0000    40.8900     1.1608     1.1446      .9161   -44.6667    19.2431    27.3851      .0015    94.6488
 4833.5000    39.6102     1.1603     1.1419      .9209   -44.7494    19.2224    27.1439      .0030    92.0118
 4834.0000    39.3165     1.1562     1.1403      .9352   -44.8304    19.2151    27.0960      .0037    91.1317
 4834.5000    39.8777     1.1499     1.1402      .9444   -44.9070    19.2370    27.1877      .0040    91.1532
 4835.0000    41.0198     1.1465     1.1421      .9490   -45.0000    19.2882    27.5147      .0037    91.8635
 4835.5000    42.5154     1.1461     1.1468      .9506   -45.0744    19.3414    27.8833      .0034    93.9434
 4836.0000    43.2297     1.1569     1.1536      .9476   -44.7972    19.3746    27.9348      .0034    95.7473
 4836.5000    42.7513     1.1522     1.1556      .9417   -43.8649    19.3280    27.7961      .0034    93.6414
 4837.0000    42.0344     1.1474     1.1555      .9262   -42.4183    19.2889    27.7457      .0038    91.4756
 4837.5000    41.3792     1.1468     1.1489      .9132   -41.3367    19.2820    28.0437      .0041    91.0540
 4838.0000    41.5674     1.1527     1.1492      .9034   -40.7646    19.2879    28.5420      .0037    92.8892
 4838.5000    41.5760     1.1640     1.1534      .8956   -40.6314    19.2896    28.9898      .0029    94.5812
 4839.0000    40.8164     1.1695     1.1608      .8899   -40.8178    19.2499    28.9796      .0012    94.6674
 4839.5000    40.0452     1.1741     1.1693      .8895   -40.8534    19.1984    28.6570     -.0009    93.7742
 4840.0000    39.8683     1.1782     1.1776      .8992   -40.7324    19.1690    28.2795     -.0030    92.6483
 4840.5000    41.0276     1.1841     1.1859      .9135   -40.3823    19.1582    27.9651     -.0048    91.6097
 4841.0000    41.7876     1.1901     1.1926      .9350   -40.1134    19.1476    27.7089     -.0061    91.0055
 4841.5000    42.2344     1.1983     1.1989      .9599   -40.0485    19.0904    27.7667     -.0071    91.5400
 4842.0000    41.3405     1.2066     1.2018      .9827   -40.5291    18.8927    27.9119     -.0074    92.3580
 4842.5000    40.4402     1.2076     1.2037      .9888   -41.6439    18.6813    28.2674     -.0072    92.6119
 4843.0000    40.6635     1.2082     1.1994      .9669   -43.5363    18.7634    28.5789     -.0068    91.7711
 4843.5000    41.5291     1.1988     1.1936      .9415   -44.9159    18.9524    28.7729     -.0063    90.5658
 4844.0000    43.4307     1.1886     1.1834      .9194   -45.5927    19.1214    28.6634     -.0041    89.8556
 4844.5000    44.5751     1.1775     1.1726      .9037   -45.9059    19.1539    28.3069     -.0014    90.6556
 4845.0000    44.6290     1.1666     1.1621      .8941   -46.0508    18.9969    27.7077      .0004    92.8279
 4845.5000    43.3524     1.1635     1.1561      .9019   -46.0027    18.8422    26.8731      .0013    90.8795
 4846.0000    41.6816     1.1620     1.1501      .9148   -45.9547    18.7527    26.1026      .0013    86.4257
 4846.5000    41.2568     1.1608     1.1434      .9306   -45.9734    18.7587    26.0768      .0012    87.7805
 4847.0000    41.7582     1.1602     1.1374      .9517   -46.1246    18.8324    26.8230      .0010    89.8578
 4847.5000    42.2679     1.1597     1.1336      .9653   -46.2825    18.9467    27.3823      .0011    91.8661
 4848.0000    42.2072     1.1579     1.1299      .9566   -46.4764    18.9996    27.7602      .0014    90.4214
 4848.5000    40.3768     1.1546     1.1262      .9312   -46.6704    18.9335    27.6878      .0017    87.5867
 4849.0000    38.6543     1.1512     1.1226      .9147   -46.7534    18.7370    27.4637      .0022    84.9991
 4849.5000    37.7356     1.1490     1.1201      .9156   -46.7657    18.5483    27.5129      .0031    83.3982
 4850.0000    38.2468     1.1468     1.1175      .9359   -46.7781    18.5713    28.1380      .0038    83.2231
 4850.5000    40.0154     1.1431     1.1162      .9341   -46.7571    18.7297    28.6562      .0043    84.9536
 4851.0000    42.1728     1.1371     1.1150      .9109   -46.7191    18.9078    29.0446      .0036    86.3280
 4851.5000    42.3637     1.1313     1.1138      .8885   -46.6807    18.9494    29.1782      .0047    89.6769
 4852.0000    41.0057     1.1268     1.1126      .8753   -46.6397    18.8212    29.0332      .0072    90.4806
 4852.5000    41.5118     1.1223     1.1114      .8710   -46.5987    18.7174    28.6906      .0107    89.9539
 4853.0000    42.1222     1.1208     1.1116      .8784   -46.5738    18.6664    28.1161      .0109    90.0723
 4853.5000    42.1513     1.1195     1.1121      .8882   -46.5529    18.7117    27.7253      .0100    90.6472
 4854.0000    41.2827     1.1193     1.1129      .8952   -46.5320    18.8180    27.6509      .0073    92.8630
 4854.5000    40.3823     1.1200     1.1144      .9023   -46.5112    18.9553    27.7437      .0043    95.9176
 4855.0000    41.4860     1.1215     1.1159      .9005   -46.4904    19.0560    28.0803      .0035    95.2911
 4855.5000    42.8283     1.1245     1.1155      .8968   -46.5043    19.0493    28.4755      .0041    94.2856
 4856.0000    44.1432     1.1259     1.1152      .8881   -46.5569    18.9109    28.8901      .0050    93.3378
 4856.5000    43.8190     1.1256     1.1155      .8816   -46.7150    18.7623    29.3254      .0047    93.2021
 4857.0000    43.4118     1.1258     1.1160      .8777   -47.1061    18.6400    29.7603      .0033    96.9056
 4857.5000    43.7040     1.1265     1.1168      .8746   -47.6179    18.5402    30.1374      .0012    97.5825
 4858.0000    43.8855     1.1261     1.1182      .8720   -48.2401    18.4281    29.8135     -.0007    97.5977
