~VERSION INFORMATION
VERS.                             2.0:   CWLS Log ASCII Standard-VERSION 2.0
WRAP.                              NO:   One line per depth step
~Well Information Block
STRT.F                      4530.0000:   Top Depth
STOP.F                      8517.0000:   Bottom Depth
STEP.F                         .50000:   Depth Increment
NULL.                        -999.250:   Null Value
FLD .                     MU BLK A 16:   Field Name
WELL.       OCSG03011  A005 ST00 BP00:   NAME
API .                    427024017200:   WELL API
R1  .                           38396:   COMMENT  1
EDF .F                       109.0000:   ELEV DRILL FLOOR
COMP.                     OXY USA INC:   OPERATOR
BN  .                            A 16:   BLOCK
CTRY.                             USA:   COUNTRY NAME
CNTY.                        MG ILD L:   COUNTY NAME
EKB .F                       110.0000:   ELEV KELLY BUSHING
TDD .F                       8534.000:   FINAL TD DRILLER
STAT.                           TEXAS:   STATE NAME
UWI .                    427024017200:   WELL API
DICO.               IHS : Digitizing Company
~PARAMETER INFORMATION (zones)
#MNEM.UNIT                       Value     Description
#=========                       =====     ===========
#ZONATION                          CNL:   ZONATION NAME
#ZONE                            RUN_1:   ZONE NAME
TOP .                       4530.0000:   TOP DEPTH
BOT .                       8517.5000:   BOTTOM DEPTH
RUN .                               1:   RUN NUMBER
LCCD.                             440:   LOGGING CONTRACTOR
SRVC.                    Schlumberger:   LOGGING CONT NAME
DICO.          QC Data Collectors Ltd:   DIG COMPANY NAME
LDAT.                      08/24/1989:   DATE LOGGED
ELD .F                       110.0000:   LOG DATUM ELEVATION
TDD .F                      8534.0000:   TOTAL DEPTH DRILLER
TDL .F                      8523.0000:   TOTAL DEPTH LOGGER
BOTL.F                      8517.0000:   BOTTOM DEPTH LOGGED
TOPL.F                      4580.0000:   TOP DEPTH LOGGED
CS1 .IN                       13.3750:   CASING SIZE 1
BS1 .IN                       12.2500:   BIT SIZE 1
DDB1.F                      8534.0000:   DEPTH DRILLED BIT 1
BHF .                              81:   FLUID CODE
DPT .          Lignosulfonate (Ligno):   DRILLING FLUID TYPE
MUDD.                         10.5000:   FLUID DENSITY
MUDV.                         29.0000:   FLUID VISCOSITY
DFPH.                          9.8000:   FLUID PH
FL  .                          6.8000:   FLUID LOSS
RM  .OHMM                       .7680:   RM
RMT .DEGC                     89.0000:   RM TEMP
RMF .OHMM                       .8480:   RMF
RMFT.DEGC                     89.0000:   RMF TEMP
FSC .                               M:   RMF CODE
RMC .OHMM                       .8250:   RMC
RMCT.DEGC                     89.0000:   RMC TEMP
CMC .                               M:   RMC CODE
TMAX.DEGC                    162.0000:   MAX REC TEMP
TIMC.                         16.2500:   TIME SINCE CIRCLN
~PARAMETER INFORMATION (zones)
#MNEM.UNIT                       Value     Description
#=========                       =====     ===========
#ZONATION                          DIL:   ZONATION NAME
#ZONE                            RUN_1:   ZONE NAME
TOP .                       4580.0000:   TOP DEPTH
BOT .                       8517.5000:   BOTTOM DEPTH
RUN .                               1:   RUN NUMBER
LCCD.                             440:   LOGGING CONTRACTOR
SRVC.                    Schlumberger:   LOGGING CONT NAME
DICO.          QC Data Collectors Ltd:   DIG COMPANY NAME
LDAT.                      08/24/1989:   DATE LOGGED
ELD .F                       110.0000:   LOG DATUM ELEVATION
TDD .F                      8534.0000:   TOTAL DEPTH DRILLER
TDL .F                      8523.0000:   TOTAL DEPTH LOGGER
BOTL.F                      8517.0000:   BOTTOM DEPTH LOGGED
TOPL.F                      4580.0000:   TOP DEPTH LOGGED
CS1 .IN                       13.3750:   CASING SIZE 1
BS1 .IN                       12.2500:   BIT SIZE 1
DDB1.F                      8534.0000:   DEPTH DRILLED BIT 1
BHF .                              81:   FLUID CODE
DPT .          Lignosulfonate (Ligno):   DRILLING FLUID TYPE
MUDD.                         10.5000:   FLUID DENSITY
MUDV.                         29.0000:   FLUID VISCOSITY
DFPH.                          9.8000:   FLUID PH
FL  .                          6.8000:   FLUID LOSS
RM  .OHMM                       .7680:   RM
RMT .DEGC                     89.0000:   RM TEMP
RMF .OHMM                       .8480:   RMF
RMFT.DEGC                     89.0000:   RMF TEMP
FSC .                               M:   RMF CODE
RMC .OHMM                       .8250:   RMC
RMCT.DEGC                     89.0000:   RMC TEMP
CMC .                               M:   RMC CODE
TMAX.DEGC                    162.0000:   MAX REC TEMP
TIMC.                         16.2500:   TIME SINCE CIRCLN
~PARAMETER INFORMATION (zones)
#MNEM.UNIT                       Value     Description
#=========                       =====     ===========
#ZONATION                          FDC:   ZONATION NAME
#ZONE                            RUN_1:   ZONE NAME
TOP .                       4530.0000:   TOP DEPTH
BOT .                       8517.5000:   BOTTOM DEPTH
RUN .                               1:   RUN NUMBER
LCCD.                             440:   LOGGING CONTRACTOR
SRVC.                    Schlumberger:   LOGGING CONT NAME
DICO.          QC Data Collectors Ltd:   DIG COMPANY NAME
LDAT.                      08/24/1989:   DATE LOGGED
ELD .F                       110.0000:   LOG DATUM ELEVATION
TDD .F                      8534.0000:   TOTAL DEPTH DRILLER
TDL .F                      8523.0000:   TOTAL DEPTH LOGGER
BOTL.F                      8517.0000:   BOTTOM DEPTH LOGGED
TOPL.F                      4580.0000:   TOP DEPTH LOGGED
CS1 .IN                       13.3750:   CASING SIZE 1
BS1 .IN                       12.2500:   BIT SIZE 1
DDB1.F                      8534.0000:   DEPTH DRILLED BIT 1
BHF .                              81:   FLUID CODE
DPT .          Lignosulfonate (Ligno):   DRILLING FLUID TYPE
MUDD.                         10.5000:   FLUID DENSITY
MUDV.                         29.0000:   FLUID VISCOSITY
DFPH.                          9.8000:   FLUID PH
FL  .                          6.8000:   FLUID LOSS
RM  .OHMM                       .7680:   RM
RMT .DEGC                     89.0000:   RM TEMP
RMF .OHMM                       .8480:   RMF
RMFT.DEGC                     89.0000:   RMF TEMP
FSC .                               M:   RMF CODE
RMC .OHMM                       .8250:   RMC
RMCT.DEGC                     89.0000:   RMC TEMP
CMC .                               M:   RMC CODE
TMAX.DEGC                    162.0000:   MAX REC TEMP
TIMC.                         16.2500:   TIME SINCE CIRCLN
~Curve Information Block
#MNEM.UNIT                    API CODE    No Description
#=========                    ========    == ===========
DEPT.F                   00 001 00 00:     1  DEPTH
NPHI.%                               :     2  Neutron Porosity
ILD.OHMM                             :     3  Deep Induction Resistivity
ILM.OHMM                             :     4  Medium Induction Resistivity
SFL.OHMM                             :     5  Medium Resistivity
SP.MV                                :     6  Spontaneous Potential
CALI.IN                              :     7  Caliper
DPHI.%                               :     8  Porosity
DRHO.G/C3                            :     9  Bulk Density Correction
GR.GAPI                              :    10  Gamma Ray
~ASCII
# ...
 7413.5000    34.6985      .8152      .8677      .8772   -69.6145    12.9720    32.0374     -.0157    60.1140
 7414.0000    35.7863      .8016      .8711      .9073   -69.3660    12.9927    32.0405     -.0079    63.1828
 7414.5000    34.4940      .7970      .8750      .9441   -70.3798    13.0339    29.8651     -.0005    67.2278
 7415.0000    33.5497      .7988      .8818     1.0017   -71.3455    13.0966    25.5453      .0053    70.2081
 7415.5000    33.6592      .8101      .8936     1.0458   -72.0375    13.1632    23.3980      .0091    72.1864
 7416.0000    34.8360      .8325      .8949      .9785   -71.8843    13.2194    22.9857      .0107    73.5907
 7416.5000    40.3160      .8807      .8927      .8403   -70.1768    13.2640    22.8071      .0107    74.2179
 7417.0000    40.7565      .9285      .8863      .7749   -68.0553    13.2831    22.5578      .0099    73.9694
 7417.5000    39.5227      .9858      .8881      .8039   -65.7283    13.2686    22.3372      .0091    71.8193
 7418.0000    33.9255     1.0457      .9076      .8820   -64.1926    13.2383    22.3015      .0089    61.8865
 7418.5000    31.1472     1.0882      .9410      .9664   -63.5894    13.2072    21.9175      .0093    54.8170
 7419.0000    29.8885     1.1103      .9901     1.0360   -63.8370    13.1847    20.6228      .0101    51.7194
 7419.5000    32.0452     1.1127     1.0396     1.0712   -65.0099    13.1745    19.3859      .0110    55.2855
 7420.0000    34.0255     1.1021     1.0701     1.0838   -67.0792    13.2058    18.5352      .0123    57.4459
 7420.5000    35.8355     1.0889     1.0782     1.0763   -66.4390    13.2424    21.4755      .0067    59.6324
 7421.0000    36.1322     1.0496     1.0613     1.0490   -65.7009    13.2080    26.2668      .0005    61.4597
 7421.5000    35.7847     1.0033     1.0182      .9899   -65.5793    13.1229    30.0212     -.0045    62.0740
 7422.0000    34.9937      .9780      .9623      .9286   -68.2766    13.0034    32.9728     -.0081    60.3196
 7422.5000    34.1855      .9878      .9060      .8696   -73.7584    12.9120    34.2550     -.0119    56.9774
 7423.0000    33.5378     1.0036      .8570      .8237   -77.7148    12.8438    34.6763     -.0147    52.0214
 7423.5000    33.4283     1.0154      .8177      .7728   -81.5880    12.7961    34.7819     -.0160    50.4349
 7424.0000    33.1958     1.0123      .7959      .7305   -83.7642    12.7804    33.9614     -.0154    50.5898
 7424.5000    32.9428      .9603      .7835      .7065   -84.8625    12.7922    32.4106     -.0104    53.1797
 7425.0000    34.3690      .9020      .7789      .6979   -85.1255    12.8073    29.5746     -.0055    54.6191
 7425.5000    35.8839      .8786      .7809      .7030   -84.1155    12.8254    26.8791     -.0001    55.7045
 7426.0000    36.9872      .8674      .7972      .7170   -82.7242    12.8439    25.6484      .0063    57.2142
 7426.5000    36.0682      .8713      .8203      .7345   -80.7135    12.8627    26.4355      .0094    59.3434
 7427.0000    34.4206      .9080      .8442      .7601   -78.6624    12.8833    30.2617      .0066    62.1208
 7427.5000    33.4172      .9428      .8666      .7896   -78.0477    12.9038    31.4010      .0027    65.2261
 7428.0000    32.9463      .9762      .8872      .8237   -79.1361    12.9238    31.6870      .0044    67.7952
 7428.5000    33.9396      .9927      .9025      .8606   -81.9225    12.9517    29.6995      .0312    69.6251
 7429.0000    34.7509      .9964      .9202      .9004   -82.4574    13.0085    27.3850      .0532    70.5999
 7429.5000    34.9747      .9953      .9536      .9427   -78.5322    13.1041    25.6250      .0686    70.6539
 7430.0000    34.8964      .9892     1.0097      .9744   -75.5356    13.2568    21.8503      .0824    70.4893
 7430.5000    35.2467      .9882     1.0596      .9866   -73.5812    13.4398    18.4520      .0708    70.4457
 7431.0000    36.6460     1.0023     1.0952      .9850   -71.5825    13.5685    17.2057      .0505    70.7407
 7431.5000    37.5339     1.0314     1.1330      .9538   -68.9957    13.6532    18.1772      .0328    71.1666
 7432.0000    36.2119     1.0739     1.1760      .9246   -64.8683    13.6909    19.3734      .0135    70.8081
 7432.5000    32.1764     1.1259     1.2214      .9543   -60.8918    13.6238    20.3237      .0072    69.9700
 7433.0000    30.6006     1.1742     1.2510     1.0513   -53.2979    13.6090    20.0922      .0038    69.0746
 7433.5000    31.3440     1.2243     1.2629     1.1346   -42.4510    13.7050    20.2667      .0010    73.6675
 7434.0000    33.3320     1.2678     1.2699     1.1856   -37.4973    13.8132    20.9344     -.0008    75.4739
 7434.5000    36.0151     1.2575     1.2658     1.1973   -36.7506    13.9170    21.6176     -.0015    75.8669
 7435.0000    37.2816     1.2311     1.2507     1.1814   -36.8317    13.9673    21.5817     -.0005    76.0973
 7435.5000    37.4037     1.2026     1.2215     1.1493   -37.2767    13.9651    20.7048      .0005    76.7883
 7436.0000    37.9141     1.1734     1.1883     1.1200   -37.8271    13.9327    20.2753      .0019    78.7406
 7436.5000    39.4446     1.1538     1.1569     1.0966   -38.5890    13.8340    20.4670      .0024    80.2893
 7437.0000    40.1935     1.1373     1.1298     1.0738   -39.5414    13.7629    20.9055      .0014    81.6182
 7437.5000    40.6581     1.1316     1.1135     1.0521   -40.7021    13.7526    21.3482     -.0014    82.7296
 7438.0000    40.8982     1.1268     1.1121     1.0309   -42.2662    13.7642    21.9604     -.0050    83.4636
 7438.5000    41.0864     1.1233     1.1158     1.0116   -45.9174    13.7987    22.4180     -.0054    83.6975
 7439.0000    41.0753     1.1188     1.1185      .9931   -48.6370    13.8399    22.2314     -.0034    83.1864
 7439.5000    40.7643     1.1137     1.1194      .9772   -50.5601    13.8857    21.7824     -.0008    81.9995
 7440.0000    40.2700     1.1078     1.1223      .9622   -51.0612    13.9211    21.3654      .0026    80.0916
 7440.5000    39.6609     1.1148     1.1299      .9553   -50.0697    13.9573    21.2721      .0056    78.6091
 7441.0000    38.9581     1.1278     1.1352      .9490   -49.7231    13.9956    21.6379      .0063    78.0482
 7441.5000    38.2585     1.1490     1.1399      .9591   -49.8972    13.9656    22.0451      .0023    77.7736
 7442.0000    37.5651     1.1579     1.1435      .9726   -50.3846    13.8708    22.2794     -.0025    77.8022
 7442.5000    36.9341     1.1668     1.1628      .9897   -50.9553    13.8854    22.3269     -.0068    78.1680
 7443.0000    36.6979     1.1767     1.1788     1.0056   -51.4232    13.9591    22.0992     -.0100    79.0985
 7443.5000    37.0146     1.1848     1.1832     1.0215   -51.7831    14.0287    22.0548     -.0120    80.2854
 7444.0000    37.2249     1.1918     1.1807     1.0329   -51.8697    14.0159    22.0414     -.0134    79.9379
 7444.5000    36.3962     1.1856     1.1783     1.0421   -51.9562    13.9576    21.9756     -.0137    79.2183
 7445.0000    35.8105     1.1777     1.1761     1.0416   -52.0038    13.8976    21.3131     -.0133    78.6676
 7445.5000    35.9019     1.1676     1.1740     1.0416   -52.0497    13.8645    20.4963     -.0112    78.7025
 7446.0000    36.6570     1.1619     1.1716     1.0422   -52.0890    13.8516    20.2026     -.0075    78.8420
 7446.5000    38.4529     1.1601     1.1655     1.0381   -52.1172    13.8738    20.1249     -.0037    79.0884
 7447.0000    38.8818     1.1549     1.1620     1.0313   -52.1454    13.9436    20.2139     -.0010    79.3383
 7447.5000    38.7434     1.1482     1.1569     1.0190   -52.1585    14.0037    20.3481      .0002    79.5911
 7448.0000    37.6596     1.1422     1.1520     1.0082   -52.1566    14.0105    20.3921      .0000    79.7186
 7448.5000    37.1766     1.1367     1.1509     1.0000   -52.1548    14.0113    20.0690     -.0003    79.4248
 7449.0000    36.7741     1.1327     1.1875      .9931   -52.1262    13.9949    20.0696     -.0011    78.8057
 7449.5000    35.9089     1.1321     1.2566      .9887   -52.0924    14.0079    20.3013     -.0019    77.5848
