~VERSION INFORMATION
VERS.                             2.0:   CWLS Log ASCII Standard-VERSION 2.0
WRAP.                              NO:   One line per depth step
~Well Information Block
STRT.F                      4530.0000:   Top Depth
STOP.F                      8517.0000:   Bottom Depth
STEP.F                         .50000:   Depth Increment
NULL.                        -999.250:   Null Value
FLD .                     MU BLK A 16:   Field Name
WELL.       OCSG03011  A005 ST00 BP00:   NAME
API .                    427024017200:   WELL API
R1  .                           38396:   COMMENT  1
EDF .F                       109.0000:   ELEV DRILL FLOOR
COMP.                     OXY USA INC:   OPERATOR
BN  .                            A 16:   BLOCK
CTRY.                             USA:   COUNTRY NAME
CNTY.                        MG ILD L:   COUNTY NAME
EKB .F                       110.0000:   ELEV KELLY BUSHING
TDD .F                       8534.000:   FINAL TD DRILLER
STAT.                           TEXAS:   STATE NAME
UWI .                    427024017200:   WELL API
DICO.               IHS : Digitizing Company
~PARAMETER INFORMATION (zones)
#MNEM.UNIT                       Value     Description
#=========                       =====     ===========
#ZONATION                          CNL:   ZONATION NAME
#ZONE                            RUN_1:   ZONE NAME
TOP .                       4530.0000:   TOP DEPTH
BOT .                       8517.5000:   BOTTOM DEPTH
RUN .                               1:   RUN NUMBER
LCCD.                             440:   LOGGING CONTRACTOR
SRVC.                    Schlumberger:   LOGGING CONT NAME
DICO.          QC Data Collectors Ltd:   DIG COMPANY NAME
LDAT.                      08/24/1989:   DATE LOGGED
ELD .F                       110.0000:   LOG DATUM ELEVATION
TDD .F                      8534.0000:   TOTAL DEPTH DRILLER
TDL .F                      8523.0000:   TOTAL DEPTH LOGGER
BOTL.F                      8517.0000:   BOTTOM DEPTH LOGGED
TOPL.F                      4580.0000:   TOP DEPTH LOGGED
CS1 .IN                       13.3750:   CASING SIZE 1
BS1 .IN                       12.2500:   BIT SIZE 1
DDB1.F                      8534.0000:   DEPTH DRILLED BIT 1
BHF .                              81:   FLUID CODE
DPT .          Lignosulfonate (Ligno):   DRILLING FLUID TYPE
MUDD.                         10.5000:   FLUID DENSITY
MUDV.                         29.0000:   FLUID VISCOSITY
DFPH.                          9.8000:   FLUID PH
FL  .                          6.8000:   FLUID LOSS
RM  .OHMM                       .7680:   RM
RMT .DEGC                     89.0000:   RM TEMP
RMF .OHMM                       .8480:   RMF
RMFT.DEGC                     89.0000:   RMF TEMP
FSC .                               M:   RMF CODE
RMC .OHMM                       .8250:   RMC
RMCT.DEGC                     89.0000:   RMC TEMP
CMC .                               M:   RMC CODE
TMAX.DEGC                    162.0000:   MAX REC TEMP
TIMC.                         16.2500:   TIME SINCE CIRCLN
~PARAMETER INFORMATION (zones)
#MNEM.UNIT                       Value     Description
#=========                       =====     ===========
#ZONATION                          DIL:   ZONATION NAME
#ZONE                            RUN_1:   ZONE NAME
TOP .                       4580.0000:   TOP DEPTH
BOT .                       8517.5000:   BOTTOM DEPTH
RUN .                               1:   RUN NUMBER
LCCD.                             440:   LOGGING CONTRACTOR
SRVC.                    Schlumberger:   LOGGING CONT NAME
DICO.          QC Data Collectors Ltd:   DIG COMPANY NAME
LDAT.                      08/24/1989:   DATE LOGGED
ELD .F                       110.0000:   LOG DATUM ELEVATION
TDD .F                      8534.0000:   TOTAL DEPTH DRILLER
TDL .F                      8523.0000:   TOTAL DEPTH LOGGER
BOTL.F                      8517.0000:   BOTTOM DEPTH LOGGED
TOPL.F                      4580.0000:   TOP DEPTH LOGGED
CS1 .IN                       13.3750:   CASING SIZE 1
BS1 .IN                       12.2500:   BIT SIZE 1
DDB1.F                      8534.0000:   DEPTH DRILLED BIT 1
BHF .                              81:   FLUID CODE
DPT .          Lignosulfonate (Ligno):   DRILLING FLUID TYPE
MUDD.                         10.5000:   FLUID DENSITY
MUDV.                         29.0000:   FLUID VISCOSITY
DFPH.                          9.8000:   FLUID PH
FL  .                          6.8000:   FLUID LOSS
RM  .OHMM                       .7680:   RM
RMT .DEGC                     89.0000:   RM TEMP
RMF .OHMM                       .8480:   RMF
RMFT.DEGC                     89.0000:   RMF TEMP
FSC .                               M:   RMF CODE
RMC .OHMM                       .8250:   RMC
RMCT.DEGC                     89.0000:   RMC TEMP
CMC .                               M:   RMC CODE
TMAX.DEGC                    162.0000:   MAX REC TEMP
TIMC.                         16.2500:   TIME SINCE CIRCLN
~PARAMETER INFORMATION (zones)
#MNEM.UNIT                       Value     Description
#=========                       =====     ===========
#ZONATION                          FDC:   ZONATION NAME
#ZONE                            RUN_1:   ZONE NAME
TOP .                       4530.0000:   TOP DEPTH
BOT .                       8517.5000:   BOTTOM DEPTH
RUN .                               1:   RUN NUMBER
LCCD.                             440:   LOGGING CONTRACTOR
SRVC.                    Schlumberger:   LOGGING CONT NAME
DICO.          QC Data Collectors Ltd:   DIG COMPANY NAME
LDAT.                      08/24/1989:   DATE LOGGED
ELD .F                       110.0000:   LOG DATUM ELEVATION
TDD .F                      8534.0000:   TOTAL DEPTH DRILLER
TDL .F                      8523.0000:   TOTAL DEPTH LOGGER
BOTL.F                      8517.0000:   BOTTOM DEPTH LOGGED
TOPL.F                      4580.0000:   TOP DEPTH LOGGED
CS1 .IN                       13.3750:   CASING SIZE 1
BS1 .IN                       12.2500:   BIT SIZE 1
DDB1.F                      8534.0000:   DEPTH DRILLED BIT 1
BHF .                              81:   FLUID CODE
DPT .          Lignosulfonate (Ligno):   DRILLING FLUID TYPE
MUDD.                         10.5000:   FLUID DENSITY
MUDV.                         29.0000:   FLUID VISCOSITY
DFPH.                          9.8000:   FLUID PH
FL  .                          6.8000:   FLUID LOSS
RM  .OHMM                       .7680:   RM
RMT .DEGC                     89.0000:   RM TEMP
RMF .OHMM                       .8480:   RMF
RMFT.DEGC                     89.0000:   RMF TEMP
FSC .                               M:   RMF CODE
RMC .OHMM                       .8250:   RMC
RMCT.DEGC                     89.0000:   RMC TEMP
CMC .                               M:   RMC CODE
TMAX.DEGC                    162.0000:   MAX REC TEMP
TIMC.                         16.2500:   TIME SINCE CIRCLN
~Curve Information Block
#MNEM.UNIT                    API CODE    No Description
#=========                    ========    == ===========
DEPT.F                   00 001 00 00:     1  DEPTH
NPHI.%                               :     2  Neutron Porosity
ILD.OHMM                             :     3  Deep Induction Resistivity
ILM.OHMM                             :     4  Medium Induction Resistivity
SFL.OHMM                             :     5  Medium Resistivity
SP.MV                                :     6  Spontaneous Potential
CALI.IN                              :     7  Caliper
DPHI.%                               :     8  Porosity
DRHO.G/C3                            :     9  Bulk Density Correction
GR.GAPI                              :    10  Gamma Ray
~ASCII
# ...
 7705.5000    28.5733     1.4280     1.4417     1.2375   -48.3611    14.9964    18.0459      .0026    71.6302
 7706.0000    29.0716     1.4421     1.4481     1.2605   -48.2737    14.9868    18.1382      .0012    73.9858
 7706.5000    32.3531     1.4527     1.4495     1.2883   -47.8965    14.9764    18.2107      .0004    75.3650
 7707.0000    34.2271     1.4458     1.4468     1.2923   -47.5089    14.9575    18.2949     -.0001    75.8589
 7707.5000    34.2372     1.4390     1.4400     1.2746   -47.2209    14.9372    17.4520      .0001    75.7568
 7708.0000    31.4751     1.4331     1.4303     1.2513   -47.5284    14.9037    15.9376      .0014    74.6425
 7708.5000    29.9637     1.4500     1.4260     1.2321   -48.3610    14.8877    14.9675      .0030    72.4589
 7709.0000    29.0077     1.4691     1.4376     1.2050   -49.1466    14.8837    14.1471      .0046    70.3561
 7709.5000    30.0792     1.4826     1.4650     1.2659   -49.6821    14.8734    15.6210      .0049    69.1952
 7710.0000    32.0818     1.4833     1.4842     1.2934   -50.1140    14.8587    16.6238      .0047    69.3215
 7710.5000    33.4309     1.4742     1.4847     1.3132   -50.3785    14.7839    17.2750      .0026    77.0216
 7711.0000    33.8809     1.4633     1.4740     1.3117   -50.5549    14.7167    17.6750      .0007    78.6841
 7711.5000    34.0056     1.4505     1.4577     1.2647   -50.6492    14.7230    17.9365     -.0010    79.2999
 7712.0000    33.4309     1.4357     1.4415     1.2134   -50.7157    14.7554    18.1065     -.0026    78.9668
 7712.5000    32.3937     1.4212     1.4253     1.1865   -50.7191    14.7739    18.2332     -.0029    78.6390
 7713.0000    31.5125     1.4094     1.4093     1.1896   -50.7225    14.7944    18.3407     -.0032    78.3124
 7713.5000    31.8767     1.3976     1.3935     1.2005   -50.6910    14.8163    18.4498     -.0029    78.4655
 7714.0000    33.3701     1.3805     1.3778     1.2139   -50.6353    14.8257    18.7173     -.0026    78.9980
 7714.5000    34.8643     1.3635     1.3623     1.2057   -50.5797    14.8289    19.1396     -.0018    81.5660
 7715.0000    36.2118     1.3453     1.3469     1.1894   -50.4940    14.7666    20.4903     -.0008    83.4617
 7715.5000    37.3410     1.3270     1.3340     1.1580   -50.4005    14.7066    20.9940      .0012    82.0481
 7716.0000    38.0647     1.3109     1.3227     1.1251   -50.3070    14.6477    20.0333      .0033    80.7986
 7716.5000    38.5267     1.2998     1.3115     1.1068   -50.2106    14.5783    19.2675      .0055    77.6964
 7717.0000    37.9305     1.2888     1.3019     1.1273   -50.1135    14.5088    18.8187      .0080    75.0725
 7717.5000    36.9796     1.2781     1.2933     1.1356   -50.0163    14.5049    18.6050      .0091    73.8947
 7718.0000    36.9924     1.2676     1.2848     1.1260   -49.9203    14.5307    19.2285      .0084    75.8802
 7718.5000    37.4806     1.2574     1.2727     1.1061   -49.8284    14.5757    20.2197      .0065    80.9954
 7719.0000    37.7340     1.2482     1.2604     1.0812   -49.7363    14.6140    20.5952      .0041    82.2780
 7719.5000    37.8315     1.2391     1.2462     1.0562   -49.6528    14.6551    20.9477      .0017    81.6807
 7720.0000    39.1315     1.2295     1.2315     1.0327   -49.6013    14.7000    21.2779      .0001    80.4442
 7720.5000    40.0771     1.2225     1.2221     1.0115   -49.5499    14.7481    21.6172     -.0011    79.1244
 7721.0000    39.7585     1.2130     1.2136      .9836   -49.5287    14.7931    21.8436     -.0013    78.1160
 7721.5000    38.6761     1.2072     1.2099      .9809   -49.6047    14.8015    21.9248     -.0005    77.6849
 7722.0000    37.5671     1.2021     1.2088      .9857   -49.6806    14.5894    21.6803      .0015    77.6660
 7722.5000    36.6111     1.2025     1.2090      .9975   -49.8058    14.4762    21.3107      .0034    77.8461
 7723.0000    36.6617     1.2062     1.2103     1.0111   -50.0358    14.4113    20.9789      .0047    76.8340
 7723.5000    37.3457     1.2138     1.2123     1.0135   -50.2661    14.2969    20.8431      .0055    75.6262
 7724.0000    38.0334     1.2254     1.2149     1.0007   -50.5342    14.0595    21.0845      .0054    74.2908
 7724.5000    37.2864     1.2403     1.2177      .9872   -50.8625    13.9852    22.2543      .0045    70.5203
 7725.0000    35.7252     1.2569     1.2306     1.0170   -51.6116    13.9150    23.7906      .0032    62.5310
 7725.5000    33.6664     1.2753     1.2436     1.1410   -53.0266    13.6660    25.6973      .0023    59.1800
 7726.0000    31.8572     1.2948     1.2633     1.3170   -55.8903    13.4817    25.6403      .0026    56.7567
 7726.5000    31.4883     1.3200     1.2849     1.4544   -58.3188    13.3806    24.0151      .0038    58.8100
 7727.0000    31.6517     1.3356     1.2952     1.4853   -60.4478    13.2971    22.8594      .0059    60.6575
 7727.5000    32.1769     1.3298     1.3040     1.4318   -62.3630    13.2757    22.9756      .0103    61.6907
 7728.0000    31.9726     1.3007     1.3128     1.3798   -63.4821    13.3360    25.3954      .0205    62.6274
 7728.5000    31.2232     1.3171     1.3293     1.3612   -64.0736    13.4186    26.0232      .0407    63.9030
 7729.0000    31.2968     1.3421     1.3604     1.3805   -64.6339    13.4991    24.4082      .0611    65.2748
 7729.5000    31.4595     1.3562     1.4072     1.3156   -65.2769    13.6140    22.1779      .0764    67.0389
 7730.0000    32.7197     1.3360     1.4089     1.2347   -64.8749    13.7992    18.9150      .0838    72.6674
 7730.5000    34.0111     1.3272     1.3791     1.1610   -63.2906    14.0050    18.0065      .0674    74.9005
 7731.0000    34.7722     1.3314     1.3614     1.1370   -61.8079    14.1999    17.7460      .0384    76.4053
 7731.5000    34.8284     1.3370     1.3594     1.1119   -60.6523    14.3603    18.5282      .0208    76.8644
 7732.0000    34.4532     1.3583     1.3673     1.0878   -59.8524    14.3399    19.4164      .0108    76.8333
 7732.5000    33.6118     1.3665     1.3809     1.0731   -58.8778    14.3257    19.6286      .0064    75.5624
 7733.0000    32.1301     1.3713     1.4013     1.0866   -58.1508    14.3134    19.5683      .0031    74.1799
 7733.5000    30.2164     1.3736     1.4384     1.2071   -58.2361    14.3105    18.4720      .0018    69.7385
 7734.0000    26.8631     1.3698     1.4866     1.4514   -59.0732    14.3092    17.4754      .0010    59.5240
 7734.5000    26.1488     1.3565     1.5447     1.6902   -60.5233    14.1285    17.8271      .0004    52.2592
 7735.0000    27.8176     1.3179     1.5557     1.8229   -62.8477    13.8648    20.5277     -.0095    48.7518
 7735.5000    29.2463     1.2776     1.4340     1.6959   -66.2039    13.5811    26.9723     -.0148    47.2183
 7736.0000    30.2164     1.2259     1.3508     1.5609   -70.0343    13.3174    30.6843     -.0146    48.7336
 7736.5000    31.0033     1.1630     1.2859     1.4329   -74.0836    13.0862    31.9913     -.0131    51.4149
 7737.0000    31.3706     1.0976     1.2367     1.3115   -78.5238    12.9801    32.1863     -.0112    52.8585
 7737.5000    31.5431     1.0413     1.2015     1.2205   -83.7717    13.0122    31.2879     -.0100    53.9777
 7738.0000    30.3155     1.0019     1.1656     1.1697   -86.2759    12.9911    30.2913     -.0089    55.9880
 7738.5000    30.1610      .9698     1.1397     1.1495   -86.8530    12.9724    28.9967     -.0075    59.3520
 7739.0000    30.9510      .9586     1.1371     1.1481   -85.7651    12.9927    27.1439     -.0059    61.7780
 7739.5000    31.9118      .9869     1.1546     1.1600   -83.3184    13.0190    24.8449     -.0037    63.9459
 7740.0000    32.6744     1.0269     1.1649     1.1719   -80.0612    13.0425    23.5847     -.0005    65.5850
 7740.5000    33.3677     1.0981     1.1742     1.1838   -77.4137    13.0847    23.0575      .0018    68.1438
 7741.0000    33.1689     1.1636     1.1852     1.1949   -75.8451    13.1454    24.3240      .0031    70.0183
 7741.5000    31.8681     1.2100     1.2088     1.1952   -74.8138    13.2384    25.7409      .0053    70.2036
