~VERSION INFORMATION
VERS.                             2.0:   CWLS Log ASCII Standard-VERSION 2.0
WRAP.                              NO:   One line per depth step
~Well Information Block
STRT.F                      4530.0000:   Top Depth
STOP.F                      8517.0000:   Bottom Depth
STEP.F                         .50000:   Depth Increment
NULL.                        -999.250:   Null Value
FLD .                     MU BLK A 16:   Field Name
WELL.       OCSG03011  A005 ST00 BP00:   NAME
API .                    427024017200:   WELL API
R1  .                           38396:   COMMENT  1
EDF .F                       109.0000:   ELEV DRILL FLOOR
COMP.                     OXY USA INC:   OPERATOR
BN  .                            A 16:   BLOCK
CTRY.                             USA:   COUNTRY NAME
CNTY.                        MG ILD L:   COUNTY NAME
EKB .F                       110.0000:   ELEV KELLY BUSHING
TDD .F                       8534.000:   FINAL TD DRILLER
STAT.                           TEXAS:   STATE NAME
UWI .                    427024017200:   WELL API
DICO.               IHS : Digitizing Company
~PARAMETER INFORMATION (zones)
#MNEM.UNIT                       Value     Description
#=========                       =====     ===========
#ZONATION                          CNL:   ZONATION NAME
#ZONE                            RUN_1:   ZONE NAME
TOP .                       4530.0000:   TOP DEPTH
BOT .                       8517.5000:   BOTTOM DEPTH
RUN .                               1:   RUN NUMBER
LCCD.                             440:   LOGGING CONTRACTOR
SRVC.                    Schlumberger:   LOGGING CONT NAME
DICO.          QC Data Collectors Ltd:   DIG COMPANY NAME
LDAT.                      08/24/1989:   DATE LOGGED
ELD .F                       110.0000:   LOG DATUM ELEVATION
TDD .F                      8534.0000:   TOTAL DEPTH DRILLER
TDL .F                      8523.0000:   TOTAL DEPTH LOGGER
BOTL.F                      8517.0000:   BOTTOM DEPTH LOGGED
TOPL.F                      4580.0000:   TOP DEPTH LOGGED
CS1 .IN                       13.3750:   CASING SIZE 1
BS1 .IN                       12.2500:   BIT SIZE 1
DDB1.F                      8534.0000:   DEPTH DRILLED BIT 1
BHF .                              81:   FLUID CODE
DPT .          Lignosulfonate (Ligno):   DRILLING FLUID TYPE
MUDD.                         10.5000:   FLUID DENSITY
MUDV.                         29.0000:   FLUID VISCOSITY
DFPH.                          9.8000:   FLUID PH
FL  .                          6.8000:   FLUID LOSS
RM  .OHMM                       .7680:   RM
RMT .DEGC                     89.0000:   RM TEMP
RMF .OHMM                       .8480:   RMF
RMFT.DEGC                     89.0000:   RMF TEMP
FSC .                               M:   RMF CODE
RMC .OHMM                       .8250:   RMC
RMCT.DEGC                     89.0000:   RMC TEMP
CMC .                               M:   RMC CODE
TMAX.DEGC                    162.0000:   MAX REC TEMP
TIMC.                         16.2500:   TIME SINCE CIRCLN
~PARAMETER INFORMATION (zones)
#MNEM.UNIT                       Value     Description
#=========                       =====     ===========
#ZONATION                          DIL:   ZONATION NAME
#ZONE                            RUN_1:   ZONE NAME
TOP .                       4580.0000:   TOP DEPTH
BOT .                       8517.5000:   BOTTOM DEPTH
RUN .                               1:   RUN NUMBER
LCCD.                             440:   LOGGING CONTRACTOR
SRVC.                    Schlumberger:   LOGGING CONT NAME
DICO.          QC Data Collectors Ltd:   DIG COMPANY NAME
LDAT.                      08/24/1989:   DATE LOGGED
ELD .F                       110.0000:   LOG DATUM ELEVATION
TDD .F                      8534.0000:   TOTAL DEPTH DRILLER
TDL .F                      8523.0000:   TOTAL DEPTH LOGGER
BOTL.F                      8517.0000:   BOTTOM DEPTH LOGGED
TOPL.F                      4580.0000:   TOP DEPTH LOGGED
CS1 .IN                       13.3750:   CASING SIZE 1
BS1 .IN                       12.2500:   BIT SIZE 1
DDB1.F                      8534.0000:   DEPTH DRILLED BIT 1
BHF .                              81:   FLUID CODE
DPT .          Lignosulfonate (Ligno):   DRILLING FLUID TYPE
MUDD.                         10.5000:   FLUID DENSITY
MUDV.                         29.0000:   FLUID VISCOSITY
DFPH.                          9.8000:   FLUID PH
FL  .                          6.8000:   FLUID LOSS
RM  .OHMM                       .7680:   RM
RMT .DEGC                     89.0000:   RM TEMP
RMF .OHMM                       .8480:   RMF
RMFT.DEGC                     89.0000:   RMF TEMP
FSC .                               M:   RMF CODE
RMC .OHMM                       .8250:   RMC
RMCT.DEGC                     89.0000:   RMC TEMP
CMC .                               M:   RMC CODE
TMAX.DEGC                    162.0000:   MAX REC TEMP
TIMC.                         16.2500:   TIME SINCE CIRCLN
~PARAMETER INFORMATION (zones)
#MNEM.UNIT                       Value     Description
#=========                       =====     ===========
#ZONATION                          FDC:   ZONATION NAME
#ZONE                            RUN_1:   ZONE NAME
TOP .                       4530.0000:   TOP DEPTH
BOT .                       8517.5000:   BOTTOM DEPTH
RUN .                               1:   RUN NUMBER
LCCD.                             440:   LOGGING CONTRACTOR
SRVC.                    Schlumberger:   LOGGING CONT NAME
DICO.          QC Data Collectors Ltd:   DIG COMPANY NAME
LDAT.                      08/24/1989:   DATE LOGGED
ELD .F                       110.0000:   LOG DATUM ELEVATION
TDD .F                      8534.0000:   TOTAL DEPTH DRILLER
TDL .F                      8523.0000:   TOTAL DEPTH LOGGER
BOTL.F                      8517.0000:   BOTTOM DEPTH LOGGED
TOPL.F                      4580.0000:   TOP DEPTH LOGGED
CS1 .IN                       13.3750:   CASING SIZE 1
BS1 .IN                       12.2500:   BIT SIZE 1
DDB1.F                      8534.0000:   DEPTH DRILLED BIT 1
BHF .                              81:   FLUID CODE
DPT .          Lignosulfonate (Ligno):   DRILLING FLUID TYPE
MUDD.                         10.5000:   FLUID DENSITY
MUDV.                         29.0000:   FLUID VISCOSITY
DFPH.                          9.8000:   FLUID PH
FL  .                          6.8000:   FLUID LOSS
RM  .OHMM                       .7680:   RM
RMT .DEGC                     89.0000:   RM TEMP
RMF .OHMM                       .8480:   RMF
RMFT.DEGC                     89.0000:   RMF TEMP
FSC .                               M:   RMF CODE
RMC .OHMM                       .8250:   RMC
RMCT.DEGC                     89.0000:   RMC TEMP
CMC .                               M:   RMC CODE
TMAX.DEGC                    162.0000:   MAX REC TEMP
TIMC.                         16.2500:   TIME SINCE CIRCLN
~Curve Information Block
#MNEM.UNIT                    API CODE    No Description
#=========                    ========    == ===========
DEPT.F                   00 001 00 00:     1  DEPTH
NPHI.%                               :     2  Neutron Porosity
ILD.OHMM                             :     3  Deep Induction Resistivity
ILM.OHMM                             :     4  Medium Induction Resistivity
SFL.OHMM                             :     5  Medium Resistivity
SP.MV                                :     6  Spontaneous Potential
CALI.IN                              :     7  Caliper
DPHI.%                               :     8  Porosity
DRHO.G/C3                            :     9  Bulk Density Correction
GR.GAPI                              :    10  Gamma Ray
~ASCII
# ...
 5625.0000    32.9267     1.2809     1.2734     1.0534   -62.1901    17.9919    24.4193     -.0004    84.5096
 5625.5000    33.8755     1.2784     1.2754     1.0601   -61.6826    18.0144    24.5048      .0008    87.6060
 5626.0000    34.1897     1.2810     1.2771     1.0730   -61.3751    18.0987    24.4347      .0018    88.1475
 5626.5000    33.5723     1.2845     1.2787     1.0581   -60.8391    18.1850    24.3128      .0022    87.7894
 5627.0000    33.8818     1.2877     1.2801     1.0305   -60.0172    18.2735    24.1203      .0022    84.2102
 5627.5000    34.7853     1.2894     1.2791     1.0182   -59.1374    18.3254    23.8903      .0018    81.7504
 5628.0000    35.4408     1.2911     1.2782     1.0208   -58.1710    18.3637    23.6246      .0012    81.3702
 5628.5000    34.9225     1.2924     1.2772     1.0304   -57.0757    18.3895    23.6879      .0006    83.8693
 5629.0000    34.1480     1.2932     1.2754     1.0434   -56.4407    18.3881    24.0234      .0007    85.9048
 5629.5000    33.9359     1.2939     1.2735     1.0627   -56.5569    18.3249    24.4351     -.0008    86.1636
 5630.0000    34.7191     1.2942     1.2717     1.0547   -56.7076    18.0857    24.8533     -.0037    86.2292
 5630.5000    36.4213     1.2941     1.2699     1.0307   -56.7816    17.9300    25.1100     -.0072    86.7509
 5631.0000    36.3456     1.2939     1.2681     1.0061   -56.4399    17.9388    25.0576     -.0100    88.7369
 5631.5000    36.0620     1.2929     1.2671      .9998   -56.1161    18.0043    24.6976     -.0109    88.2762
 5632.0000    36.0166     1.2918     1.2679      .9963   -55.8142    18.0988    24.7015     -.0091    86.6311
 5632.5000    36.0537     1.2893     1.2686     1.0057   -55.6419    18.1701    24.9057     -.0065    84.4471
 5633.0000    35.7215     1.2845     1.2693     1.0216   -55.8767    18.2318    24.9299     -.0038    83.7892
 5633.5000    34.4220     1.2797     1.2700     1.0540   -56.2089    18.2630    24.4409     -.0011    83.5847
 5634.0000    34.2723     1.2765     1.2707     1.0751   -56.4355    18.2785    23.9638      .0005    83.6216
 5634.5000    34.7148     1.2738     1.2710     1.0849   -56.4805    18.3221    23.5159      .0016    83.8497
 5635.0000    35.0620     1.2711     1.2709     1.0745   -56.3557    18.3880    23.4429      .0012    84.2408
 5635.5000    34.6879     1.2685     1.2707     1.0610   -56.1058    18.5075    24.0515     -.0003    85.1051
 5636.0000    33.3837     1.2660     1.2698     1.0446   -55.8689    18.6497    24.5602     -.0028    87.1387
 5636.5000    32.6096     1.2635     1.2686     1.0242   -55.6414    18.8398    25.0059     -.0049    88.6843
 5637.0000    32.8184     1.2609     1.2674     1.0087   -55.6274    19.0306    25.2381     -.0063    89.0436
 5637.5000    33.5987     1.2583     1.2662      .9986   -55.7797    18.9645    25.4443     -.0059    89.3676
 5638.0000    34.4134     1.2558     1.2647      .9957   -56.0651    18.8475    25.3086     -.0048    90.2052
 5638.5000    34.1699     1.2547     1.2618      .9934   -56.4536    18.8660    24.8607     -.0024    90.2650
 5639.0000    33.7687     1.2538     1.2589      .9912   -56.8350    18.8830    24.0710      .0012    88.4611
 5639.5000    33.9646     1.2529     1.2559     1.0005   -57.1935    18.6420    23.5507      .0039    86.1235
 5640.0000    35.4869     1.2505     1.2529     1.0246   -57.5394    18.3957    23.6561      .0059    83.5491
 5640.5000    37.2973     1.2480     1.2498     1.0497   -57.8781    18.1570    23.7884      .0076    81.2844
 5641.0000    38.7026     1.2456     1.2465     1.0615   -58.1446    17.9131    23.8017      .0092    80.2698
 5641.5000    39.1083     1.2426     1.2432     1.0488   -57.8430    17.7649    23.7408      .0106    80.2191
 5642.0000    39.3539     1.2396     1.2401     1.0077   -57.5479    17.7176    23.4434      .0111    80.8152
 5642.5000    39.3951     1.2366     1.2377      .9794   -57.3972    17.7292    23.6086      .0114    82.2476
 5643.0000    39.3814     1.2336     1.2353      .9720   -58.0226    17.7488    24.2659      .0113    84.4940
 5643.5000    39.2011     1.2306     1.2330      .9883   -58.4713    17.7733    24.7336      .0116    86.9357
 5644.0000    38.3303     1.2277     1.2277     1.0148   -58.5165    17.7437    24.4323      .0122    89.1691
 5644.5000    37.2411     1.2256     1.2224     1.0290   -58.2133    17.6736    23.8823      .0145    90.6353
 5645.0000    37.2661     1.2255     1.2171     1.0267   -57.6087    17.6078    23.3163      .0188    90.2904
 5645.5000    38.8721     1.2253     1.2138     1.0126   -56.9963    17.5714    22.7417      .0223    89.6506
 5646.0000    40.1671     1.2245     1.2109      .9962   -56.3762    17.6229    22.0221      .0224    88.5665
 5646.5000    38.8378     1.2229     1.2081      .9858   -56.2728    17.6893    22.3807      .0166    86.3525
 5647.0000    37.1335     1.2213     1.2058      .9938   -56.4246    17.7498    23.2180      .0117    84.7367
 5647.5000    35.3716     1.2199     1.2042     1.0226   -56.6724    17.7638    24.0483      .0080    84.7898
 5648.0000    33.9453     1.2190     1.2026     1.0517   -56.7602    17.7514    24.9247      .0057    85.1226
 5648.5000    34.1133     1.2180     1.2010     1.0599   -56.8296    17.7175    25.5421      .0038    85.5765
 5649.0000    34.9740     1.2166     1.1996     1.0431   -57.2137    17.6346    25.8657      .0024    86.6532
 5649.5000    38.3015     1.2148     1.1982     1.0210   -58.4872    17.5471    25.9359      .0018    88.3907
 5650.0000    39.0244     1.2131     1.1967      .9994   -60.3146    17.4868    25.8802      .0015    91.7629
 5650.5000    38.8659     1.2099     1.1933      .9668   -61.1008    17.5699    25.8354      .0009    93.8995
 5651.0000    38.6407     1.2062     1.1894      .9362   -60.8590    17.6575    25.7998     -.0001    92.8942
 5651.5000    38.5889     1.2005     1.1856      .9146   -60.9286    17.7342    25.8351     -.0012    92.0270
 5652.0000    38.9360     1.1905     1.1762      .9243   -61.4242    17.8112    25.8719     -.0013    92.3020
 5652.5000    40.1133     1.1805     1.1663      .9534   -62.0463    17.8068    26.0409     -.0009    92.6877
 5653.0000    41.5260     1.1734     1.1585      .9924   -62.4713    17.6979    26.2699     -.0002    92.9802
 5653.5000    41.9821     1.1669     1.1533      .9880   -62.1592    17.5539    26.5502      .0006    92.2203
 5654.0000    41.8879     1.1628     1.1482      .9586   -61.5790    17.4850    26.7219      .0013    90.1873
 5654.5000    41.5408     1.1619     1.1480      .9418   -60.7701    17.4437    26.6289      .0021    88.0559
 5655.0000    41.1732     1.1611     1.1534      .9280   -59.6456    17.4451    26.1919      .0027    87.4272
 5655.5000    41.1009     1.1634     1.1588      .9297   -58.4352    17.4527    25.8594      .0028    87.6957
 5656.0000    41.2264     1.1661     1.1643      .9419   -57.3946    17.4805    25.9666      .0029    88.1804
 5656.5000    40.8555     1.1687     1.1699      .9683   -56.8128    17.5963    26.2352      .0028    88.7510
 5657.0000    40.0034     1.1712     1.1744      .9791   -56.3957    17.7207    26.4465      .0027    88.6761
 5657.5000    39.0343     1.1737     1.1779      .9794   -55.9993    17.4919    26.2430      .0026    88.5635
 5658.0000    38.0691     1.1768     1.1815      .9669   -55.4033    17.4820    25.8773      .0023    88.9578
 5658.5000    37.2918     1.1805     1.1884      .9645   -54.7303    17.6867    25.4221      .0021    89.8982
 5659.0000    36.3664     1.1841     1.1954      .9673   -54.1830    17.8156    24.9679      .0017    91.0669
 5659.5000    35.1463     1.1890     1.2042      .9776   -54.1126    17.8025    24.5419      .0012    92.3135
 5660.0000    35.0496     1.1939     1.2160      .9934   -54.4004    17.7531    24.7808      .0008    92.5775
 5660.5000    35.9595     1.1995     1.2280     1.0012   -54.7732    17.6922    25.4564      .0005    91.6128
 5661.0000    36.3409     1.2073     1.2319     1.0083   -54.8717    17.6402    26.1767      .0001    91.2803
