~VERSION INFORMATION
VERS.                             2.0:   CWLS Log ASCII Standard-VERSION 2.0
WRAP.                              NO:   One line per depth step
~Well Information Block
STRT.F                      4530.0000:   Top Depth
STOP.F                      8517.0000:   Bottom Depth
STEP.F                         .50000:   Depth Increment
NULL.                        -999.250:   Null Value
FLD .                     MU BLK A 16:   Field Name
WELL.       OCSG03011  A005 ST00 BP00:   NAME
API .                    427024017200:   WELL API
R1  .                           38396:   COMMENT  1
EDF .F                       109.0000:   ELEV DRILL FLOOR
COMP.                     OXY USA INC:   OPERATOR
BN  .                            A 16:   BLOCK
CTRY.                             USA:   COUNTRY NAME
CNTY.                        MG ILD L:   COUNTY NAME
EKB .F                       110.0000:   ELEV KELLY BUSHING
TDD .F                       8534.000:   FINAL TD DRILLER
STAT.                           TEXAS:   STATE NAME
UWI .                    427024017200:   WELL API
DICO.               IHS : Digitizing Company
~PARAMETER INFORMATION (zones)
#MNEM.UNIT                       Value     Description
#=========                       =====     ===========
#ZONATION                          CNL:   ZONATION NAME
#ZONE                            RUN_1:   ZONE NAME
TOP .                       4530.0000:   TOP DEPTH
BOT .                       8517.5000:   BOTTOM DEPTH
RUN .                               1:   RUN NUMBER
LCCD.                             440:   LOGGING CONTRACTOR
SRVC.                    Schlumberger:   LOGGING CONT NAME
DICO.          QC Data Collectors Ltd:   DIG COMPANY NAME
LDAT.                      08/24/1989:   DATE LOGGED
ELD .F                       110.0000:   LOG DATUM ELEVATION
TDD .F                      8534.0000:   TOTAL DEPTH DRILLER
TDL .F                      8523.0000:   TOTAL DEPTH LOGGER
BOTL.F                      8517.0000:   BOTTOM DEPTH LOGGED
TOPL.F                      4580.0000:   TOP DEPTH LOGGED
CS1 .IN                       13.3750:   CASING SIZE 1
BS1 .IN                       12.2500:   BIT SIZE 1
DDB1.F                      8534.0000:   DEPTH DRILLED BIT 1
BHF .                              81:   FLUID CODE
DPT .          Lignosulfonate (Ligno):   DRILLING FLUID TYPE
MUDD.                         10.5000:   FLUID DENSITY
MUDV.                         29.0000:   FLUID VISCOSITY
DFPH.                          9.8000:   FLUID PH
FL  .                          6.8000:   FLUID LOSS
RM  .OHMM                       .7680:   RM
RMT .DEGC                     89.0000:   RM TEMP
RMF .OHMM                       .8480:   RMF
RMFT.DEGC                     89.0000:   RMF TEMP
FSC .                               M:   RMF CODE
RMC .OHMM                       .8250:   RMC
RMCT.DEGC                     89.0000:   RMC TEMP
CMC .                               M:   RMC CODE
TMAX.DEGC                    162.0000:   MAX REC TEMP
TIMC.                         16.2500:   TIME SINCE CIRCLN
~PARAMETER INFORMATION (zones)
#MNEM.UNIT                       Value     Description
#=========                       =====     ===========
#ZONATION                          DIL:   ZONATION NAME
#ZONE                            RUN_1:   ZONE NAME
TOP .                       4580.0000:   TOP DEPTH
BOT .                       8517.5000:   BOTTOM DEPTH
RUN .                               1:   RUN NUMBER
LCCD.                             440:   LOGGING CONTRACTOR
SRVC.                    Schlumberger:   LOGGING CONT NAME
DICO.          QC Data Collectors Ltd:   DIG COMPANY NAME
LDAT.                      08/24/1989:   DATE LOGGED
ELD .F                       110.0000:   LOG DATUM ELEVATION
TDD .F                      8534.0000:   TOTAL DEPTH DRILLER
TDL .F                      8523.0000:   TOTAL DEPTH LOGGER
BOTL.F                      8517.0000:   BOTTOM DEPTH LOGGED
TOPL.F                      4580.0000:   TOP DEPTH LOGGED
CS1 .IN                       13.3750:   CASING SIZE 1
BS1 .IN                       12.2500:   BIT SIZE 1
DDB1.F                      8534.0000:   DEPTH DRILLED BIT 1
BHF .                              81:   FLUID CODE
DPT .          Lignosulfonate (Ligno):   DRILLING FLUID TYPE
MUDD.                         10.5000:   FLUID DENSITY
MUDV.                         29.0000:   FLUID VISCOSITY
DFPH.                          9.8000:   FLUID PH
FL  .                          6.8000:   FLUID LOSS
RM  .OHMM                       .7680:   RM
RMT .DEGC                     89.0000:   RM TEMP
RMF .OHMM                       .8480:   RMF
RMFT.DEGC                     89.0000:   RMF TEMP
FSC .                               M:   RMF CODE
RMC .OHMM                       .8250:   RMC
RMCT.DEGC                     89.0000:   RMC TEMP
CMC .                               M:   RMC CODE
TMAX.DEGC                    162.0000:   MAX REC TEMP
TIMC.                         16.2500:   TIME SINCE CIRCLN
~PARAMETER INFORMATION (zones)
#MNEM.UNIT                       Value     Description
#=========                       =====     ===========
#ZONATION                          FDC:   ZONATION NAME
#ZONE                            RUN_1:   ZONE NAME
TOP .                       4530.0000:   TOP DEPTH
BOT .                       8517.5000:   BOTTOM DEPTH
RUN .                               1:   RUN NUMBER
LCCD.                             440:   LOGGING CONTRACTOR
SRVC.                    Schlumberger:   LOGGING CONT NAME
DICO.          QC Data Collectors Ltd:   DIG COMPANY NAME
LDAT.                      08/24/1989:   DATE LOGGED
ELD .F                       110.0000:   LOG DATUM ELEVATION
TDD .F                      8534.0000:   TOTAL DEPTH DRILLER
TDL .F                      8523.0000:   TOTAL DEPTH LOGGER
BOTL.F                      8517.0000:   BOTTOM DEPTH LOGGED
TOPL.F                      4580.0000:   TOP DEPTH LOGGED
CS1 .IN                       13.3750:   CASING SIZE 1
BS1 .IN                       12.2500:   BIT SIZE 1
DDB1.F                      8534.0000:   DEPTH DRILLED BIT 1
BHF .                              81:   FLUID CODE
DPT .          Lignosulfonate (Ligno):   DRILLING FLUID TYPE
MUDD.                         10.5000:   FLUID DENSITY
MUDV.                         29.0000:   FLUID VISCOSITY
DFPH.                          9.8000:   FLUID PH
FL  .                          6.8000:   FLUID LOSS
RM  .OHMM                       .7680:   RM
RMT .DEGC                     89.0000:   RM TEMP
RMF .OHMM                       .8480:   RMF
RMFT.DEGC                     89.0000:   RMF TEMP
FSC .                               M:   RMF CODE
RMC .OHMM                       .8250:   RMC
RMCT.DEGC                     89.0000:   RMC TEMP
CMC .                               M:   RMC CODE
TMAX.DEGC                    162.0000:   MAX REC TEMP
TIMC.                         16.2500:   TIME SINCE CIRCLN
~Curve Information Block
#MNEM.UNIT                    API CODE    No Description
#=========                    ========    == ===========
DEPT.F                   00 001 00 00:     1  DEPTH
NPHI.%                               :     2  Neutron Porosity
ILD.OHMM                             :     3  Deep Induction Resistivity
ILM.OHMM                             :     4  Medium Induction Resistivity
SFL.OHMM                             :     5  Medium Resistivity
SP.MV                                :     6  Spontaneous Potential
CALI.IN                              :     7  Caliper
DPHI.%                               :     8  Porosity
DRHO.G/C3                            :     9  Bulk Density Correction
GR.GAPI                              :    10  Gamma Ray
~ASCII
# ...
 5880.5000    40.4688     1.2185     1.2177      .9977   -46.7416    16.2573    26.2175     -.0044    95.6326
 5881.0000    40.7543     1.2045     1.2072      .9928   -46.5756    16.1869    26.2930     -.0028    98.5909
 5881.5000    40.3074     1.1901     1.1983      .9902   -46.4327    16.0898    26.3360     -.0014    98.3737
 5882.0000    39.4288     1.1759     1.1906      .9875   -46.3067    16.0643    26.4032     -.0007    96.9757
 5882.5000    38.7307     1.1657     1.1829      .9830   -46.2870    16.0537    26.6827     -.0002    94.3311
 5883.0000    38.2718     1.1556     1.1753      .9817   -46.2757    15.9155    26.9587     -.0006    92.7627
 5883.5000    38.1252     1.1459     1.1679      .9818   -46.3961    15.7425    27.1430     -.0009    94.5444
 5884.0000    39.5598     1.1390     1.1605      .9830   -46.4850    15.8139    27.2795     -.0013    96.5020
 5884.5000    40.6988     1.1322     1.1532      .9824   -46.5078    15.9288    27.6627     -.0017    97.8894
 5885.0000    41.2991     1.1260     1.1486      .9756   -46.4963    15.9819    28.2490     -.0021    98.2336
 5885.5000    41.4141     1.1226     1.1454      .9628   -46.4449    15.9848    28.7764     -.0018    96.9874
 5886.0000    41.6406     1.1191     1.1422      .9475   -46.3302    15.9637    29.0569     -.0006    96.9330
 5886.5000    42.5847     1.1155     1.1380      .9298   -46.2346    15.9017    28.7308      .0013    97.6051
 5887.0000    43.2848     1.1072     1.1284      .9174   -46.2584    15.7800    28.3063      .0030    98.3541
 5887.5000    43.8765     1.0991     1.1189      .9082   -46.3881    15.6262    27.7695      .0043    98.6200
 5888.0000    44.1260     1.0955     1.1069      .9047   -46.6614    15.4528    27.1540      .0050    97.7827
 5888.5000    43.1304     1.0940     1.0936      .9045   -46.9709    15.2965    26.6815      .0038    93.3054
 5889.0000    41.4901     1.0925     1.0822      .9112   -47.2842    15.2416    26.4699     -.0030    91.6304
 5889.5000    40.6360     1.0989     1.0847      .9179   -47.6122    15.1879    26.4190     -.0086    91.9063
 5890.0000    40.4225     1.1062     1.0872      .9267   -47.9288    15.3233    26.5005     -.0113    93.2937
 5890.5000    41.6172     1.1137     1.0922      .9352   -48.1644    15.5248    26.8484     -.0122    93.8405
 5891.0000    42.0074     1.1214     1.0983      .9352   -48.3876    15.6899    27.3216     -.0116    93.5774
 5891.5000    41.7197     1.1291     1.1045      .9358   -48.5554    15.7436    27.5164     -.0101    92.7900
 5892.0000    41.2831     1.1349     1.1103      .9369   -48.6960    15.7640    27.3477     -.0081    90.3666
 5892.5000    41.0952     1.1357     1.1159      .9353   -48.7187    15.7569    26.9801     -.0061    87.8754
 5893.0000    41.3794     1.1365     1.1216      .9202   -48.6202    15.7445    26.6172     -.0043    86.5192
 5893.5000    41.8671     1.1350     1.1243      .9056   -48.2689    15.7436    26.7291     -.0028    87.8494
 5894.0000    42.0598     1.1324     1.1270      .9033   -47.9177    15.7561    27.1307     -.0024    89.1757
 5894.5000    41.5868     1.1298     1.1297      .9141   -47.7951    15.7898    27.0594     -.0025    90.2455
 5895.0000    40.5686     1.1272     1.1308      .9383   -47.9695    15.7850    26.7880     -.0023    91.2463
 5895.5000    39.0577     1.1247     1.1315      .9569   -48.4608    15.7073    26.2212     -.0004    92.9384
 5896.0000    38.2391     1.1226     1.1312      .9600   -48.5757    15.6024    25.5815     -.0001    94.9447
 5896.5000    38.8207     1.1208     1.1232      .9164   -48.5708    15.4924    26.2243     -.0036    94.6772
 5897.0000    39.9581     1.1184     1.1152      .8973   -48.0788    15.4313    26.6492     -.0087    91.1683
 5897.5000    40.3271     1.1123     1.0989      .9049   -47.3884    15.5578    26.7686     -.0101    88.9882
 5898.0000    39.8217     1.1063     1.0829      .9129   -46.5957    15.7921    26.8375     -.0093    91.7462
 5898.5000    37.9113     1.0940     1.0744      .9096   -45.6638    15.9567    27.4623     -.0069    94.2543
 5899.0000    39.2074     1.0819     1.0659      .8771   -44.8562    15.8828    28.5624     -.0037    98.3632
 5899.5000    39.9426     1.0726     1.0584      .8441   -44.1456    15.7445    29.9353     -.0008   104.2201
 5900.0000    41.3170     1.0670     1.0576      .8353   -43.5696    15.7331    30.1840      .0009   113.2737
 5900.5000    46.4470     1.0615     1.0568      .8461   -43.2229    15.7948    29.1362      .0006   125.1202
 5901.0000    46.4189     1.0667     1.0573      .8703   -43.0456    15.8705    26.4480      .0001   122.5822
 5901.5000    45.4288     1.0742     1.0583      .8937   -43.1321    15.8813    25.2911     -.0002   114.3357
 5902.0000    44.0566     1.0899     1.0681      .9168   -43.3416    15.5862    25.0853      .0002    99.9250
 5902.5000    40.4657     1.1115     1.0852      .9417   -43.7122    15.1525    25.2068      .0006    95.6794
 5903.0000    37.6216     1.1392     1.1061      .9651   -44.1505    15.1321    25.1775      .0012    91.6941
 5903.5000    35.2858     1.1687     1.1336      .9820   -44.4413    15.3426    24.6471      .0017    86.8263
 5904.0000    35.6538     1.1915     1.1608      .9984   -44.6974    15.6206    24.0031      .0022    82.9542
 5904.5000    38.5790     1.2119     1.1795     1.0104   -44.7482    15.8806    23.8441      .0023    82.8411
 5905.0000    39.5894     1.2270     1.1967     1.0203   -44.7134    16.0974    24.0593      .0022    84.5564
 5905.5000    40.1172     1.2356     1.2052     1.0232   -44.6066    16.1757    24.3520      .0019    86.0988
 5906.0000    40.1815     1.2443     1.2138     1.0260   -44.2487    16.2212    24.7352      .0019    86.5853
 5906.5000    39.7593     1.2483     1.2205     1.0282   -43.9203    16.2569    24.9089      .0007    85.4545
 5907.0000    38.8916     1.2501     1.2273     1.0295   -43.8070    16.2803    24.9802     -.0020    84.5486
 5907.5000    37.9054     1.2519     1.2337     1.0283   -43.6937    16.3240    24.8720     -.0023    84.0543
 5908.0000    37.3344     1.2529     1.2399     1.0202   -43.8176    16.3777    24.5719     -.0014    84.1367
 5908.5000    38.0348     1.2538     1.2461     1.0096   -43.9703    16.4390    24.2312      .0003    84.2423
 5909.0000    38.7404     1.2546     1.2508      .9979   -44.1488    16.4578    23.8398      .0025    84.0732
 5909.5000    39.0752     1.2546     1.2551      .9925   -44.3275    16.3872    23.4239      .0047    83.5243
 5910.0000    38.6304     1.2539     1.2594     1.0078   -44.6183    16.2418    23.2163      .0055    82.3621
 5910.5000    36.9574     1.2532     1.2608     1.0341   -44.9613    16.0768    23.4644      .0045    81.1971
 5911.0000    35.5977     1.2526     1.2618     1.0711   -45.2490    16.0304    23.9353      .0026    81.6201
 5911.5000    34.4128     1.2520     1.2627     1.0891   -45.5174    16.1017    24.1007      .0008    83.4631
 5912.0000    34.7994     1.2514     1.2629     1.0862   -45.6687    16.2622    24.2438     -.0003    84.9729
 5912.5000    35.7521     1.2505     1.2630     1.0613   -45.8063    16.4162    24.5216     -.0010    86.1794
 5913.0000    36.8451     1.2489     1.2631     1.0300   -45.8826    16.3626    25.1047     -.0016    87.2637
 5913.5000    37.9709     1.2473     1.2620      .9977   -45.8964    16.1947    25.6203     -.0019    87.8510
 5914.0000    39.2097     1.2458     1.2605      .9785   -45.9101    16.0379    25.6513     -.0019    87.7018
 5914.5000    39.6979     1.2444     1.2591      .9842   -45.8751    16.0274    24.9878     -.0004    87.4462
 5915.0000    39.2323     1.2430     1.2554     1.0175   -45.8211    16.0798    24.1832      .0016    87.6011
 5915.5000    38.4496     1.2414     1.2509     1.0429   -45.7670    16.1711    23.5601      .0033    88.2795
 5916.0000    38.0925     1.2394     1.2463     1.0496   -45.7291    16.2368    23.6305      .0047    88.9342
 5916.5000    39.4631     1.2373     1.2420     1.0322   -45.7037    16.2548    24.5193      .0054    88.7506
