~VERSION INFORMATION
VERS.                             2.0:   CWLS Log ASCII Standard-VERSION 2.0
WRAP.                              NO:   One line per depth step
~Well Information Block
STRT.F                      4530.0000:   Top Depth
STOP.F                      8517.0000:   Bottom Depth
STEP.F                         .50000:   Depth Increment
NULL.                        -999.250:   Null Value
FLD .                     MU BLK A 16:   Field Name
WELL.       OCSG03011  A005 ST00 BP00:   NAME
API .                    427024017200:   WELL API
R1  .                           38396:   COMMENT  1
EDF .F                       109.0000:   ELEV DRILL FLOOR
COMP.                     OXY USA INC:   OPERATOR
BN  .                            A 16:   BLOCK
CTRY.                             USA:   COUNTRY NAME
CNTY.                        MG ILD L:   COUNTY NAME
EKB .F                       110.0000:   ELEV KELLY BUSHING
TDD .F                       8534.000:   FINAL TD DRILLER
STAT.                           TEXAS:   STATE NAME
UWI .                    427024017200:   WELL API
DICO.               IHS : Digitizing Company
~PARAMETER INFORMATION (zones)
#MNEM.UNIT                       Value     Description
#=========                       =====     ===========
#ZONATION                          CNL:   ZONATION NAME
#ZONE                            RUN_1:   ZONE NAME
TOP .                       4530.0000:   TOP DEPTH
BOT .                       8517.5000:   BOTTOM DEPTH
RUN .                               1:   RUN NUMBER
LCCD.                             440:   LOGGING CONTRACTOR
SRVC.                    Schlumberger:   LOGGING CONT NAME
DICO.          QC Data Collectors Ltd:   DIG COMPANY NAME
LDAT.                      08/24/1989:   DATE LOGGED
ELD .F                       110.0000:   LOG DATUM ELEVATION
TDD .F                      8534.0000:   TOTAL DEPTH DRILLER
TDL .F                      8523.0000:   TOTAL DEPTH LOGGER
BOTL.F                      8517.0000:   BOTTOM DEPTH LOGGED
TOPL.F                      4580.0000:   TOP DEPTH LOGGED
CS1 .IN                       13.3750:   CASING SIZE 1
BS1 .IN                       12.2500:   BIT SIZE 1
DDB1.F                      8534.0000:   DEPTH DRILLED BIT 1
BHF .                              81:   FLUID CODE
DPT .          Lignosulfonate (Ligno):   DRILLING FLUID TYPE
MUDD.                         10.5000:   FLUID DENSITY
MUDV.                         29.0000:   FLUID VISCOSITY
DFPH.                          9.8000:   FLUID PH
FL  .                          6.8000:   FLUID LOSS
RM  .OHMM                       .7680:   RM
RMT .DEGC                     89.0000:   RM TEMP
RMF .OHMM                       .8480:   RMF
RMFT.DEGC                     89.0000:   RMF TEMP
FSC .                               M:   RMF CODE
RMC .OHMM                       .8250:   RMC
RMCT.DEGC                     89.0000:   RMC TEMP
CMC .                               M:   RMC CODE
TMAX.DEGC                    162.0000:   MAX REC TEMP
TIMC.                         16.2500:   TIME SINCE CIRCLN
~PARAMETER INFORMATION (zones)
#MNEM.UNIT                       Value     Description
#=========                       =====     ===========
#ZONATION                          DIL:   ZONATION NAME
#ZONE                            RUN_1:   ZONE NAME
TOP .                       4580.0000:   TOP DEPTH
BOT .                       8517.5000:   BOTTOM DEPTH
RUN .                               1:   RUN NUMBER
LCCD.                             440:   LOGGING CONTRACTOR
SRVC.                    Schlumberger:   LOGGING CONT NAME
DICO.          QC Data Collectors Ltd:   DIG COMPANY NAME
LDAT.                      08/24/1989:   DATE LOGGED
ELD .F                       110.0000:   LOG DATUM ELEVATION
TDD .F                      8534.0000:   TOTAL DEPTH DRILLER
TDL .F                      8523.0000:   TOTAL DEPTH LOGGER
BOTL.F                      8517.0000:   BOTTOM DEPTH LOGGED
TOPL.F                      4580.0000:   TOP DEPTH LOGGED
CS1 .IN                       13.3750:   CASING SIZE 1
BS1 .IN                       12.2500:   BIT SIZE 1
DDB1.F                      8534.0000:   DEPTH DRILLED BIT 1
BHF .                              81:   FLUID CODE
DPT .          Lignosulfonate (Ligno):   DRILLING FLUID TYPE
MUDD.                         10.5000:   FLUID DENSITY
MUDV.                         29.0000:   FLUID VISCOSITY
DFPH.                          9.8000:   FLUID PH
FL  .                          6.8000:   FLUID LOSS
RM  .OHMM                       .7680:   RM
RMT .DEGC                     89.0000:   RM TEMP
RMF .OHMM                       .8480:   RMF
RMFT.DEGC                     89.0000:   RMF TEMP
FSC .                               M:   RMF CODE
RMC .OHMM                       .8250:   RMC
RMCT.DEGC                     89.0000:   RMC TEMP
CMC .                               M:   RMC CODE
TMAX.DEGC                    162.0000:   MAX REC TEMP
TIMC.                         16.2500:   TIME SINCE CIRCLN
~PARAMETER INFORMATION (zones)
#MNEM.UNIT                       Value     Description
#=========                       =====     ===========
#ZONATION                          FDC:   ZONATION NAME
#ZONE                            RUN_1:   ZONE NAME
TOP .                       4530.0000:   TOP DEPTH
BOT .                       8517.5000:   BOTTOM DEPTH
RUN .                               1:   RUN NUMBER
LCCD.                             440:   LOGGING CONTRACTOR
SRVC.                    Schlumberger:   LOGGING CONT NAME
DICO.          QC Data Collectors Ltd:   DIG COMPANY NAME
LDAT.                      08/24/1989:   DATE LOGGED
ELD .F                       110.0000:   LOG DATUM ELEVATION
TDD .F                      8534.0000:   TOTAL DEPTH DRILLER
TDL .F                      8523.0000:   TOTAL DEPTH LOGGER
BOTL.F                      8517.0000:   BOTTOM DEPTH LOGGED
TOPL.F                      4580.0000:   TOP DEPTH LOGGED
CS1 .IN                       13.3750:   CASING SIZE 1
BS1 .IN                       12.2500:   BIT SIZE 1
DDB1.F                      8534.0000:   DEPTH DRILLED BIT 1
BHF .                              81:   FLUID CODE
DPT .          Lignosulfonate (Ligno):   DRILLING FLUID TYPE
MUDD.                         10.5000:   FLUID DENSITY
MUDV.                         29.0000:   FLUID VISCOSITY
DFPH.                          9.8000:   FLUID PH
FL  .                          6.8000:   FLUID LOSS
RM  .OHMM                       .7680:   RM
RMT .DEGC                     89.0000:   RM TEMP
RMF .OHMM                       .8480:   RMF
RMFT.DEGC                     89.0000:   RMF TEMP
FSC .                               M:   RMF CODE
RMC .OHMM                       .8250:   RMC
RMCT.DEGC                     89.0000:   RMC TEMP
CMC .                               M:   RMC CODE
TMAX.DEGC                    162.0000:   MAX REC TEMP
TIMC.                         16.2500:   TIME SINCE CIRCLN
~Curve Information Block
#MNEM.UNIT                    API CODE    No Description
#=========                    ========    == ===========
DEPT.F                   00 001 00 00:     1  DEPTH
NPHI.%                               :     2  Neutron Porosity
ILD.OHMM                             :     3  Deep Induction Resistivity
ILM.OHMM                             :     4  Medium Induction Resistivity
SFL.OHMM                             :     5  Medium Resistivity
SP.MV                                :     6  Spontaneous Potential
CALI.IN                              :     7  Caliper
DPHI.%                               :     8  Porosity
DRHO.G/C3                            :     9  Bulk Density Correction
GR.GAPI                              :    10  Gamma Ray
~ASCII
# ...
 6136.0000    32.4071     1.4240     1.4302     1.1667   -55.3050    16.0540    22.2809      .0087    76.4479
 6136.5000    32.1958     1.4155     1.4200     1.1558   -57.7467    16.0192    22.3878      .0072    74.9550
 6137.0000    31.8528     1.4066     1.4081     1.1559   -58.3812    15.9972    22.1521      .0080    73.5376
 6137.5000    31.3347     1.4046     1.3986     1.1593   -58.5380    15.9841    21.6713      .0081    72.0356
 6138.0000    30.8451     1.4083     1.3913     1.1744   -58.5393    16.0455    21.5631      .0068    68.4902
 6138.5000    30.5165     1.4098     1.3884     1.1945   -58.5623    16.1535    21.8280      .0044    63.9166
 6139.0000    30.7212     1.4063     1.3928     1.2269   -58.6007    16.2924    22.0257      .0033    61.3656
 6139.5000    31.3862     1.4018     1.4016     1.2540   -58.6754    16.3781    22.0083      .0032    60.6432
 6140.0000    32.6164     1.3818     1.4152     1.2479   -58.8198    16.3494    21.6685      .0039    61.9643
 6140.5000    35.5837     1.3612     1.4260     1.1664   -58.9662    16.3302    21.5373      .0029    65.8507
 6141.0000    36.1115     1.3322     1.4296     1.1473   -59.2382    16.1027    22.1320      .0030    66.3792
 6141.5000    34.2786     1.3030     1.4162     1.2067   -59.6541    15.1041    24.5613      .0030    65.5084
 6142.0000    32.3139     1.2689     1.3891     1.2607   -60.3712    14.6361    25.2669      .0020    63.8737
 6142.5000    31.3893     1.2365     1.3572     1.2890   -61.6604    14.4580    25.4344     -.0012    62.6710
 6143.0000    30.6635     1.2084     1.3226     1.2810   -63.4136    14.3730    25.7885     -.0046    60.0562
 6143.5000    30.0460     1.1810     1.2919     1.2587   -65.8240    14.2933    27.6424     -.0077    56.9247
 6144.0000    29.7012     1.1558     1.2650     1.2575   -68.7030    14.1165    29.8878     -.0105    54.3581
 6144.5000    29.7354     1.1314     1.2466     1.2831   -71.6575    13.9140    30.4041     -.0132    52.8770
 6145.0000    30.0261     1.1040     1.2296     1.3393   -74.4558    13.7726    29.1050     -.0158    52.8652
 6145.5000    31.1242     1.0743     1.2149     1.3145   -78.7354    13.8110    27.7286     -.0174    54.9854
 6146.0000    33.0655     1.0485     1.1949     1.2177   -80.8529    13.8901    27.9785     -.0184    57.5300
 6146.5000    33.9014     1.0238     1.1663     1.1726   -81.3101    13.9845    28.9779     -.0170    58.4996
 6147.0000    33.9005     1.0099     1.1368     1.1511   -81.0651    14.1062    29.9236     -.0135    59.0818
 6147.5000    33.2697      .9992     1.1098     1.1414   -81.1536    14.2506    30.3783     -.0088    59.2914
 6148.0000    32.3356     1.0002     1.0957     1.1413   -82.1167    14.3858    30.2210     -.0022    59.2025
 6148.5000    32.1860      .9989     1.0897     1.1412   -82.9019    14.5065    28.8773      .0049    58.9431
 6149.0000    33.1372      .9905     1.0823     1.1320   -83.2396    14.6027    26.7942      .0099    58.6369
 6149.5000    35.1424      .9806     1.0739     1.0764   -82.9882    14.6296    24.7173      .0133    58.4306
 6150.0000    37.8586      .9654     1.0504     1.0123   -82.3517    14.5213    24.1926      .0078    58.5990
 6150.5000    38.0831      .9504     1.0252      .9882   -81.4100    14.3281    25.8649      .0012    59.1055
 6151.0000    36.4740      .9357     1.0026      .9998   -80.3063    14.1649    28.5811     -.0015    59.2668
 6151.5000    34.2006      .9236      .9962     1.0238   -79.6442    14.0424    30.7672     -.0022    59.0629
 6152.0000    33.2222      .9135      .9946     1.0357   -79.7225    13.9980    29.2968     -.0025    58.4937
 6152.5000    33.9644      .9063     1.0028     1.0347   -79.9822    13.9963    28.1646     -.0028    58.1459
 6153.0000    34.7050      .9021     1.0060     1.0254   -80.4489    13.9959    29.0333     -.0042    57.8625
 6153.5000    34.5663      .9005     1.0003     1.0311   -81.2252    13.9877    31.1320     -.0060    56.3989
 6154.0000    33.9831      .9021      .9812     1.0822   -82.5371    13.9596    33.0764     -.0091    54.2800
 6154.5000    33.4647      .9054      .9714     1.1354   -84.6990    13.9151    33.5500     -.0124    52.9680
 6155.0000    33.0569      .9175      .9629     1.1675   -87.9164    13.8477    32.9641     -.0144    52.4253
 6155.5000    32.7934      .9306      .9668     1.1864   -91.0297    13.7517    32.0777     -.0121    53.3585
 6156.0000    32.8174      .9495      .9774     1.1922   -91.9834    13.6716    31.0876     -.0033    55.1000
 6156.5000    33.0655      .9688      .9946     1.1733   -91.5776    13.6459    30.1528      .0074    57.9634
 6157.0000    33.5286      .9885     1.0150     1.1467   -90.4141    13.7081    29.4777      .0187    62.1049
 6157.5000    34.3878     1.0089     1.0383     1.1098   -88.0049    13.8270    28.5819      .0384    65.1531
 6158.0000    35.9657     1.0303     1.0604     1.0618   -84.1471    13.9983    26.3046      .0620    67.9384
 6158.5000    38.1205     1.0515     1.0824     1.0084   -81.8538    14.2763    22.9101      .0659    69.9961
 6159.0000    39.8802     1.0685     1.1003      .9880   -80.0082    14.4786    21.7243      .0508    69.2490
 6159.5000    39.8217     1.0857     1.1181      .9895   -78.1132    14.5557    22.2505      .0327    67.0350
 6160.0000    37.7932     1.0998     1.1338     1.0143   -76.2637    14.5773    26.3015      .0133    64.5258
 6160.5000    33.9168     1.1134     1.1494     1.0691   -75.1951    14.3674    29.3389      .0063    62.8364
 6161.0000    30.9605     1.1214     1.1590     1.1534   -76.1115    14.1900    30.2448      .0092    63.5001
 6161.5000    29.7476     1.1281     1.1669     1.2413   -77.7468    14.1174    30.2885      .0175    67.3552
 6162.0000    31.0416     1.1362     1.1678     1.2439   -77.9037    14.1306    29.0317      .0286    72.5614
 6162.5000    34.7744     1.1457     1.1669     1.1499   -77.4364    14.2170    25.7308      .0334    74.1909
 6163.0000    37.3105     1.1549     1.1679     1.0373   -75.8538    14.4372    23.7942      .0297    72.5745
 6163.5000    37.9927     1.1627     1.1700      .9920   -73.1023    14.7735    23.6246      .0196    70.6664
 6164.0000    38.1312     1.1684     1.1786      .9783   -70.4497    14.9385    24.6970      .0063    69.2321
 6164.5000    37.8208     1.1659     1.1948      .9939   -69.0616    14.8894    25.6813     -.0049    69.1332
 6165.0000    36.1746     1.1653     1.2154     1.0153   -68.4342    14.7128    25.7393     -.0073    73.0195
 6165.5000    34.5779     1.1668     1.2446     1.0420   -68.0247    14.6021    25.2739     -.0068    73.8291
 6166.0000    33.9870     1.1852     1.2690     1.0699   -67.7747    14.5624    24.3836     -.0060    71.0516
 6166.5000    33.6970     1.2066     1.2897     1.1418   -67.7963    14.5747    23.0426     -.0027    65.8976
 6167.0000    32.6913     1.2304     1.3050     1.2392   -68.0948    14.6621    22.4489      .0059    62.3235
 6167.5000    31.1414     1.2505     1.3188     1.3191   -68.4191    14.7961    22.6002      .0200    63.7917
 6168.0000    30.4191     1.2638     1.3127     1.3040   -68.4149    14.9093    23.0844      .0355    68.8495
 6168.5000    32.7131     1.2748     1.2918     1.2225   -67.5511    14.9997    23.2117      .0514    74.9927
 6169.0000    36.2277     1.2749     1.2745     1.1462   -65.8605    15.0629    22.7472      .0519    80.9694
 6169.5000    39.5519     1.2752     1.2635     1.0884   -64.0747    15.0856    22.5605      .0384    85.1213
 6170.0000    40.1024     1.2767     1.2722     1.0502   -62.2604    15.0844    22.9167      .0243    86.1257
 6170.5000    39.4693     1.2869     1.2888     1.0509   -60.5489    15.0565    23.2227      .0083    86.0558
 6171.0000    38.3295     1.3086     1.3141     1.0739   -59.5161    15.0123    23.2130     -.0020    83.9135
 6171.5000    37.8715     1.3364     1.3405     1.1121   -59.0105    14.9716    22.9538     -.0006    82.2345
 6172.0000    37.2178     1.3708     1.3730     1.1568   -58.7729    14.9618    22.6497      .0033    81.6853
