~VERSION INFORMATION
VERS.                             2.0:   CWLS Log ASCII Standard-VERSION 2.0
WRAP.                              NO:   One line per depth step
~Well Information Block
STRT.F                      4530.0000:   Top Depth
STOP.F                      8517.0000:   Bottom Depth
STEP.F                         .50000:   Depth Increment
NULL.                        -999.250:   Null Value
FLD .                     MU BLK A 16:   Field Name
WELL.       OCSG03011  A005 ST00 BP00:   NAME
API .                    427024017200:   WELL API
R1  .                           38396:   COMMENT  1
EDF .F                       109.0000:   ELEV DRILL FLOOR
COMP.                     OXY USA INC:   OPERATOR
BN  .                            A 16:   BLOCK
CTRY.                             USA:   COUNTRY NAME
CNTY.                        MG ILD L:   COUNTY NAME
EKB .F                       110.0000:   ELEV KELLY BUSHING
TDD .F                       8534.000:   FINAL TD DRILLER
STAT.                           TEXAS:   STATE NAME
UWI .                    427024017200:   WELL API
DICO.               IHS : Digitizing Company
~PARAMETER INFORMATION (zones)
#MNEM.UNIT                       Value     Description
#=========                       =====     ===========
#ZONATION                          CNL:   ZONATION NAME
#ZONE                            RUN_1:   ZONE NAME
TOP .                       4530.0000:   TOP DEPTH
BOT .                       8517.5000:   BOTTOM DEPTH
RUN .                               1:   RUN NUMBER
LCCD.                             440:   LOGGING CONTRACTOR
SRVC.                    Schlumberger:   LOGGING CONT NAME
DICO.          QC Data Collectors Ltd:   DIG COMPANY NAME
LDAT.                      08/24/1989:   DATE LOGGED
ELD .F                       110.0000:   LOG DATUM ELEVATION
TDD .F                      8534.0000:   TOTAL DEPTH DRILLER
TDL .F                      8523.0000:   TOTAL DEPTH LOGGER
BOTL.F                      8517.0000:   BOTTOM DEPTH LOGGED
TOPL.F                      4580.0000:   TOP DEPTH LOGGED
CS1 .IN                       13.3750:   CASING SIZE 1
BS1 .IN                       12.2500:   BIT SIZE 1
DDB1.F                      8534.0000:   DEPTH DRILLED BIT 1
BHF .                              81:   FLUID CODE
DPT .          Lignosulfonate (Ligno):   DRILLING FLUID TYPE
MUDD.                         10.5000:   FLUID DENSITY
MUDV.                         29.0000:   FLUID VISCOSITY
DFPH.                          9.8000:   FLUID PH
FL  .                          6.8000:   FLUID LOSS
RM  .OHMM                       .7680:   RM
RMT .DEGC                     89.0000:   RM TEMP
RMF .OHMM                       .8480:   RMF
RMFT.DEGC                     89.0000:   RMF TEMP
FSC .                               M:   RMF CODE
RMC .OHMM                       .8250:   RMC
RMCT.DEGC                     89.0000:   RMC TEMP
CMC .                               M:   RMC CODE
TMAX.DEGC                    162.0000:   MAX REC TEMP
TIMC.                         16.2500:   TIME SINCE CIRCLN
~PARAMETER INFORMATION (zones)
#MNEM.UNIT                       Value     Description
#=========                       =====     ===========
#ZONATION                          DIL:   ZONATION NAME
#ZONE                            RUN_1:   ZONE NAME
TOP .                       4580.0000:   TOP DEPTH
BOT .                       8517.5000:   BOTTOM DEPTH
RUN .                               1:   RUN NUMBER
LCCD.                             440:   LOGGING CONTRACTOR
SRVC.                    Schlumberger:   LOGGING CONT NAME
DICO.          QC Data Collectors Ltd:   DIG COMPANY NAME
LDAT.                      08/24/1989:   DATE LOGGED
ELD .F                       110.0000:   LOG DATUM ELEVATION
TDD .F                      8534.0000:   TOTAL DEPTH DRILLER
TDL .F                      8523.0000:   TOTAL DEPTH LOGGER
BOTL.F                      8517.0000:   BOTTOM DEPTH LOGGED
TOPL.F                      4580.0000:   TOP DEPTH LOGGED
CS1 .IN                       13.3750:   CASING SIZE 1
BS1 .IN                       12.2500:   BIT SIZE 1
DDB1.F                      8534.0000:   DEPTH DRILLED BIT 1
BHF .                              81:   FLUID CODE
DPT .          Lignosulfonate (Ligno):   DRILLING FLUID TYPE
MUDD.                         10.5000:   FLUID DENSITY
MUDV.                         29.0000:   FLUID VISCOSITY
DFPH.                          9.8000:   FLUID PH
FL  .                          6.8000:   FLUID LOSS
RM  .OHMM                       .7680:   RM
RMT .DEGC                     89.0000:   RM TEMP
RMF .OHMM                       .8480:   RMF
RMFT.DEGC                     89.0000:   RMF TEMP
FSC .                               M:   RMF CODE
RMC .OHMM                       .8250:   RMC
RMCT.DEGC                     89.0000:   RMC TEMP
CMC .                               M:   RMC CODE
TMAX.DEGC                    162.0000:   MAX REC TEMP
TIMC.                         16.2500:   TIME SINCE CIRCLN
~PARAMETER INFORMATION (zones)
#MNEM.UNIT                       Value     Description
#=========                       =====     ===========
#ZONATION                          FDC:   ZONATION NAME
#ZONE                            RUN_1:   ZONE NAME
TOP .                       4530.0000:   TOP DEPTH
BOT .                       8517.5000:   BOTTOM DEPTH
RUN .                               1:   RUN NUMBER
LCCD.                             440:   LOGGING CONTRACTOR
SRVC.                    Schlumberger:   LOGGING CONT NAME
DICO.          QC Data Collectors Ltd:   DIG COMPANY NAME
LDAT.                      08/24/1989:   DATE LOGGED
ELD .F                       110.0000:   LOG DATUM ELEVATION
TDD .F                      8534.0000:   TOTAL DEPTH DRILLER
TDL .F                      8523.0000:   TOTAL DEPTH LOGGER
BOTL.F                      8517.0000:   BOTTOM DEPTH LOGGED
TOPL.F                      4580.0000:   TOP DEPTH LOGGED
CS1 .IN                       13.3750:   CASING SIZE 1
BS1 .IN                       12.2500:   BIT SIZE 1
DDB1.F                      8534.0000:   DEPTH DRILLED BIT 1
BHF .                              81:   FLUID CODE
DPT .          Lignosulfonate (Ligno):   DRILLING FLUID TYPE
MUDD.                         10.5000:   FLUID DENSITY
MUDV.                         29.0000:   FLUID VISCOSITY
DFPH.                          9.8000:   FLUID PH
FL  .                          6.8000:   FLUID LOSS
RM  .OHMM                       .7680:   RM
RMT .DEGC                     89.0000:   RM TEMP
RMF .OHMM                       .8480:   RMF
RMFT.DEGC                     89.0000:   RMF TEMP
FSC .                               M:   RMF CODE
RMC .OHMM                       .8250:   RMC
RMCT.DEGC                     89.0000:   RMC TEMP
CMC .                               M:   RMC CODE
TMAX.DEGC                    162.0000:   MAX REC TEMP
TIMC.                         16.2500:   TIME SINCE CIRCLN
~Curve Information Block
#MNEM.UNIT                    API CODE    No Description
#=========                    ========    == ===========
DEPT.F                   00 001 00 00:     1  DEPTH
NPHI.%                               :     2  Neutron Porosity
ILD.OHMM                             :     3  Deep Induction Resistivity
ILM.OHMM                             :     4  Medium Induction Resistivity
SFL.OHMM                             :     5  Medium Resistivity
SP.MV                                :     6  Spontaneous Potential
CALI.IN                              :     7  Caliper
DPHI.%                               :     8  Porosity
DRHO.G/C3                            :     9  Bulk Density Correction
GR.GAPI                              :    10  Gamma Ray
~ASCII
# ...
 6391.5000    39.6682     1.2659     1.2624     1.0473   -58.1139    15.7155    24.5968     -.0011    83.9427
 6392.0000    38.6118     1.2774     1.2730     1.0550   -58.0507    15.6669    24.3544     -.0008    83.8864
 6392.5000    37.8138     1.2889     1.2837     1.0779   -57.9891    15.5748    24.0526      .0000    84.0743
 6393.0000    38.2180     1.2971     1.2944     1.1126   -58.0352    15.5134    23.6289      .0021    84.0817
 6393.5000    38.8831     1.3036     1.3027     1.1444   -58.0659    15.7117    22.9998      .0060    83.1963
 6394.0000    39.2614     1.3097     1.3107     1.1678   -58.0629    15.8382    22.2279      .0116    82.2488
 6394.5000    38.6382     1.3147     1.3187     1.1764   -58.0282    15.8474    21.5364      .0142    81.4185
 6395.0000    37.4610     1.3198     1.3245     1.1706   -57.9736    15.8327    21.3678      .0130    80.8318
 6395.5000    36.2877     1.3260     1.3295     1.1491   -57.8384    15.8277    21.6111      .0104    80.5835
 6396.0000    36.4007     1.3325     1.3339     1.1341   -57.7474    15.8366    21.6396      .0075    80.6095
 6396.5000    37.5046     1.3389     1.3350     1.1456   -57.7158    15.9004    21.5750      .0048    80.9537
 6397.0000    37.7401     1.3402     1.3361     1.1748   -58.0154    15.9692    21.5227      .0032    81.4966
 6397.5000    37.3815     1.3416     1.3327     1.1788   -58.4824    16.0324    21.8572      .0032    81.6991
 6398.0000    37.1577     1.3301     1.3264     1.1453   -58.7752    16.0566    22.3761      .0043    81.6726
 6398.5000    38.3342     1.3173     1.3196     1.1007   -59.0339    16.0183    22.9288      .0053    81.7001
 6399.0000    39.7492     1.3037     1.3112     1.0670   -59.2000    15.9141    23.4671      .0035    81.7397
 6399.5000    39.8359     1.2902     1.3028     1.0481   -59.1970    15.8350    23.9203      .0021    81.8000
 6400.0000    39.4611     1.2760     1.2931     1.0359   -59.2553    15.7460    24.1405      .0008    81.7704
 6400.5000    40.2240     1.2612     1.2823     1.0232   -59.4156    15.5630    23.8043      .0031    81.5934
 6401.0000    41.6975     1.2470     1.2691      .9960   -59.6534    15.4212    23.1066      .0110    80.7716
 6401.5000    43.4111     1.2332     1.2508      .9606   -60.0224    15.3492    22.5296      .0231    79.5573
 6402.0000    42.8326     1.2211     1.2323      .9731   -60.3494    15.3391    22.2399      .0268    77.7703
 6402.5000    40.3628     1.2095     1.2134      .9981   -60.8112    15.3241    24.8420      .0230    73.4257
 6403.0000    37.5686     1.1998     1.1974     1.0297   -61.7333    15.0802    28.2537      .0119    64.7626
 6403.5000    34.7744     1.1914     1.1852     1.0746   -63.3225    14.8079    31.6466      .0023    60.9075
 6404.0000    31.9771     1.1838     1.1745     1.1876   -65.9047    14.6543    33.6616      .0014    59.9346
 6404.5000    30.1965     1.1772     1.1694     1.4323   -69.9082    14.6134    33.3118      .0113    61.3812
 6405.0000    30.5302     1.1743     1.1642     1.4524   -74.9452    14.7072    32.0223      .0381    63.6147
 6405.5000    33.4927     1.1756     1.1628     1.3975   -78.2823    14.8446    29.3295      .0673    66.5952
 6406.0000    35.9095     1.1802     1.1631     1.3248   -78.7233    14.9742    25.9304      .0853    75.0917
 6406.5000    37.7089     1.1913     1.1694     1.2387   -78.0377    15.1033    23.0988      .0919    82.8905
 6407.0000    39.3758     1.2045     1.1923     1.1056   -76.8169    15.2416    22.0985      .0755    84.3368
 6407.5000    40.3667     1.2234     1.2171      .9926   -75.1093    15.3629    22.5624      .0463    82.6406
 6408.0000    40.8383     1.2406     1.2394      .9894   -73.4692    15.4192    23.5735      .0215    80.6257
 6408.5000    40.9441     1.2523     1.2579     1.0291   -72.0480    15.4276    24.1284      .0062    78.5824
 6409.0000    40.5974     1.2641     1.2707     1.0785   -70.9229    15.4296    23.8842      .0003    77.4910
 6409.5000    39.5317     1.2739     1.2836     1.1195   -70.2108    15.4295    23.6092     -.0033    77.6765
 6410.0000    37.9927     1.2838     1.2905     1.1580   -69.5386    15.4183    23.3685     -.0057    78.3599
 6410.5000    37.2170     1.2928     1.2971     1.1859   -68.8384    15.4052    23.3241     -.0070    80.0947
 6411.0000    37.3098     1.3007     1.3032     1.1861   -67.6774    15.3618    23.4145     -.0083    82.4141
 6411.5000    38.0356     1.3087     1.3091     1.1692   -65.8579    15.3304    23.5854     -.0092    84.1920
 6412.0000    38.9953     1.3157     1.3150     1.1529   -64.1202    15.3128    23.4823     -.0099    85.2196
 6412.5000    40.2942     1.3219     1.3238     1.1367   -62.8735    15.3397    23.0590     -.0095    85.7106
 6413.0000    38.6788     1.3282     1.3329     1.1204   -63.1058    15.3465    23.0764     -.0080    85.6289
 6413.5000    37.2630     1.3287     1.3417     1.1115   -63.5405    15.3336    23.2284     -.0062    84.2180
 6414.0000    36.3961     1.3289     1.3449     1.1073   -63.9726    15.2933    23.0165     -.0042    83.2146
 6414.5000    35.9951     1.3292     1.3482     1.1142   -63.8968    15.2222    22.5258     -.0011    84.0424
 6415.0000    35.9108     1.3294     1.3476     1.1278   -63.0700    15.1187    22.0443      .0014    85.6576
 6415.5000    35.8112     1.3276     1.3435     1.1393   -62.3268    15.0521    21.8062      .0034    83.9265
 6416.0000    35.8888     1.3247     1.3393     1.1483   -61.8345    15.0369    21.9130      .0040    79.8917
 6416.5000    36.7001     1.3215     1.3352     1.1519   -61.5420    15.0450    22.2595      .0027    77.1663
 6417.0000    36.3695     1.3174     1.3311     1.1466   -61.3882    15.0560    22.5462      .0001    79.4596
 6417.5000    34.9849     1.3133     1.3274     1.1366   -61.3472    15.0861    22.7643     -.0032    81.8232
 6418.0000    35.0052     1.3132     1.3239     1.1234   -61.3812    15.1278    22.9594     -.0063    81.6436
 6418.5000    36.8888     1.3135     1.3246     1.1107   -61.5044    15.1501    23.1097     -.0092    79.1603
 6419.0000    39.9262     1.3183     1.3261     1.0982   -61.6276    15.1682    23.1791     -.0113    76.7419
 6419.5000    41.2373     1.3296     1.3341     1.0933   -61.6837    15.1544    23.0442     -.0120    74.9348
 6420.0000    40.5389     1.3411     1.3440     1.0910   -61.6846    15.0771    22.7191     -.0111    74.6420
 6420.5000    36.8311     1.3536     1.3564     1.0932   -61.5488    15.0276    22.1827     -.0089    76.1277
 6421.0000    35.1331     1.3661     1.3701     1.1297   -61.3614    15.0241    21.4062     -.0053    78.4340
 6421.5000    34.7150     1.3806     1.3826     1.1773   -61.0796    15.0603    21.0382     -.0019    81.5160
 6422.0000    35.2695     1.3957     1.3926     1.2257   -60.8381    15.1119    20.8530      .0012    85.1864
 6422.5000    35.8768     1.4083     1.4027     1.2396   -60.6721    15.1507    21.0331      .0020    87.2793
 6423.0000    35.3038     1.4178     1.4073     1.2281   -60.6820    15.1671    21.5489      .0020    87.0529
 6423.5000    34.6797     1.4196     1.4111     1.2026   -60.8076    15.1022    22.3145      .0020    84.5148
 6424.0000    34.2419     1.4108     1.4114     1.1772   -60.9950    15.0473    23.2789      .0023    80.5529
 6424.5000    34.8789     1.4024     1.4091     1.1562   -61.2231    15.0353    23.8866      .0026    77.9772
 6425.0000    36.0686     1.3944     1.4069     1.1441   -61.5280    15.0944    23.8223      .0029    78.7776
 6425.5000    37.6076     1.3916     1.4047     1.1460   -61.8654    15.1497    23.1299      .0035    79.7485
 6426.0000    38.4359     1.3888     1.4035     1.1520   -62.1954    15.1815    22.2038      .0054    80.6472
 6426.5000    38.5021     1.3884     1.4051     1.1522   -62.5458    15.1942    21.9777      .0089    81.3202
 6427.0000    37.9288     1.3908     1.4064     1.1475   -62.9158    15.1600    22.4283      .0108    81.7275
 6427.5000    36.9496     1.3932     1.4067     1.1495   -63.1809    15.0958    22.8799      .0122    82.0149
