~VERSION INFORMATION
VERS.                             2.0:   CWLS Log ASCII Standard-VERSION 2.0
WRAP.                              NO:   One line per depth step
~Well Information Block
STRT.F                      4530.0000:   Top Depth
STOP.F                      8517.0000:   Bottom Depth
STEP.F                         .50000:   Depth Increment
NULL.                        -999.250:   Null Value
FLD .                     MU BLK A 16:   Field Name
WELL.       OCSG03011  A005 ST00 BP00:   NAME
API .                    427024017200:   WELL API
R1  .                           38396:   COMMENT  1
EDF .F                       109.0000:   ELEV DRILL FLOOR
COMP.                     OXY USA INC:   OPERATOR
BN  .                            A 16:   BLOCK
CTRY.                             USA:   COUNTRY NAME
CNTY.                        MG ILD L:   COUNTY NAME
EKB .F                       110.0000:   ELEV KELLY BUSHING
TDD .F                       8534.000:   FINAL TD DRILLER
STAT.                           TEXAS:   STATE NAME
UWI .                    427024017200:   WELL API
DICO.               IHS : Digitizing Company
~PARAMETER INFORMATION (zones)
#MNEM.UNIT                       Value     Description
#=========                       =====     ===========
#ZONATION                          CNL:   ZONATION NAME
#ZONE                            RUN_1:   ZONE NAME
TOP .                       4530.0000:   TOP DEPTH
BOT .                       8517.5000:   BOTTOM DEPTH
RUN .                               1:   RUN NUMBER
LCCD.                             440:   LOGGING CONTRACTOR
SRVC.                    Schlumberger:   LOGGING CONT NAME
DICO.          QC Data Collectors Ltd:   DIG COMPANY NAME
LDAT.                      08/24/1989:   DATE LOGGED
ELD .F                       110.0000:   LOG DATUM ELEVATION
TDD .F                      8534.0000:   TOTAL DEPTH DRILLER
TDL .F                      8523.0000:   TOTAL DEPTH LOGGER
BOTL.F                      8517.0000:   BOTTOM DEPTH LOGGED
TOPL.F                      4580.0000:   TOP DEPTH LOGGED
CS1 .IN                       13.3750:   CASING SIZE 1
BS1 .IN                       12.2500:   BIT SIZE 1
DDB1.F                      8534.0000:   DEPTH DRILLED BIT 1
BHF .                              81:   FLUID CODE
DPT .          Lignosulfonate (Ligno):   DRILLING FLUID TYPE
MUDD.                         10.5000:   FLUID DENSITY
MUDV.                         29.0000:   FLUID VISCOSITY
DFPH.                          9.8000:   FLUID PH
FL  .                          6.8000:   FLUID LOSS
RM  .OHMM                       .7680:   RM
RMT .DEGC                     89.0000:   RM TEMP
RMF .OHMM                       .8480:   RMF
RMFT.DEGC                     89.0000:   RMF TEMP
FSC .                               M:   RMF CODE
RMC .OHMM                       .8250:   RMC
RMCT.DEGC                     89.0000:   RMC TEMP
CMC .                               M:   RMC CODE
TMAX.DEGC                    162.0000:   MAX REC TEMP
TIMC.                         16.2500:   TIME SINCE CIRCLN
~PARAMETER INFORMATION (zones)
#MNEM.UNIT                       Value     Description
#=========                       =====     ===========
#ZONATION                          DIL:   ZONATION NAME
#ZONE                            RUN_1:   ZONE NAME
TOP .                       4580.0000:   TOP DEPTH
BOT .                       8517.5000:   BOTTOM DEPTH
RUN .                               1:   RUN NUMBER
LCCD.                             440:   LOGGING CONTRACTOR
SRVC.                    Schlumberger:   LOGGING CONT NAME
DICO.          QC Data Collectors Ltd:   DIG COMPANY NAME
LDAT.                      08/24/1989:   DATE LOGGED
ELD .F                       110.0000:   LOG DATUM ELEVATION
TDD .F                      8534.0000:   TOTAL DEPTH DRILLER
TDL .F                      8523.0000:   TOTAL DEPTH LOGGER
BOTL.F                      8517.0000:   BOTTOM DEPTH LOGGED
TOPL.F                      4580.0000:   TOP DEPTH LOGGED
CS1 .IN                       13.3750:   CASING SIZE 1
BS1 .IN                       12.2500:   BIT SIZE 1
DDB1.F                      8534.0000:   DEPTH DRILLED BIT 1
BHF .                              81:   FLUID CODE
DPT .          Lignosulfonate (Ligno):   DRILLING FLUID TYPE
MUDD.                         10.5000:   FLUID DENSITY
MUDV.                         29.0000:   FLUID VISCOSITY
DFPH.                          9.8000:   FLUID PH
FL  .                          6.8000:   FLUID LOSS
RM  .OHMM                       .7680:   RM
RMT .DEGC                     89.0000:   RM TEMP
RMF .OHMM                       .8480:   RMF
RMFT.DEGC                     89.0000:   RMF TEMP
FSC .                               M:   RMF CODE
RMC .OHMM                       .8250:   RMC
RMCT.DEGC                     89.0000:   RMC TEMP
CMC .                               M:   RMC CODE
TMAX.DEGC                    162.0000:   MAX REC TEMP
TIMC.                         16.2500:   TIME SINCE CIRCLN
~PARAMETER INFORMATION (zones)
#MNEM.UNIT                       Value     Description
#=========                       =====     ===========
#ZONATION                          FDC:   ZONATION NAME
#ZONE                            RUN_1:   ZONE NAME
TOP .                       4530.0000:   TOP DEPTH
BOT .                       8517.5000:   BOTTOM DEPTH
RUN .                               1:   RUN NUMBER
LCCD.                             440:   LOGGING CONTRACTOR
SRVC.                    Schlumberger:   LOGGING CONT NAME
DICO.          QC Data Collectors Ltd:   DIG COMPANY NAME
LDAT.                      08/24/1989:   DATE LOGGED
ELD .F                       110.0000:   LOG DATUM ELEVATION
TDD .F                      8534.0000:   TOTAL DEPTH DRILLER
TDL .F                      8523.0000:   TOTAL DEPTH LOGGER
BOTL.F                      8517.0000:   BOTTOM DEPTH LOGGED
TOPL.F                      4580.0000:   TOP DEPTH LOGGED
CS1 .IN                       13.3750:   CASING SIZE 1
BS1 .IN                       12.2500:   BIT SIZE 1
DDB1.F                      8534.0000:   DEPTH DRILLED BIT 1
BHF .                              81:   FLUID CODE
DPT .          Lignosulfonate (Ligno):   DRILLING FLUID TYPE
MUDD.                         10.5000:   FLUID DENSITY
MUDV.                         29.0000:   FLUID VISCOSITY
DFPH.                          9.8000:   FLUID PH
FL  .                          6.8000:   FLUID LOSS
RM  .OHMM                       .7680:   RM
RMT .DEGC                     89.0000:   RM TEMP
RMF .OHMM                       .8480:   RMF
RMFT.DEGC                     89.0000:   RMF TEMP
FSC .                               M:   RMF CODE
RMC .OHMM                       .8250:   RMC
RMCT.DEGC                     89.0000:   RMC TEMP
CMC .                               M:   RMC CODE
TMAX.DEGC                    162.0000:   MAX REC TEMP
TIMC.                         16.2500:   TIME SINCE CIRCLN
~Curve Information Block
#MNEM.UNIT                    API CODE    No Description
#=========                    ========    == ===========
DEPT.F                   00 001 00 00:     1  DEPTH
NPHI.%                               :     2  Neutron Porosity
ILD.OHMM                             :     3  Deep Induction Resistivity
ILM.OHMM                             :     4  Medium Induction Resistivity
SFL.OHMM                             :     5  Medium Resistivity
SP.MV                                :     6  Spontaneous Potential
CALI.IN                              :     7  Caliper
DPHI.%                               :     8  Porosity
DRHO.G/C3                            :     9  Bulk Density Correction
GR.GAPI                              :    10  Gamma Ray
~ASCII
# ...
 5077.5000    38.1208     1.2525     1.3311     1.1047   -66.9037    17.8542    24.2878     -.0066    68.5531
 5078.0000    35.1437     1.2563     1.3346     1.1058   -67.5186    17.8656    23.1082     -.0045    68.0758
 5078.5000    32.0656     1.2621     1.3383     1.1788   -68.7081    17.8490    21.7017     -.0020    66.6356
 5079.0000    32.0710     1.2689     1.3420     1.2646   -70.1724    17.8156    21.2457      .0002    65.2573
 5079.5000    32.1516     1.2734     1.3445     1.3382   -71.5533    17.7369    22.6576      .0017    63.8660
 5080.0000    32.1727     1.2769     1.3461     1.3666   -72.7871    17.5203    24.6648     -.0004    62.8072
 5080.5000    32.0556     1.2788     1.3477     1.3446   -73.8213    17.3454    26.2278     -.0021    62.0021
 5081.0000    31.2356     1.2782     1.3493     1.3144   -74.4902    17.2832    26.9228     -.0018    61.6143
 5081.5000    29.9214     1.2776     1.3508     1.2543   -74.9904    17.2718    27.3025     -.0007    61.6931
 5082.0000    28.8701     1.2746     1.3437     1.1659   -75.3623    17.2881    27.6342      .0015    63.9922
 5082.5000    29.0493     1.2700     1.3359     1.1187   -75.5862    17.3244    27.8699      .0061    69.0422
 5083.0000    29.7638     1.2609     1.3206     1.1033   -75.7937    17.4088    27.4887      .0150    72.9755
 5083.5000    30.2318     1.2502     1.3075     1.1036   -75.8783    17.5191    25.6098      .0193    74.8002
 5084.0000    30.5373     1.2373     1.2991     1.1207   -75.9630    17.6310    24.1892      .0172    77.0779
 5084.5000    30.8167     1.2241     1.2996     1.1103   -75.8971    17.7222    23.6968      .0117    78.3313
 5085.0000    31.6471     1.2122     1.3043     1.1084   -75.7749    17.7436    24.2847      .0034    76.6068
 5085.5000    32.5811     1.2051     1.3136     1.1208   -75.5920    17.7441    25.4932     -.0034    73.5715
 5086.0000    32.4081     1.2032     1.3241     1.1388   -75.2354    17.7223    26.4851     -.0091    70.0470
 5086.5000    31.2028     1.2068     1.3217     1.1571   -74.8641    17.7102    27.2861     -.0113    67.6860
 5087.0000    29.9305     1.2128     1.3149     1.1775   -74.4355    17.7035    27.4998     -.0102    66.5432
 5087.5000    29.6160     1.2191     1.3056     1.1849   -73.6761    17.7063    27.3567     -.0109    64.7887
 5088.0000    30.3470     1.2256     1.2975     1.1664   -72.8008    17.7208    26.9998     -.0126    64.3741
 5088.5000    31.6533     1.2268     1.2918     1.1336   -71.6497    17.7421    26.3435     -.0141    66.1644
 5089.0000    32.0884     1.2272     1.2891     1.1574   -70.3376    17.7712    25.6614     -.0152    69.6747
 5089.5000    32.1325     1.2266     1.2931     1.1849   -69.1311    17.8019    25.0567     -.0151    71.8328
 5090.0000    32.4379     1.2260     1.2958     1.2297   -68.4315    17.8306    24.6371     -.0138    72.5544
 5090.5000    33.3524     1.2254     1.2920     1.2503   -68.3593    17.8390    24.8277     -.0118    71.6362
 5091.0000    33.5595     1.2254     1.2882     1.2153   -69.0713    17.7904    25.3630     -.0092    70.8337
 5091.5000    33.5556     1.2261     1.2823     1.1526   -69.7891    17.7141    25.8812     -.0081    71.7416
 5092.0000    33.5239     1.2289     1.2759     1.1220   -70.3777    17.6554    26.3433     -.0075    73.7629
 5092.5000    33.5486     1.2327     1.2714     1.1184   -70.8710    17.6048    26.5880     -.0076    73.6952
 5093.0000    33.6564     1.2347     1.2677     1.1295   -71.0392    17.5335    26.2133     -.0082    73.2540
 5093.5000    33.9545     1.2351     1.2647     1.1421   -71.0350    17.4472    25.8006     -.0085    74.9877
 5094.0000    34.8668     1.2337     1.2641     1.1280   -70.7732    17.3483    25.4349     -.0074    77.0038
 5094.5000    38.2945     1.2278     1.2635     1.0670   -70.6356    17.2701    25.7905     -.0016    78.3639
 5095.0000    39.3268     1.2220     1.2628      .9688   -70.6368    17.2005    26.2187      .0028    79.5228
 5095.5000    38.8444     1.2164     1.2622      .8851   -70.8640    17.1450    26.4860      .0051    80.0728
 5096.0000    37.7360     1.2114     1.2616      .8712   -71.0718    17.1788    26.2520      .0061    79.6420
 5096.5000    35.1374     1.2097     1.2618      .8987   -71.2406    17.4412    25.5542      .0060    77.0779
 5097.0000    33.3803     1.2082     1.2626      .9404   -71.2802    17.6295    24.7689      .0044    74.0219
 5097.5000    33.6680     1.2088     1.2635      .9840   -71.1307    17.6974    24.1223      .0030    72.0254
 5098.0000    34.5726     1.2093     1.2647     1.0051   -70.9003    17.7005    24.0383      .0017    71.9971
 5098.5000    35.4608     1.2099     1.2666     1.0138   -70.5463    17.6451    24.6586      .0004    74.2289
 5099.0000    35.4034     1.2103     1.2686     1.0212   -70.1050    17.6407    25.0016     -.0014    75.4359
 5099.5000    34.4373     1.2097     1.2705     1.0334   -69.4207    17.7385    25.1426     -.0048    74.4241
 5100.0000    33.6715     1.2092     1.2723     1.0548   -68.4661    17.8184    25.2517     -.0070    73.4467
 5100.5000    33.2127     1.2086     1.2741     1.1060   -67.2478    17.8493    25.5574     -.0070    72.9270
 5101.0000    32.8949     1.2096     1.2759     1.1895   -66.1012    17.8683    26.2602     -.0083    72.5603
 5101.5000    32.7188     1.2124     1.2778     1.2269   -65.0873    17.8814    26.6275     -.0102    72.2827
 5102.0000    32.5818     1.2144     1.2798     1.2306   -64.5599    17.9416    26.8232     -.0107    72.1150
 5102.5000    32.4174     1.2150     1.2815     1.2244   -64.7345    17.9770    26.8825     -.0099    71.3622
 5103.0000    32.1524     1.2154     1.2828     1.2103   -65.2792    17.9332    26.9953     -.0086    68.6543
 5103.5000    31.7175     1.2149     1.2841     1.1881   -66.0081    17.8026    27.0859     -.0074    67.2076
 5104.0000    31.0158     1.2144     1.2848     1.1754   -66.6426    17.6581    27.0408     -.0064    69.3597
 5104.5000    29.8745     1.2119     1.2853     1.1667   -67.2400    17.6057    26.7726     -.0066    73.1056
 5105.0000    29.1862     1.2093     1.2861     1.1631   -67.6200    17.5891    26.4245     -.0071    74.3604
 5105.5000    30.5081     1.2082     1.2874     1.1608   -67.9221    17.5999    26.0428     -.0080    74.7292
 5106.0000    30.9842     1.2077     1.2888     1.1707   -67.9902    17.5974    25.9750     -.0089    74.1156
 5106.5000    30.9621     1.2096     1.2901     1.2033   -68.2223    17.5864    26.0236     -.0092    70.1068
 5107.0000    30.7068     1.2121     1.2913     1.2202   -68.7882    17.5693    26.5688     -.0088    67.1549
 5107.5000    30.4289     1.2147     1.2926     1.1959   -69.6082    17.5720    27.1211     -.0069    65.9012
 5108.0000    31.8419     1.2172     1.2957     1.1676   -70.2576    17.5779    27.2466     -.0044    66.4879
 5108.5000    32.3041     1.2202     1.2989     1.1422   -70.3612    17.5998    26.9462     -.0015    66.7797
 5109.0000    32.0217     1.2250     1.3022     1.1342   -70.0819    17.6301    26.5043      .0022    66.6880
 5109.5000    31.5333     1.2296     1.3055     1.1333   -69.6556    17.6692    26.0095      .0043    66.3203
 5110.0000    30.5488     1.2339     1.3088     1.1355   -68.8500    17.7151    25.5212      .0037    66.6663
 5110.5000    29.9063     1.2377     1.3156     1.1420   -67.9415    17.7597    25.2212      .0003    66.8864
 5111.0000    29.8988     1.2455     1.3239     1.1533   -66.8170    17.7947    24.9073     -.0037    66.1001
 5111.5000    30.2410     1.2629     1.3333     1.1810   -65.7367    17.8086    24.5569     -.0076    65.2228
 5112.0000    29.9152     1.2817     1.3490     1.2403   -64.7911    17.8095    23.6198     -.0100    64.7568
 5112.5000    27.6405     1.2964     1.3649     1.3254   -63.8456    17.7949    21.8863     -.0064    64.5863
 5113.0000    26.1996     1.2966     1.3808     1.3712   -62.8707    17.7507    20.4212     -.0045    64.5181
 5113.5000    26.2512     1.2960     1.3937     1.3246   -62.0085    17.6739    20.4861     -.0032    64.0911
