~VERSION INFORMATION
VERS.                             2.0:   CWLS Log ASCII Standard-VERSION 2.0
WRAP.                              NO:   One line per depth step
~Well Information Block
STRT.F                      4530.0000:   Top Depth
STOP.F                      8517.0000:   Bottom Depth
STEP.F                         .50000:   Depth Increment
NULL.                        -999.250:   Null Value
FLD .                     MU BLK A 16:   Field Name
WELL.       OCSG03011  A005 ST00 BP00:   NAME
API .                    427024017200:   WELL API
R1  .                           38396:   COMMENT  1
EDF .F                       109.0000:   ELEV DRILL FLOOR
COMP.                     OXY USA INC:   OPERATOR
BN  .                            A 16:   BLOCK
CTRY.                             USA:   COUNTRY NAME
CNTY.                        MG ILD L:   COUNTY NAME
EKB .F                       110.0000:   ELEV KELLY BUSHING
TDD .F                       8534.000:   FINAL TD DRILLER
STAT.                           TEXAS:   STATE NAME
UWI .                    427024017200:   WELL API
DICO.               IHS : Digitizing Company
~PARAMETER INFORMATION (zones)
#MNEM.UNIT                       Value     Description
#=========                       =====     ===========
#ZONATION                          CNL:   ZONATION NAME
#ZONE                            RUN_1:   ZONE NAME
TOP .                       4530.0000:   TOP DEPTH
BOT .                       8517.5000:   BOTTOM DEPTH
RUN .                               1:   RUN NUMBER
LCCD.                             440:   LOGGING CONTRACTOR
SRVC.                    Schlumberger:   LOGGING CONT NAME
DICO.          QC Data Collectors Ltd:   DIG COMPANY NAME
LDAT.                      08/24/1989:   DATE LOGGED
ELD .F                       110.0000:   LOG DATUM ELEVATION
TDD .F                      8534.0000:   TOTAL DEPTH DRILLER
TDL .F                      8523.0000:   TOTAL DEPTH LOGGER
BOTL.F                      8517.0000:   BOTTOM DEPTH LOGGED
TOPL.F                      4580.0000:   TOP DEPTH LOGGED
CS1 .IN                       13.3750:   CASING SIZE 1
BS1 .IN                       12.2500:   BIT SIZE 1
DDB1.F                      8534.0000:   DEPTH DRILLED BIT 1
BHF .                              81:   FLUID CODE
DPT .          Lignosulfonate (Ligno):   DRILLING FLUID TYPE
MUDD.                         10.5000:   FLUID DENSITY
MUDV.                         29.0000:   FLUID VISCOSITY
DFPH.                          9.8000:   FLUID PH
FL  .                          6.8000:   FLUID LOSS
RM  .OHMM                       .7680:   RM
RMT .DEGC                     89.0000:   RM TEMP
RMF .OHMM                       .8480:   RMF
RMFT.DEGC                     89.0000:   RMF TEMP
FSC .                               M:   RMF CODE
RMC .OHMM                       .8250:   RMC
RMCT.DEGC                     89.0000:   RMC TEMP
CMC .                               M:   RMC CODE
TMAX.DEGC                    162.0000:   MAX REC TEMP
TIMC.                         16.2500:   TIME SINCE CIRCLN
~PARAMETER INFORMATION (zones)
#MNEM.UNIT                       Value     Description
#=========                       =====     ===========
#ZONATION                          DIL:   ZONATION NAME
#ZONE                            RUN_1:   ZONE NAME
TOP .                       4580.0000:   TOP DEPTH
BOT .                       8517.5000:   BOTTOM DEPTH
RUN .                               1:   RUN NUMBER
LCCD.                             440:   LOGGING CONTRACTOR
SRVC.                    Schlumberger:   LOGGING CONT NAME
DICO.          QC Data Collectors Ltd:   DIG COMPANY NAME
LDAT.                      08/24/1989:   DATE LOGGED
ELD .F                       110.0000:   LOG DATUM ELEVATION
TDD .F                      8534.0000:   TOTAL DEPTH DRILLER
TDL .F                      8523.0000:   TOTAL DEPTH LOGGER
BOTL.F                      8517.0000:   BOTTOM DEPTH LOGGED
TOPL.F                      4580.0000:   TOP DEPTH LOGGED
CS1 .IN                       13.3750:   CASING SIZE 1
BS1 .IN                       12.2500:   BIT SIZE 1
DDB1.F                      8534.0000:   DEPTH DRILLED BIT 1
BHF .                              81:   FLUID CODE
DPT .          Lignosulfonate (Ligno):   DRILLING FLUID TYPE
MUDD.                         10.5000:   FLUID DENSITY
MUDV.                         29.0000:   FLUID VISCOSITY
DFPH.                          9.8000:   FLUID PH
FL  .                          6.8000:   FLUID LOSS
RM  .OHMM                       .7680:   RM
RMT .DEGC                     89.0000:   RM TEMP
RMF .OHMM                       .8480:   RMF
RMFT.DEGC                     89.0000:   RMF TEMP
FSC .                               M:   RMF CODE
RMC .OHMM                       .8250:   RMC
RMCT.DEGC                     89.0000:   RMC TEMP
CMC .                               M:   RMC CODE
TMAX.DEGC                    162.0000:   MAX REC TEMP
TIMC.                         16.2500:   TIME SINCE CIRCLN
~PARAMETER INFORMATION (zones)
#MNEM.UNIT                       Value     Description
#=========                       =====     ===========
#ZONATION                          FDC:   ZONATION NAME
#ZONE                            RUN_1:   ZONE NAME
TOP .                       4530.0000:   TOP DEPTH
BOT .                       8517.5000:   BOTTOM DEPTH
RUN .                               1:   RUN NUMBER
LCCD.                             440:   LOGGING CONTRACTOR
SRVC.                    Schlumberger:   LOGGING CONT NAME
DICO.          QC Data Collectors Ltd:   DIG COMPANY NAME
LDAT.                      08/24/1989:   DATE LOGGED
ELD .F                       110.0000:   LOG DATUM ELEVATION
TDD .F                      8534.0000:   TOTAL DEPTH DRILLER
TDL .F                      8523.0000:   TOTAL DEPTH LOGGER
BOTL.F                      8517.0000:   BOTTOM DEPTH LOGGED
TOPL.F                      4580.0000:   TOP DEPTH LOGGED
CS1 .IN                       13.3750:   CASING SIZE 1
BS1 .IN                       12.2500:   BIT SIZE 1
DDB1.F                      8534.0000:   DEPTH DRILLED BIT 1
BHF .                              81:   FLUID CODE
DPT .          Lignosulfonate (Ligno):   DRILLING FLUID TYPE
MUDD.                         10.5000:   FLUID DENSITY
MUDV.                         29.0000:   FLUID VISCOSITY
DFPH.                          9.8000:   FLUID PH
FL  .                          6.8000:   FLUID LOSS
RM  .OHMM                       .7680:   RM
RMT .DEGC                     89.0000:   RM TEMP
RMF .OHMM                       .8480:   RMF
RMFT.DEGC                     89.0000:   RMF TEMP
FSC .                               M:   RMF CODE
RMC .OHMM                       .8250:   RMC
RMCT.DEGC                     89.0000:   RMC TEMP
CMC .                               M:   RMC CODE
TMAX.DEGC                    162.0000:   MAX REC TEMP
TIMC.                         16.2500:   TIME SINCE CIRCLN
~Curve Information Block
#MNEM.UNIT                    API CODE    No Description
#=========                    ========    == ===========
DEPT.F                   00 001 00 00:     1  DEPTH
NPHI.%                               :     2  Neutron Porosity
ILD.OHMM                             :     3  Deep Induction Resistivity
ILM.OHMM                             :     4  Medium Induction Resistivity
SFL.OHMM                             :     5  Medium Resistivity
SP.MV                                :     6  Spontaneous Potential
CALI.IN                              :     7  Caliper
DPHI.%                               :     8  Porosity
DRHO.G/C3                            :     9  Bulk Density Correction
GR.GAPI                              :    10  Gamma Ray
~ASCII
# ...
 8472.0000    47.9539     1.2333     1.2494     1.0472   -46.8655    14.1501    21.4480      .0214    91.1543
 8472.5000    47.8739     1.2323     1.2495     1.0729   -46.8517    14.1033    21.4511      .0307    91.0974
 8473.0000    47.8430     1.2319     1.2533     1.0889   -46.8503    14.0255    20.6072      .0398    91.0885
 8473.5000    47.8610     1.2323     1.2552     1.0859   -46.9725    13.9669    19.6900      .0441    91.1005
 8474.0000    47.8970     1.2332     1.2545     1.0960   -47.2337    13.9768    19.0231      .0462    91.1553
 8474.5000    47.9353     1.2353     1.2531     1.1131   -47.4516    14.0025    19.2212      .0434    91.2057
 8475.0000    47.9520     1.2375     1.2517     1.1315   -47.6894    14.0015    19.7594      .0269    91.2098
 8475.5000    47.9470     1.2384     1.2529     1.1297   -48.0182    13.9962    20.2305      .0202    91.2140
 8476.0000    47.9379     1.2355     1.2554     1.1175   -48.4703    13.9049    20.5366      .0175    91.2102
 8476.5000    47.8718     1.2336     1.2579     1.0948   -48.9308    13.6688    20.8424      .0148    91.1986
 8477.0000    47.8057     1.2342     1.2604     1.0808   -48.5704    13.7870    21.1715      .0149    91.1821
 8477.5000    47.8087     1.2350     1.2630     1.0716   -47.8959    13.8847    21.1876      .0183    91.1501
 8478.0000    47.8427     1.2365     1.2620     1.0700   -47.2623    13.9690    21.0522      .0235    91.1255
 8478.5000    47.9073     1.2380     1.2604     1.0717   -46.7003    13.9853    20.9395      .0295    91.1326
 8479.0000    47.9787     1.2380     1.2577     1.0790   -46.1324    13.9879    21.3630      .0350    91.1398
 8479.5000    48.0043     1.2375     1.2545     1.0830   -45.6498    13.9804    21.7000      .0528    91.1287
 8480.0000    47.9890     1.2366     1.2497     1.0786   -45.3366    13.9587    21.8583      .0724    91.1169
 8480.5000    47.9166     1.2322     1.2461     1.0703   -45.1732    13.9286    21.9271      .0862    91.0928
 8481.0000    47.8546     1.2271     1.2454     1.0658   -45.0488    13.9082    22.1332      .0991    91.0624
 8481.5000    47.8129     1.2208     1.2412     1.0673   -44.9669    13.8945    22.4924      .1111    91.0485
 8482.0000    47.8472     1.2157     1.2377     1.0720   -44.9785    13.8808    22.8831      .1195    91.0549
 8482.5000    47.8955     1.2130     1.2344     1.0795   -45.0690    13.8430    23.7130      .1257    91.0636
 8483.0000    47.9162     1.2116     1.2307     1.0899   -45.1997    13.7576    26.2682      .1297    91.0857
 8483.5000    47.9214     1.2148     1.2291     1.1008   -45.3701    13.6187    28.0714      .1272    91.1077
 8484.0000    47.8406     1.2173     1.2286     1.1067   -45.5275    13.7348    31.9588      .0999    91.0970
 8484.5000    47.7708     1.2184     1.2277     1.1064   -45.6702    13.6738    38.8661      .0739    91.0708
 8485.0000    47.7404     1.2120     1.2254     1.1020   -45.7565    13.3957    44.0139      .0500    91.0444
 8485.5000    48.5439     1.2040     1.2233     1.0918   -45.7542    13.1020    47.7296      .0264    90.9958
 8486.0000    49.6187     1.1967     1.2193     1.0809   -45.6417    12.1471    49.8324      .0113    90.9427
 8486.5000    50.7808     1.1873     1.2131     1.0696   -45.5032    11.3217    50.3909     -.0002    90.8896
 8487.0000    52.3844     1.1770     1.2118     1.0614   -45.3569     8.4072    52.2440     -.0075    90.8595
 8487.5000    54.5090     1.1678     1.2113     1.0549   -45.3361     4.0954    55.8818     -.0122    90.8344
 8488.0000    57.6632     1.1626     1.2108     1.0507   -45.3317     3.3231    56.3782     -.0154    90.8093
 8488.5000    58.8784     1.1611     1.2104     1.0472   -45.4734     2.7861    56.5856     -.0177    90.8036
 8489.0000    59.2001     1.1617     1.2099     1.0442   -45.6176     2.7578    56.6140     -.0191    90.8054
 8489.5000    59.3358     1.1648     1.2106     1.0371   -45.7825     2.7440    56.6031     -.0193    90.8071
 8490.0000    59.4195     1.1673     1.2133     1.0308   -45.8728     2.7336    56.5645     -.0181    90.8179
 8490.5000    59.4720     1.1693     1.2159     1.0253   -45.8845     2.7324    56.4997     -.0168    90.8337
 8491.0000    59.4648     1.1694     1.2178     1.0372   -46.0261     2.7313    56.4305     -.0159    90.8497
 8491.5000    59.4536     1.1689     1.2195     1.0532   -46.2031     2.7328    56.3538     -.0155    90.8691
 8492.0000    59.4335     1.1700     1.2202     1.0735   -46.4138     2.7345    56.2771     -.0153    90.8906
 8492.5000    59.4138     1.1716     1.2213     1.0888   -46.6630     2.7361    56.2359     -.0154    90.9124
 8493.0000    59.3948     1.1742     1.2234     1.0953   -46.8829     2.7425    56.1971     -.0155    90.9369
 8493.5000    59.3890     1.1777     1.2244     1.0636   -46.9874     2.7489    56.1879     -.0157    90.9613
 8494.0000    59.4163     1.1823     1.2239     1.0407   -47.0704     2.7550    56.1932     -.0160    90.9695
 8494.5000    59.4440     1.1898     1.2260     1.0549   -47.1295     2.7603    56.1984     -.0163    90.9734
 8495.0000    59.4881     1.1978     1.2295     1.0789   -47.2557     2.7657    56.2037     -.0166    90.9785
 8495.5000    59.5270     1.2076     1.2362     1.0965   -47.4178     2.7694    56.2089     -.0168    90.9934
 8496.0000    59.5170     1.2157     1.2412     1.1030   -47.6055     2.7724    56.2015     -.0168    91.0082
 8496.5000    59.5208     1.2219     1.2421     1.1005   -47.7477     2.7701    56.1911     -.0166    91.0231
 8497.0000    59.5409     1.2216     1.2358     1.0955   -47.8547     2.7654    56.1807     -.0165    91.0493
 8497.5000    59.5494     1.2184     1.2220     1.0864   -47.9250     2.7619    56.1638     -.0164    91.0759
 8498.0000    59.5497     1.2133     1.2086     1.0745   -47.9628     2.7608    56.1429     -.0162    91.1277
 8498.5000    59.5408     1.2079     1.2012     1.0590   -48.0299     2.7596    56.1219     -.0160    91.1857
 8499.0000    59.5231     1.1983     1.1966     1.0400   -48.1200     2.7584    56.1011     -.0158    91.2303
 8499.5000    59.4993     1.1904     1.1904     1.0312   -48.1627     2.7573    56.0664     -.0157    91.2555
 8500.0000    59.4554     1.1841     1.1845     1.0520   -47.9379     2.7558    56.0283     -.0155    91.2821
 8500.5000    59.4084     1.1833     1.1793     1.0710   -47.9124     2.7542    55.9902     -.0154    91.3167
 8501.0000    59.3719     1.1844     1.1747     1.0642   -47.9396     2.7525    55.9792     -.0155    91.3512
 8501.5000    59.3380     1.1881     1.1727     1.0440   -48.0151     2.7498    55.9779     -.0156    91.3455
 8502.0000    59.3102     1.1920     1.1789     1.0173   -48.0888     2.7470    55.9767     -.0157    91.3326
 8502.5000    59.2883     1.1963     1.1851      .9996   -48.1058     2.7441    55.9814     -.0158    91.3207
 8503.0000    59.2687     1.2007     1.1985     1.0276   -48.0475     2.7416    56.0026     -.0158    91.3228
 8503.5000    59.2675     1.2080     1.2133     1.0818   -47.8867     2.7390    56.0238     -.0154    91.3248
 8504.0000    59.2662     1.2161     1.2442     1.1176   -47.5415     2.7369    56.0450     -.0152    91.3269
 8504.5000    59.2650     1.2260     1.2747     1.1423   -47.1514     2.7403    56.0761     -.0159    91.3206
 8505.0000    59.2637     1.2371     1.2888     1.1547   -46.7924     2.7438    56.1082     -.0169    91.3107
 8505.5000    59.2599     1.2500     1.2990     1.1543   -46.4556     2.7472    56.1401     -.0177    91.3007
 8506.0000    59.2501     1.2640     1.3095     1.1538   -46.2352     2.7506    56.1663     -.0177    91.2963
 8506.5000    59.2404     1.2793     1.3207     1.1594   -46.0164     2.7544    56.1919     -.0177    91.3097
 8507.0000    59.2169     1.2935     1.3320     1.1669   -45.8044     2.7582    56.2138     -.0176    91.3232
 8507.5000    59.1710     1.3056     1.3421     1.1668   -45.5135     2.7620    56.2125     -.0175    91.3368
 8508.0000    59.1250     1.3165     1.3504     1.1623   -45.2797     2.7625    56.2113     -.0175    91.3654
