~VERSION INFORMATION
VERS.                             2.0:   CWLS Log ASCII Standard-VERSION 2.0
WRAP.                              NO:   One line per depth step
~Well Information Block
STRT.F                      4530.0000:   Top Depth
STOP.F                      8517.0000:   Bottom Depth
STEP.F                         .50000:   Depth Increment
NULL.                        -999.250:   Null Value
FLD .                     MU BLK A 16:   Field Name
WELL.       OCSG03011  A005 ST00 BP00:   NAME
API .                    427024017200:   WELL API
R1  .                           38396:   COMMENT  1
EDF .F                       109.0000:   ELEV DRILL FLOOR
COMP.                     OXY USA INC:   OPERATOR
BN  .                            A 16:   BLOCK
CTRY.                             USA:   COUNTRY NAME
CNTY.                        MG ILD L:   COUNTY NAME
EKB .F                       110.0000:   ELEV KELLY BUSHING
TDD .F                       8534.000:   FINAL TD DRILLER
STAT.                           TEXAS:   STATE NAME
UWI .                    427024017200:   WELL API
DICO.               IHS : Digitizing Company
~PARAMETER INFORMATION (zones)
#MNEM.UNIT                       Value     Description
#=========                       =====     ===========
#ZONATION                          CNL:   ZONATION NAME
#ZONE                            RUN_1:   ZONE NAME
TOP .                       4530.0000:   TOP DEPTH
BOT .                       8517.5000:   BOTTOM DEPTH
RUN .                               1:   RUN NUMBER
LCCD.                             440:   LOGGING CONTRACTOR
SRVC.                    Schlumberger:   LOGGING CONT NAME
DICO.          QC Data Collectors Ltd:   DIG COMPANY NAME
LDAT.                      08/24/1989:   DATE LOGGED
ELD .F                       110.0000:   LOG DATUM ELEVATION
TDD .F                      8534.0000:   TOTAL DEPTH DRILLER
TDL .F                      8523.0000:   TOTAL DEPTH LOGGER
BOTL.F                      8517.0000:   BOTTOM DEPTH LOGGED
TOPL.F                      4580.0000:   TOP DEPTH LOGGED
CS1 .IN                       13.3750:   CASING SIZE 1
BS1 .IN                       12.2500:   BIT SIZE 1
DDB1.F                      8534.0000:   DEPTH DRILLED BIT 1
BHF .                              81:   FLUID CODE
DPT .          Lignosulfonate (Ligno):   DRILLING FLUID TYPE
MUDD.                         10.5000:   FLUID DENSITY
MUDV.                         29.0000:   FLUID VISCOSITY
DFPH.                          9.8000:   FLUID PH
FL  .                          6.8000:   FLUID LOSS
RM  .OHMM                       .7680:   RM
RMT .DEGC                     89.0000:   RM TEMP
RMF .OHMM                       .8480:   RMF
RMFT.DEGC                     89.0000:   RMF TEMP
FSC .                               M:   RMF CODE
RMC .OHMM                       .8250:   RMC
RMCT.DEGC                     89.0000:   RMC TEMP
CMC .                               M:   RMC CODE
TMAX.DEGC                    162.0000:   MAX REC TEMP
TIMC.                         16.2500:   TIME SINCE CIRCLN
~PARAMETER INFORMATION (zones)
#MNEM.UNIT                       Value     Description
#=========                       =====     ===========
#ZONATION                          DIL:   ZONATION NAME
#ZONE                            RUN_1:   ZONE NAME
TOP .                       4580.0000:   TOP DEPTH
BOT .                       8517.5000:   BOTTOM DEPTH
RUN .                               1:   RUN NUMBER
LCCD.                             440:   LOGGING CONTRACTOR
SRVC.                    Schlumberger:   LOGGING CONT NAME
DICO.          QC Data Collectors Ltd:   DIG COMPANY NAME
LDAT.                      08/24/1989:   DATE LOGGED
ELD .F                       110.0000:   LOG DATUM ELEVATION
TDD .F                      8534.0000:   TOTAL DEPTH DRILLER
TDL .F                      8523.0000:   TOTAL DEPTH LOGGER
BOTL.F                      8517.0000:   BOTTOM DEPTH LOGGED
TOPL.F                      4580.0000:   TOP DEPTH LOGGED
CS1 .IN                       13.3750:   CASING SIZE 1
BS1 .IN                       12.2500:   BIT SIZE 1
DDB1.F                      8534.0000:   DEPTH DRILLED BIT 1
BHF .                              81:   FLUID CODE
DPT .          Lignosulfonate (Ligno):   DRILLING FLUID TYPE
MUDD.                         10.5000:   FLUID DENSITY
MUDV.                         29.0000:   FLUID VISCOSITY
DFPH.                          9.8000:   FLUID PH
FL  .                          6.8000:   FLUID LOSS
RM  .OHMM                       .7680:   RM
RMT .DEGC                     89.0000:   RM TEMP
RMF .OHMM                       .8480:   RMF
RMFT.DEGC                     89.0000:   RMF TEMP
FSC .                               M:   RMF CODE
RMC .OHMM                       .8250:   RMC
RMCT.DEGC                     89.0000:   RMC TEMP
CMC .                               M:   RMC CODE
TMAX.DEGC                    162.0000:   MAX REC TEMP
TIMC.                         16.2500:   TIME SINCE CIRCLN
~PARAMETER INFORMATION (zones)
#MNEM.UNIT                       Value     Description
#=========                       =====     ===========
#ZONATION                          FDC:   ZONATION NAME
#ZONE                            RUN_1:   ZONE NAME
TOP .                       4530.0000:   TOP DEPTH
BOT .                       8517.5000:   BOTTOM DEPTH
RUN .                               1:   RUN NUMBER
LCCD.                             440:   LOGGING CONTRACTOR
SRVC.                    Schlumberger:   LOGGING CONT NAME
DICO.          QC Data Collectors Ltd:   DIG COMPANY NAME
LDAT.                      08/24/1989:   DATE LOGGED
ELD .F                       110.0000:   LOG DATUM ELEVATION
TDD .F                      8534.0000:   TOTAL DEPTH DRILLER
TDL .F                      8523.0000:   TOTAL DEPTH LOGGER
BOTL.F                      8517.0000:   BOTTOM DEPTH LOGGED
TOPL.F                      4580.0000:   TOP DEPTH LOGGED
CS1 .IN                       13.3750:   CASING SIZE 1
BS1 .IN                       12.2500:   BIT SIZE 1
DDB1.F                      8534.0000:   DEPTH DRILLED BIT 1
BHF .                              81:   FLUID CODE
DPT .          Lignosulfonate (Ligno):   DRILLING FLUID TYPE
MUDD.                         10.5000:   FLUID DENSITY
MUDV.                         29.0000:   FLUID VISCOSITY
DFPH.                          9.8000:   FLUID PH
FL  .                          6.8000:   FLUID LOSS
RM  .OHMM                       .7680:   RM
RMT .DEGC                     89.0000:   RM TEMP
RMF .OHMM                       .8480:   RMF
RMFT.DEGC                     89.0000:   RMF TEMP
FSC .                               M:   RMF CODE
RMC .OHMM                       .8250:   RMC
RMCT.DEGC                     89.0000:   RMC TEMP
CMC .                               M:   RMC CODE
TMAX.DEGC                    162.0000:   MAX REC TEMP
TIMC.                         16.2500:   TIME SINCE CIRCLN
~Curve Information Block
#MNEM.UNIT                    API CODE    No Description
#=========                    ========    == ===========
DEPT.F                   00 001 00 00:     1  DEPTH
NPHI.%                               :     2  Neutron Porosity
ILD.OHMM                             :     3  Deep Induction Resistivity
ILM.OHMM                             :     4  Medium Induction Resistivity
SFL.OHMM                             :     5  Medium Resistivity
SP.MV                                :     6  Spontaneous Potential
CALI.IN                              :     7  Caliper
DPHI.%                               :     8  Porosity
DRHO.G/C3                            :     9  Bulk Density Correction
GR.GAPI                              :    10  Gamma Ray
~ASCII
# ...
 7158.0000    37.4226     1.2827     1.2820     1.0926   -57.1992    14.5426    21.5923      .0320    77.3871
 7158.5000    37.0134     1.2873     1.2916     1.0904   -56.8497    14.6177    21.8663      .0283    79.2482
 7159.0000    36.5640     1.2786     1.2997     1.0848   -56.2100    14.6322    22.0426      .0263    79.7772
 7159.5000    37.7393     1.2758     1.2940     1.0847   -55.5931    14.5914    21.8482      .0250    78.1002
 7160.0000    37.5534     1.2713     1.2813     1.1057   -55.0530    14.5454    21.8183      .0261    73.9641
 7160.5000    36.6445     1.2554     1.2651     1.1195   -54.8408    14.5064    22.1830      .0286    72.4216
 7161.0000    37.8923     1.2347     1.2423     1.1019   -54.7908    14.5114    22.0959      .0322    72.5092
 7161.5000    39.3205     1.2116     1.2076     1.0764   -54.9564    14.6591    21.5731      .0362    73.9563
 7162.0000    39.9756     1.1839     1.1719     1.0555   -55.1285    14.6978    21.3865      .0415    74.9325
 7162.5000    40.4941     1.1500     1.1367     1.0374   -55.3026    14.6351    23.5370      .0252    75.2994
 7163.0000    38.1140     1.1150     1.1015     1.0217   -55.4897    14.3604    27.6287      .0110    73.9017
 7163.5000    36.8616     1.0741     1.0751     1.0205   -55.6836    14.1273    29.6261      .0058    67.7848
 7164.0000    35.7199     1.0404     1.0526     1.0598   -56.2589    13.9796    31.5892      .0028    65.1688
 7164.5000    34.8251     1.0185     1.0258     1.1205   -61.2799    13.8529    30.5428      .0015    65.9185
 7165.0000    35.3436     1.0053     1.0013     1.0920   -64.6403    13.8158    28.3377     -.0002    68.9613
 7165.5000    37.1099      .9935      .9820     1.0135   -65.9886    13.8094    27.3780     -.0013    70.7104
 7166.0000    38.5529      .9839      .9727      .9685   -67.2355    13.8077    27.1523     -.0004    71.0040
 7166.5000    38.1734      .9783      .9745      .9497   -67.8978    13.8061    28.7508      .0019    70.3936
 7167.0000    35.3279      .9745      .9769      .9475   -67.9265    13.8044    29.3509      .0069    70.1202
 7167.5000    32.5137      .9732      .9804      .9515   -67.5739    13.8247    29.6589      .0187    70.8406
 7168.0000    31.4135      .9806      .9863      .9673   -67.6165    13.8680    26.5917      .0349    72.5143
 7168.5000    32.2357     1.0018     1.0027      .9885   -68.9247    13.9601    22.5890      .0435    75.5104
 7169.0000    33.5648     1.0260     1.0246      .9979   -70.2874    14.2006    21.3068      .0447    78.2799
 7169.5000    34.9282     1.0568     1.0438      .9973   -68.9469    14.5473    20.5627      .0331    80.7371
 7170.0000    36.0463     1.0825     1.0648      .9844   -67.5127    14.7240    20.5186      .0214    83.0016
 7170.5000    36.8810     1.1022     1.0870      .9826   -65.9521    14.7945    20.8785      .0090    84.7794
 7171.0000    37.5580     1.1176     1.1075      .9878   -64.8550    14.7406    21.7793      .0027    83.8514
 7171.5000    38.0558     1.1329     1.1270      .9948   -64.2968    14.5710    22.0963     -.0010    82.5708
 7172.0000    38.3386     1.1480     1.1430      .9996   -63.6512    14.4253    21.8132      .0086    81.7294
 7172.5000    38.6064     1.1632     1.1508     1.0028   -62.3289    14.3485    21.5122      .0121    81.8849
 7173.0000    38.8836     1.1706     1.1559     1.0021   -60.5563    14.3167    21.2077      .0116    82.3885
 7173.5000    39.1795     1.1765     1.1600     1.0009   -58.8331    14.3259    21.1569      .0106    83.1929
 7174.0000    39.0933     1.1785     1.1623      .9978   -57.1569    14.3404    21.7027      .0086    83.8638
 7174.5000    37.7673     1.1753     1.1645      .9948   -55.5482    14.3573    22.3914      .0064    84.3961
 7175.0000    36.6960     1.1683     1.1636      .9921   -54.1934    14.3622    23.0325      .0042    85.4380
 7175.5000    36.1213     1.1590     1.1617      .9895   -53.4274    14.3354    23.5510      .0020    86.5350
 7176.0000    36.1412     1.1555     1.1599      .9876   -53.3431    14.3101    23.9543     -.0002    87.1299
 7176.5000    36.7538     1.1533     1.1579      .9859   -53.2588    14.2868    24.2566     -.0021    87.5896
 7177.0000    37.7830     1.1536     1.1560      .9849   -53.0803    14.2934    24.3055     -.0037    87.9426
 7177.5000    39.8975     1.1535     1.1540      .9842   -52.7794    14.3113    24.0730     -.0040    87.8801
 7178.0000    42.7274     1.1527     1.1517      .9835   -52.2802    14.3282    23.6276     -.0043    86.4166
 7178.5000    43.7862     1.1514     1.1490      .9827   -51.7089    14.3514    23.3461     -.0042    84.1613
 7179.0000    43.8018     1.1485     1.1464      .9808   -51.2950    14.3831    23.4312     -.0040    83.9077
 7179.5000    42.3291     1.1451     1.1445      .9782   -51.0413    14.4196    23.7201     -.0036    84.9564
 7180.0000    40.8018     1.1359     1.1421      .9756   -51.1702    14.4481    23.9235     -.0030    86.8279
 7180.5000    39.1401     1.1267     1.1371      .9729   -51.5169    14.4655    24.0356     -.0024    87.8600
 7181.0000    37.7673     1.1166     1.1319      .9725   -51.7382    14.4783    23.8378     -.0019    88.7814
 7181.5000    37.0872     1.1062     1.1235      .9729   -51.1609    14.4887    23.6578     -.0015    88.9832
 7182.0000    36.9728     1.0961     1.1150      .9733   -50.8494    14.4987    23.4985     -.0016    86.6405
 7182.5000    37.7861     1.0860     1.1046      .9722   -51.0029    14.5003    23.5797     -.0008    85.6879
 7183.0000    37.6033     1.0733     1.0940      .9687   -51.2980    14.4946    23.6818      .0046    84.9246
 7183.5000    36.9576     1.0604     1.0797      .9583   -51.6383    14.4799    23.9918      .0068    86.5104
 7184.0000    36.4258     1.0473     1.0648      .9431   -52.0014    14.4564    24.3018      .0070    87.5132
 7184.5000    37.7517     1.0339     1.0488      .9238   -52.2545    14.4203    24.7352      .0062    87.8477
 7185.0000    39.8694     1.0210     1.0346      .9065   -51.9366    14.2980    25.1604      .0043    88.0452
 7185.5000    41.2500     1.0090     1.0214      .8975   -51.4147    14.2305    25.4571      .0020    89.0013
 7186.0000    41.7021      .9976     1.0129      .8931   -50.8382    14.2062    25.6864      .0024    91.0421
 7186.5000    41.9280      .9896     1.0055      .8900   -50.5233    14.2609    25.7765      .0052    92.8954
 7187.0000    42.0958      .9832      .9996      .8650   -50.3674    14.3629    25.8439      .0073    93.9821
 7187.5000    42.1909      .9805      .9953      .8232   -50.4658    14.4410    25.9057      .0066    88.8738
 7188.0000    42.0261      .9789      .9916      .7875   -50.6296    14.4832    26.0845      .0043    86.9736
 7188.5000    40.5206      .9792      .9897      .8251   -50.9924    14.4491    26.3133      .0019    86.4313
 7189.0000    39.2588      .9790      .9884      .8656   -51.3552    14.3266    26.5513     -.0007    86.3041
 7189.5000    39.0218      .9783      .9877      .8711   -51.7596    14.1987    26.7168     -.0038    86.6458
 7190.0000    38.9773      .9756      .9904      .7975   -52.1709    14.1190    26.5460     -.0062    88.0122
 7190.5000    39.0391      .9704      .9940      .7644   -52.4846    14.0952    26.2836     -.0041    90.3328
 7191.0000    38.8231      .9658      .9966      .7398   -52.7628    14.0715    26.4148     -.0020    90.8409
 7191.5000    38.2765      .9621      .9978      .8005   -53.0999    14.0382    26.6952     -.0001    90.5635
 7192.0000    37.2582      .9594      .9961      .8815   -53.4675    14.0044    26.9247      .0012    88.4521
 7192.5000    34.1613      .9578      .9941      .9456   -54.0867    13.9297    27.0928      .0024    84.9408
 7193.0000    33.3625      .9600      .9915      .9846   -54.8585    13.8590    27.0208      .0020    83.8762
 7193.5000    33.6030      .9645      .9913      .9735   -55.6452    13.9881    25.7171      .0003    84.6479
 7194.0000    34.4581      .9728      .9957      .9405   -56.3293    14.1024    24.4084      .0004    87.8743
