~VERSION INFORMATION
VERS.                             2.0:   CWLS Log ASCII Standard-VERSION 2.0
WRAP.                              NO:   One line per depth step
~Well Information Block
STRT.F                      4530.0000:   Top Depth
STOP.F                      8517.0000:   Bottom Depth
STEP.F                         .50000:   Depth Increment
NULL.                        -999.250:   Null Value
FLD .                     MU BLK A 16:   Field Name
WELL.       OCSG03011  A005 ST00 BP00:   NAME
API .                    427024017200:   WELL API
R1  .                           38396:   COMMENT  1
EDF .F                       109.0000:   ELEV DRILL FLOOR
COMP.                     OXY USA INC:   OPERATOR
BN  .                            A 16:   BLOCK
CTRY.                             USA:   COUNTRY NAME
CNTY.                        MG ILD L:   COUNTY NAME
EKB .F                       110.0000:   ELEV KELLY BUSHING
TDD .F                       8534.000:   FINAL TD DRILLER
STAT.                           TEXAS:   STATE NAME
UWI .                    427024017200:   WELL API
DICO.               IHS : Digitizing Company
~PARAMETER INFORMATION (zones)
#MNEM.UNIT                       Value     Description
#=========                       =====     ===========
#ZONATION                          CNL:   ZONATION NAME
#ZONE                            RUN_1:   ZONE NAME
TOP .                       4530.0000:   TOP DEPTH
BOT .                       8517.5000:   BOTTOM DEPTH
RUN .                               1:   RUN NUMBER
LCCD.                             440:   LOGGING CONTRACTOR
SRVC.                    Schlumberger:   LOGGING CONT NAME
DICO.          QC Data Collectors Ltd:   DIG COMPANY NAME
LDAT.                      08/24/1989:   DATE LOGGED
ELD .F                       110.0000:   LOG DATUM ELEVATION
TDD .F                      8534.0000:   TOTAL DEPTH DRILLER
TDL .F                      8523.0000:   TOTAL DEPTH LOGGER
BOTL.F                      8517.0000:   BOTTOM DEPTH LOGGED
TOPL.F                      4580.0000:   TOP DEPTH LOGGED
CS1 .IN                       13.3750:   CASING SIZE 1
BS1 .IN                       12.2500:   BIT SIZE 1
DDB1.F                      8534.0000:   DEPTH DRILLED BIT 1
BHF .                              81:   FLUID CODE
DPT .          Lignosulfonate (Ligno):   DRILLING FLUID TYPE
MUDD.                         10.5000:   FLUID DENSITY
MUDV.                         29.0000:   FLUID VISCOSITY
DFPH.                          9.8000:   FLUID PH
FL  .                          6.8000:   FLUID LOSS
RM  .OHMM                       .7680:   RM
RMT .DEGC                     89.0000:   RM TEMP
RMF .OHMM                       .8480:   RMF
RMFT.DEGC                     89.0000:   RMF TEMP
FSC .                               M:   RMF CODE
RMC .OHMM                       .8250:   RMC
RMCT.DEGC                     89.0000:   RMC TEMP
CMC .                               M:   RMC CODE
TMAX.DEGC                    162.0000:   MAX REC TEMP
TIMC.                         16.2500:   TIME SINCE CIRCLN
~PARAMETER INFORMATION (zones)
#MNEM.UNIT                       Value     Description
#=========                       =====     ===========
#ZONATION                          DIL:   ZONATION NAME
#ZONE                            RUN_1:   ZONE NAME
TOP .                       4580.0000:   TOP DEPTH
BOT .                       8517.5000:   BOTTOM DEPTH
RUN .                               1:   RUN NUMBER
LCCD.                             440:   LOGGING CONTRACTOR
SRVC.                    Schlumberger:   LOGGING CONT NAME
DICO.          QC Data Collectors Ltd:   DIG COMPANY NAME
LDAT.                      08/24/1989:   DATE LOGGED
ELD .F                       110.0000:   LOG DATUM ELEVATION
TDD .F                      8534.0000:   TOTAL DEPTH DRILLER
TDL .F                      8523.0000:   TOTAL DEPTH LOGGER
BOTL.F                      8517.0000:   BOTTOM DEPTH LOGGED
TOPL.F                      4580.0000:   TOP DEPTH LOGGED
CS1 .IN                       13.3750:   CASING SIZE 1
BS1 .IN                       12.2500:   BIT SIZE 1
DDB1.F                      8534.0000:   DEPTH DRILLED BIT 1
BHF .                              81:   FLUID CODE
DPT .          Lignosulfonate (Ligno):   DRILLING FLUID TYPE
MUDD.                         10.5000:   FLUID DENSITY
MUDV.                         29.0000:   FLUID VISCOSITY
DFPH.                          9.8000:   FLUID PH
FL  .                          6.8000:   FLUID LOSS
RM  .OHMM                       .7680:   RM
RMT .DEGC                     89.0000:   RM TEMP
RMF .OHMM                       .8480:   RMF
RMFT.DEGC                     89.0000:   RMF TEMP
FSC .                               M:   RMF CODE
RMC .OHMM                       .8250:   RMC
RMCT.DEGC                     89.0000:   RMC TEMP
CMC .                               M:   RMC CODE
TMAX.DEGC                    162.0000:   MAX REC TEMP
TIMC.                         16.2500:   TIME SINCE CIRCLN
~PARAMETER INFORMATION (zones)
#MNEM.UNIT                       Value     Description
#=========                       =====     ===========
#ZONATION                          FDC:   ZONATION NAME
#ZONE                            RUN_1:   ZONE NAME
TOP .                       4530.0000:   TOP DEPTH
BOT .                       8517.5000:   BOTTOM DEPTH
RUN .                               1:   RUN NUMBER
LCCD.                             440:   LOGGING CONTRACTOR
SRVC.                    Schlumberger:   LOGGING CONT NAME
DICO.          QC Data Collectors Ltd:   DIG COMPANY NAME
LDAT.                      08/24/1989:   DATE LOGGED
ELD .F                       110.0000:   LOG DATUM ELEVATION
TDD .F                      8534.0000:   TOTAL DEPTH DRILLER
TDL .F                      8523.0000:   TOTAL DEPTH LOGGER
BOTL.F                      8517.0000:   BOTTOM DEPTH LOGGED
TOPL.F                      4580.0000:   TOP DEPTH LOGGED
CS1 .IN                       13.3750:   CASING SIZE 1
BS1 .IN                       12.2500:   BIT SIZE 1
DDB1.F                      8534.0000:   DEPTH DRILLED BIT 1
BHF .                              81:   FLUID CODE
DPT .          Lignosulfonate (Ligno):   DRILLING FLUID TYPE
MUDD.                         10.5000:   FLUID DENSITY
MUDV.                         29.0000:   FLUID VISCOSITY
DFPH.                          9.8000:   FLUID PH
FL  .                          6.8000:   FLUID LOSS
RM  .OHMM                       .7680:   RM
RMT .DEGC                     89.0000:   RM TEMP
RMF .OHMM                       .8480:   RMF
RMFT.DEGC                     89.0000:   RMF TEMP
FSC .                               M:   RMF CODE
RMC .OHMM                       .8250:   RMC
RMCT.DEGC                     89.0000:   RMC TEMP
CMC .                               M:   RMC CODE
TMAX.DEGC                    162.0000:   MAX REC TEMP
TIMC.                         16.2500:   TIME SINCE CIRCLN
~Curve Information Block
#MNEM.UNIT                    API CODE    No Description
#=========                    ========    == ===========
DEPT.F                   00 001 00 00:     1  DEPTH
NPHI.%                               :     2  Neutron Porosity
ILD.OHMM                             :     3  Deep Induction Resistivity
ILM.OHMM                             :     4  Medium Induction Resistivity
SFL.OHMM                             :     5  Medium Resistivity
SP.MV                                :     6  Spontaneous Potential
CALI.IN                              :     7  Caliper
DPHI.%                               :     8  Porosity
DRHO.G/C3                            :     9  Bulk Density Correction
GR.GAPI                              :    10  Gamma Ray
~ASCII
# ...
 6647.0000    34.6876     1.3514     1.3862     1.1417   -57.5798    14.5484    21.6455      .0013    85.9429
 6647.5000    33.6022     1.3784     1.4159     1.1522   -57.3511    14.5704    21.8136      .0007    85.5707
 6648.0000    32.3654     1.3897     1.4323     1.1683   -57.4901    14.6469    21.4154     -.0001    84.7794
 6648.5000    31.8524     1.3906     1.4138     1.1946   -57.8782    14.6200    20.4604     -.0008    84.3571
 6649.0000    32.5840     1.3905     1.4022     1.2108   -58.1697    14.5475    19.5819     -.0016    84.2960
 6649.5000    33.2516     1.3997     1.3991     1.2145   -57.8453    14.4987    19.2199     -.0023    84.3538
 6650.0000    33.7537     1.3923     1.3633     1.2161   -57.5583    14.5008    19.2867     -.0021    84.4500
 6650.5000    34.3105     1.3481     1.3303     1.2161   -57.5157    14.5397    19.6600     -.0000    84.6566
 6651.0000    35.0093     1.3035     1.3077     1.1699   -57.7876    14.5310    20.4510      .0019    85.8674
 6651.5000    35.8979     1.2738     1.2886     1.1111   -57.8586    14.5067    21.5380      .0030    85.0267
 6652.0000    37.0817     1.2590     1.2713     1.0730   -57.8727    14.5103    22.6718      .0028    83.4753
 6652.5000    38.1625     1.2504     1.2527     1.0404   -57.9150    14.5548    23.5963      .0021    82.8011
 6653.0000    38.6062     1.2381     1.2329     1.0157   -58.0236    14.6092    24.1250      .0012    83.0198
 6653.5000    38.6042     1.2207     1.2163      .9990   -58.2468    14.6511    24.5115      .0004    86.0548
 6654.0000    38.4194     1.2092     1.2045      .9951   -58.5055    14.6099    24.3577     -.0001    87.4227
 6654.5000    37.8509     1.1986     1.1988     1.0126   -58.7349    14.4996    23.9957     -.0002    88.5680
 6655.0000    37.4268     1.1973     1.1935     1.0335   -58.7490    14.4254    23.6318      .0001    89.6079
 6655.5000    37.4638     1.1987     1.1926     1.0533   -58.7260    14.3757    23.3931      .0005    87.5463
 6656.0000    37.6362     1.1987     1.1936     1.0671   -58.5966    14.3460    23.2955      .0009    85.8492
 6656.5000    38.7403     1.1980     1.1990     1.0707   -58.4862    14.3282    23.5153      .0010    84.5503
 6657.0000    39.4087     1.1905     1.2039     1.0662   -58.4401    14.3231    23.8337      .0009    83.8599
 6657.5000    39.9022     1.1799     1.1970     1.0548   -58.4229    14.3169    24.1730      .0002    83.1702
 6658.0000    40.3036     1.1705     1.1901     1.0473   -58.5632    14.3077    24.4799     -.0007    82.5988
 6658.5000    40.3895     1.1629     1.1770     1.0399   -58.7103    14.3068    24.8769     -.0017    81.9122
 6659.0000    39.9772     1.1600     1.1609     1.0320   -58.8891    14.3104    25.3255     -.0022    81.0533
 6659.5000    39.6071     1.1556     1.1464     1.0099   -59.0462    14.3118    25.7009     -.0024    80.1254
 6660.0000    39.4365     1.1466     1.1369      .9866   -59.0809    14.3074    25.7852     -.0024    81.4451
 6660.5000    39.4836     1.1384     1.1326      .9624   -59.1078    14.2982    25.5918     -.0022    83.4519
 6661.0000    40.4129     1.1316     1.1302      .9411   -59.0801    14.3055    25.2853     -.0020    84.6740
 6661.5000    42.5415     1.1317     1.1333      .9250   -59.0487    14.3134    25.2358     -.0018    85.1135
 6662.0000    43.4489     1.1360     1.1351      .9339   -58.9949    14.3153    25.2215     -.0019    83.6158
 6662.5000    43.3458     1.1376     1.1357      .9619   -58.9412    13.9882    25.0585     -.0020    80.4351
 6663.0000    42.3674     1.1389     1.1361      .9821   -58.9340    13.7909    24.7055     -.0020    76.7389
 6663.5000    41.4413     1.1375     1.1365      .9972   -58.9481    14.2615    24.6039     -.0022    73.3473
 6664.0000    40.9158     1.1349     1.1368     1.0001   -58.9187    14.5239    24.7711     -.0025    71.7699
 6664.5000    40.4035     1.1322     1.1372      .9921   -58.8508    14.5921    25.0682     -.0028    77.0356
 6665.0000    39.8593     1.1295     1.1350      .9786   -58.6093    14.4000    25.3286     -.0032    79.5397
 6665.5000    39.4614     1.1268     1.1320      .9564   -58.1655    14.2063    25.5204     -.0034    81.1991
 6666.0000    39.5227     1.1239     1.1259      .9333   -57.5402    14.0403    25.6283     -.0035    81.2081
 6666.5000    40.6128     1.1187     1.1192      .9025   -57.0983    13.9130    25.7423     -.0036    79.5631
 6667.0000    41.3515     1.1092     1.1147      .8828   -56.8694    13.8496    25.8593     -.0035    81.7235
 6667.5000    40.7573     1.1038     1.1112      .8660   -56.7191    13.9898    25.9081     -.0034    82.8246
 6668.0000    40.3047     1.1005     1.1083      .8820   -56.6661    14.1124    25.9419     -.0027    82.1791
 6668.5000    41.4780     1.1020     1.1063      .8983   -56.6027    14.1551    25.9563     -.0017    78.0039
 6669.0000    43.2755     1.1034     1.1055      .9149   -56.5132    14.0400    25.9612     -.0005    75.8851
 6669.5000    43.9916     1.1054     1.1062      .9481   -56.2322    13.8393    25.7218      .0014    76.7207
 6670.0000    43.7698     1.1060     1.1039      .9695   -55.9843    13.7003    25.4520      .0041    78.6156
 6670.5000    43.1522     1.0971     1.0994      .9576   -56.0621    13.7627    25.6601      .0073    81.3123
 6671.0000    42.4619     1.0856     1.0963      .9074   -56.7092    13.9001    26.4398      .0090    83.2358
 6671.5000    42.1818     1.0695     1.0975      .8509   -57.0381    13.9929    26.7157      .0095    84.6622
 6672.0000    42.1279     1.0530     1.1027      .8196   -57.1179    13.7451    26.6612      .0096    84.7325
 6672.5000    41.9719     1.0385     1.1085      .8091   -57.1269    13.6204    25.9529      .0096    81.8485
 6673.0000    40.3536     1.0199     1.0947      .8135   -58.2514    13.5935    24.8113      .0100    79.7765
 6673.5000    39.2322     1.0040     1.0766      .8299   -58.6780    13.6504    23.8969      .0109    75.9373
 6674.0000    38.4514      .9876     1.0604      .8791   -58.9425    13.9848    23.7462      .0096    68.9093
 6674.5000    37.7744      .9746     1.0420      .9162   -59.4865    14.0001    26.7479      .0053    64.2656
 6675.0000    37.7142      .9637     1.0248      .9310   -61.1003    13.8412    29.8479      .0015    62.6004
 6675.5000    38.8895      .9442     1.0118      .9511   -64.0963    13.4398    31.2831     -.0009    61.8371
 6676.0000    37.8517      .9179     1.0016     1.0415   -69.0575    13.3086    30.9208     -.0033    55.4833
 6676.5000    34.5814      .8899      .9903     1.1672   -75.0547    13.2450    26.8822     -.0060    45.6129
 6677.0000    28.7156      .8681      .9721     1.3344   -80.2137    13.1924    25.4298     -.0086    40.8704
 6677.5000    27.5927      .8496      .9284     1.5603   -84.4722    13.1548    24.3319     -.0108    38.9677
 6678.0000    27.3581      .8318      .8914     1.6092   -87.0854    13.1556    24.9331     -.0126    40.0739
 6678.5000    28.0168      .8137      .8619     1.6068   -89.3552    13.1581    26.4855     -.0142    43.7076
 6679.0000    28.9452      .7934      .8468     1.5571   -90.9756    13.1631    28.2565     -.0163    46.7244
 6679.5000    30.0103      .7764      .8404     1.4412   -92.6766    13.1642    30.0103     -.0177    48.7547
 6680.0000    31.0715      .7609      .8358     1.2612   -94.5846    13.1602    31.7220     -.0176    50.2514
 6680.5000    31.7543      .7490      .8277     1.0780   -96.6774    13.1524    32.8428     -.0169    51.8990
 6681.0000    32.1318      .7387      .8252      .9129   -99.3766    13.1456    33.1547     -.0147    54.6191
 6681.5000    32.1083      .7289      .8242      .7645  -100.2056    13.1569    33.1442     -.0046    59.4033
 6682.0000    32.1260      .7267      .8269      .6931   -98.4941    13.1822    32.0858      .0058    66.6655
 6682.5000    37.2739      .7283      .8308      .6733   -95.9875    13.2112    28.5251      .0179    75.0314
 6683.0000    40.5472      .7342      .8454      .6727   -93.5616    13.2471    25.8264      .0284    77.4183
