~VERSION INFORMATION
VERS.                             2.0:   CWLS Log ASCII Standard-VERSION 2.0
WRAP.                              NO:   One line per depth step
~Well Information Block
STRT.F                      4530.0000:   Top Depth
STOP.F                      8517.0000:   Bottom Depth
STEP.F                         .50000:   Depth Increment
NULL.                        -999.250:   Null Value
FLD .                     MU BLK A 16:   Field Name
WELL.       OCSG03011  A005 ST00 BP00:   NAME
API .                    427024017200:   WELL API
R1  .                           38396:   COMMENT  1
EDF .F                       109.0000:   ELEV DRILL FLOOR
COMP.                     OXY USA INC:   OPERATOR
BN  .                            A 16:   BLOCK
CTRY.                             USA:   COUNTRY NAME
CNTY.                        MG ILD L:   COUNTY NAME
EKB .F                       110.0000:   ELEV KELLY BUSHING
TDD .F                       8534.000:   FINAL TD DRILLER
STAT.                           TEXAS:   STATE NAME
UWI .                    427024017200:   WELL API
DICO.               IHS : Digitizing Company
~PARAMETER INFORMATION (zones)
#MNEM.UNIT                       Value     Description
#=========                       =====     ===========
#ZONATION                          CNL:   ZONATION NAME
#ZONE                            RUN_1:   ZONE NAME
TOP .                       4530.0000:   TOP DEPTH
BOT .                       8517.5000:   BOTTOM DEPTH
RUN .                               1:   RUN NUMBER
LCCD.                             440:   LOGGING CONTRACTOR
SRVC.                    Schlumberger:   LOGGING CONT NAME
DICO.          QC Data Collectors Ltd:   DIG COMPANY NAME
LDAT.                      08/24/1989:   DATE LOGGED
ELD .F                       110.0000:   LOG DATUM ELEVATION
TDD .F                      8534.0000:   TOTAL DEPTH DRILLER
TDL .F                      8523.0000:   TOTAL DEPTH LOGGER
BOTL.F                      8517.0000:   BOTTOM DEPTH LOGGED
TOPL.F                      4580.0000:   TOP DEPTH LOGGED
CS1 .IN                       13.3750:   CASING SIZE 1
BS1 .IN                       12.2500:   BIT SIZE 1
DDB1.F                      8534.0000:   DEPTH DRILLED BIT 1
BHF .                              81:   FLUID CODE
DPT .          Lignosulfonate (Ligno):   DRILLING FLUID TYPE
MUDD.                         10.5000:   FLUID DENSITY
MUDV.                         29.0000:   FLUID VISCOSITY
DFPH.                          9.8000:   FLUID PH
FL  .                          6.8000:   FLUID LOSS
RM  .OHMM                       .7680:   RM
RMT .DEGC                     89.0000:   RM TEMP
RMF .OHMM                       .8480:   RMF
RMFT.DEGC                     89.0000:   RMF TEMP
FSC .                               M:   RMF CODE
RMC .OHMM                       .8250:   RMC
RMCT.DEGC                     89.0000:   RMC TEMP
CMC .                               M:   RMC CODE
TMAX.DEGC                    162.0000:   MAX REC TEMP
TIMC.                         16.2500:   TIME SINCE CIRCLN
~PARAMETER INFORMATION (zones)
#MNEM.UNIT                       Value     Description
#=========                       =====     ===========
#ZONATION                          DIL:   ZONATION NAME
#ZONE                            RUN_1:   ZONE NAME
TOP .                       4580.0000:   TOP DEPTH
BOT .                       8517.5000:   BOTTOM DEPTH
RUN .                               1:   RUN NUMBER
LCCD.                             440:   LOGGING CONTRACTOR
SRVC.                    Schlumberger:   LOGGING CONT NAME
DICO.          QC Data Collectors Ltd:   DIG COMPANY NAME
LDAT.                      08/24/1989:   DATE LOGGED
ELD .F                       110.0000:   LOG DATUM ELEVATION
TDD .F                      8534.0000:   TOTAL DEPTH DRILLER
TDL .F                      8523.0000:   TOTAL DEPTH LOGGER
BOTL.F                      8517.0000:   BOTTOM DEPTH LOGGED
TOPL.F                      4580.0000:   TOP DEPTH LOGGED
CS1 .IN                       13.3750:   CASING SIZE 1
BS1 .IN                       12.2500:   BIT SIZE 1
DDB1.F                      8534.0000:   DEPTH DRILLED BIT 1
BHF .                              81:   FLUID CODE
DPT .          Lignosulfonate (Ligno):   DRILLING FLUID TYPE
MUDD.                         10.5000:   FLUID DENSITY
MUDV.                         29.0000:   FLUID VISCOSITY
DFPH.                          9.8000:   FLUID PH
FL  .                          6.8000:   FLUID LOSS
RM  .OHMM                       .7680:   RM
RMT .DEGC                     89.0000:   RM TEMP
RMF .OHMM                       .8480:   RMF
RMFT.DEGC                     89.0000:   RMF TEMP
FSC .                               M:   RMF CODE
RMC .OHMM                       .8250:   RMC
RMCT.DEGC                     89.0000:   RMC TEMP
CMC .                               M:   RMC CODE
TMAX.DEGC                    162.0000:   MAX REC TEMP
TIMC.                         16.2500:   TIME SINCE CIRCLN
~PARAMETER INFORMATION (zones)
#MNEM.UNIT                       Value     Description
#=========                       =====     ===========
#ZONATION                          FDC:   ZONATION NAME
#ZONE                            RUN_1:   ZONE NAME
TOP .                       4530.0000:   TOP DEPTH
BOT .                       8517.5000:   BOTTOM DEPTH
RUN .                               1:   RUN NUMBER
LCCD.                             440:   LOGGING CONTRACTOR
SRVC.                    Schlumberger:   LOGGING CONT NAME
DICO.          QC Data Collectors Ltd:   DIG COMPANY NAME
LDAT.                      08/24/1989:   DATE LOGGED
ELD .F                       110.0000:   LOG DATUM ELEVATION
TDD .F                      8534.0000:   TOTAL DEPTH DRILLER
TDL .F                      8523.0000:   TOTAL DEPTH LOGGER
BOTL.F                      8517.0000:   BOTTOM DEPTH LOGGED
TOPL.F                      4580.0000:   TOP DEPTH LOGGED
CS1 .IN                       13.3750:   CASING SIZE 1
BS1 .IN                       12.2500:   BIT SIZE 1
DDB1.F                      8534.0000:   DEPTH DRILLED BIT 1
BHF .                              81:   FLUID CODE
DPT .          Lignosulfonate (Ligno):   DRILLING FLUID TYPE
MUDD.                         10.5000:   FLUID DENSITY
MUDV.                         29.0000:   FLUID VISCOSITY
DFPH.                          9.8000:   FLUID PH
FL  .                          6.8000:   FLUID LOSS
RM  .OHMM                       .7680:   RM
RMT .DEGC                     89.0000:   RM TEMP
RMF .OHMM                       .8480:   RMF
RMFT.DEGC                     89.0000:   RMF TEMP
FSC .                               M:   RMF CODE
RMC .OHMM                       .8250:   RMC
RMCT.DEGC                     89.0000:   RMC TEMP
CMC .                               M:   RMC CODE
TMAX.DEGC                    162.0000:   MAX REC TEMP
TIMC.                         16.2500:   TIME SINCE CIRCLN
~Curve Information Block
#MNEM.UNIT                    API CODE    No Description
#=========                    ========    == ===========
DEPT.F                   00 001 00 00:     1  DEPTH
NPHI.%                               :     2  Neutron Porosity
ILD.OHMM                             :     3  Deep Induction Resistivity
ILM.OHMM                             :     4  Medium Induction Resistivity
SFL.OHMM                             :     5  Medium Resistivity
SP.MV                                :     6  Spontaneous Potential
CALI.IN                              :     7  Caliper
DPHI.%                               :     8  Porosity
DRHO.G/C3                            :     9  Bulk Density Correction
GR.GAPI                              :    10  Gamma Ray
~ASCII
# ...
 5333.0000    32.0906     1.4066     1.4248     1.1578   -63.4602    18.3935    22.0152      .0138    79.4292
 5333.5000    32.2557     1.4079     1.4275     1.1494   -63.6697    18.6501    21.7946      .0166    79.2512
 5334.0000    32.1729     1.4092     1.4268     1.1532   -64.3414    19.0801    21.5870      .0171    79.3862
 5334.5000    31.9451     1.4110     1.4261     1.1667   -64.8630    19.3498    21.4673      .0156    80.0045
 5335.0000    31.6649     1.4132     1.4245     1.1780   -65.2828    19.5627    21.5805      .0108    80.9865
 5335.5000    31.3529     1.4155     1.4228     1.1839   -65.5886    19.6890    21.7803      .0062    81.7733
 5336.0000    31.0979     1.4174     1.4213     1.1822   -65.8524    19.7216    22.0508      .0031    82.1833
 5336.5000    31.5818     1.4193     1.4206     1.1733   -66.0060    19.7141    22.3099      .0013    82.3293
 5337.0000    31.9134     1.4211     1.4196     1.1567   -65.9752    19.7050    22.5864      .0006    81.4250
 5337.5000    31.7190     1.4223     1.4168     1.1319   -65.7412    19.7392    22.7992      .0003    79.3400
 5338.0000    31.4155     1.4227     1.4139     1.1233   -65.0273    19.8643    22.7816      .0005    77.2914
 5338.5000    31.4746     1.4230     1.4104     1.1347   -63.9081    20.0209    22.3819      .0009    76.7083
 5339.0000    31.7851     1.4213     1.4064     1.1575   -62.4647    19.8893    21.9388      .0021    77.7704
 5339.5000    31.9399     1.4185     1.4019     1.1751   -60.6620    19.7228    21.7864      .0037    79.2086
 5340.0000    31.6635     1.4154     1.3950     1.1686   -58.5118    19.6232    21.8560      .0055    80.9396
 5340.5000    31.1832     1.4064     1.3881     1.1580   -56.5348    19.6185    22.1030      .0058    82.0140
 5341.0000    30.6931     1.3974     1.3837     1.1433   -56.2259    19.6388    22.4953      .0049    81.1661
 5341.5000    30.2586     1.3900     1.3792     1.1311   -56.5550    19.6499    22.8590      .0027    79.9661
 5342.0000    30.8445     1.3830     1.3782     1.1251   -57.1153    19.6409    23.2173      .0008    79.4546
 5342.5000    31.8590     1.3765     1.3775     1.1236   -57.6567    19.5999    23.5630      .0001    79.7916
 5343.0000    32.7496     1.3713     1.3737     1.1243   -58.1285    19.5356    23.8286      .0006    80.8752
 5343.5000    32.4273     1.3662     1.3691     1.1278   -58.4421    19.5036    24.0175      .0017    81.5551
 5344.0000    31.4343     1.3631     1.3657     1.1347   -58.5177    19.5285    23.9471      .0050    81.6796
 5344.5000    31.3713     1.3602     1.3625     1.1302   -58.3265    19.5146    23.5490      .0076    81.2556
 5345.0000    32.3386     1.3579     1.3580     1.1122   -58.1986    19.4525    23.1183      .0097    81.1042
 5345.5000    33.3116     1.3562     1.3527     1.0847   -58.1094    19.3713    22.8148      .0109    81.5223
 5346.0000    33.0950     1.3544     1.3482     1.0732   -58.0634    19.2911    22.7345      .0121    81.5813
 5346.5000    32.4496     1.3514     1.3447     1.0727   -58.0668    19.2122    22.8102      .0130    80.7522
 5347.0000    32.0413     1.3484     1.3411     1.0918   -58.1354    19.0939    23.0565      .0136    79.1838
 5347.5000    32.2654     1.3434     1.3380     1.1112   -58.4146    18.9466    23.4058      .0135    77.8582
 5348.0000    32.7997     1.3381     1.3351     1.1260   -58.7227    18.8510    23.6238      .0128    78.1035
 5348.5000    33.1669     1.3344     1.3327     1.1255   -59.0605    18.9726    23.7433      .0120    79.5873
 5349.0000    33.9695     1.3315     1.3311     1.1243   -59.2420    19.1033    23.5130      .0112    81.4629
 5349.5000    34.8902     1.3285     1.3294     1.1161   -59.2853    19.1950    23.3933      .0104    82.6193
 5350.0000    35.3883     1.3250     1.3279     1.1079   -59.1146    19.2376    23.3910      .0097    82.9739
 5350.5000    33.3977     1.3217     1.3263     1.0995   -59.1229    19.2328    23.5591      .0089    83.6482
 5351.0000    32.6025     1.3186     1.3242     1.0911   -59.2332    19.2480    23.8055      .0081    83.1561
 5351.5000    32.6898     1.3141     1.3215     1.0908   -59.5752    19.2910    24.0819      .0073    80.4515
 5352.0000    34.4208     1.3087     1.3185     1.0903   -59.9712    19.3806    24.2817      .0067    77.4944
 5352.5000    36.6799     1.2998     1.3145     1.0854   -60.4079    19.4814    24.4625      .0058    75.9508
 5353.0000    37.6089     1.2882     1.3098     1.0797   -60.6625    19.5030    24.5798      .0048    77.2783
 5353.5000    37.7377     1.2720     1.2999     1.0732   -60.8758    19.4044    24.6323      .0043    77.1001
 5354.0000    37.5107     1.2523     1.2899     1.0656   -61.0125    19.3463    24.6190      .0045    75.8441
 5354.5000    36.3373     1.2384     1.2796     1.0483   -61.0458    19.3237    24.4859      .0054    73.4987
 5355.0000    35.2884     1.2254     1.2675     1.0277   -61.0541    19.3185    24.2733      .0074    73.1024
 5355.5000    34.6622     1.2163     1.2533     1.0071   -61.0031    19.2951    24.1752      .0103    74.0505
 5356.0000    34.0916     1.2077     1.2405      .9890   -60.9852    19.1440    24.3320      .0108    74.7065
 5356.5000    33.5714     1.2013     1.2293      .9821   -61.0297    18.7079    25.6989      .0093    74.5737
 5357.0000    33.0015     1.1967     1.2278     1.0023   -61.3909    18.0360    28.6480      .0061    73.3555
 5357.5000    32.4344     1.1974     1.2263     1.0528   -63.2078    17.9586    32.6467      .0014    70.4323
 5358.0000    30.8445     1.1978     1.2258     1.1145   -65.7172    18.0509    34.7369     -.0034    67.2695
 5358.5000    28.9061     1.1974     1.2254     1.1734   -68.4243    18.1449    35.1362     -.0068    65.1935
 5359.0000    28.2471     1.1970     1.2250     1.2303   -71.1941    18.2607    34.4091     -.0075    64.9803
 5359.5000    28.3331     1.1998     1.2246     1.2670   -73.9612    18.3655    32.8314     -.0071    64.5851
 5360.0000    28.7896     1.2028     1.2241     1.2743   -76.7308    18.4514    31.2159     -.0054    63.7911
 5360.5000    29.2397     1.2063     1.2237     1.2636   -79.1335    18.5149    31.0371     -.0027    63.8259
 5361.0000    29.6805     1.2099     1.2253     1.2437   -80.4507    18.5637    30.6364      .0002    65.5931
 5361.5000    30.1796     1.2122     1.2272     1.2150   -80.6956    18.6136    29.2409      .0061    67.9645
 5362.0000    31.2481     1.2136     1.2281     1.1775   -80.6860    18.6788    27.4496      .0146    73.0562
 5362.5000    34.4772     1.2150     1.2288     1.1339   -80.2047    18.7705    25.5863      .0248    76.6250
 5363.0000    36.8450     1.2184     1.2295     1.0883   -78.8862    18.8756    24.6226      .0276    77.9728
 5363.5000    37.3229     1.2219     1.2303     1.0553   -76.5095    18.9800    24.2342      .0218    78.4565
 5364.0000    37.1497     1.2243     1.2311     1.0320   -74.5143    19.0602    24.1234      .0150    78.5728
 5364.5000    36.5963     1.2260     1.2320     1.0317   -72.6050    19.1249    24.5256      .0091    78.5983
 5365.0000    34.9058     1.2278     1.2384     1.0475   -70.6266    19.1670    26.1010      .0112    78.9014
 5365.5000    32.8556     1.2297     1.2474     1.1029   -68.7394    19.1541    27.7656      .0199    79.9139
 5366.0000    32.6396     1.2328     1.2593     1.1431   -66.9147    19.1244    28.7837      .0397    83.0104
 5366.5000    32.8677     1.2383     1.2631     1.1401   -65.2448    19.1109    27.5607      .0533    85.5745
 5367.0000    33.3472     1.2439     1.2678     1.1240   -63.8066    19.1523    25.8632      .0593    86.7466
 5367.5000    34.0508     1.2494     1.2710     1.1008   -62.5544    19.3214    24.6124      .0590    86.8660
 5368.0000    34.6919     1.2545     1.2717     1.0724   -61.3752    19.4484    24.1376      .0430    87.0243
 5368.5000    35.0539     1.2588     1.2674     1.0437   -60.1870    19.3365    24.3891      .0286    87.5076
 5369.0000    35.4745     1.2631     1.2657     1.0103   -58.9973    19.1165    25.2179      .0169    89.0587
