~VERSION INFORMATION
VERS.                             2.0:   CWLS Log ASCII Standard-VERSION 2.0
WRAP.                              NO:   One line per depth step
~Well Information Block
STRT.F                      4530.0000:   Top Depth
STOP.F                      8517.0000:   Bottom Depth
STEP.F                         .50000:   Depth Increment
NULL.                        -999.250:   Null Value
FLD .                     MU BLK A 16:   Field Name
WELL.       OCSG03011  A005 ST00 BP00:   NAME
API .                    427024017200:   WELL API
R1  .                           38396:   COMMENT  1
EDF .F                       109.0000:   ELEV DRILL FLOOR
COMP.                     OXY USA INC:   OPERATOR
BN  .                            A 16:   BLOCK
CTRY.                             USA:   COUNTRY NAME
CNTY.                        MG ILD L:   COUNTY NAME
EKB .F                       110.0000:   ELEV KELLY BUSHING
TDD .F                       8534.000:   FINAL TD DRILLER
STAT.                           TEXAS:   STATE NAME
UWI .                    427024017200:   WELL API
DICO.               IHS : Digitizing Company
~PARAMETER INFORMATION (zones)
#MNEM.UNIT                       Value     Description
#=========                       =====     ===========
#ZONATION                          CNL:   ZONATION NAME
#ZONE                            RUN_1:   ZONE NAME
TOP .                       4530.0000:   TOP DEPTH
BOT .                       8517.5000:   BOTTOM DEPTH
RUN .                               1:   RUN NUMBER
LCCD.                             440:   LOGGING CONTRACTOR
SRVC.                    Schlumberger:   LOGGING CONT NAME
DICO.          QC Data Collectors Ltd:   DIG COMPANY NAME
LDAT.                      08/24/1989:   DATE LOGGED
ELD .F                       110.0000:   LOG DATUM ELEVATION
TDD .F                      8534.0000:   TOTAL DEPTH DRILLER
TDL .F                      8523.0000:   TOTAL DEPTH LOGGER
BOTL.F                      8517.0000:   BOTTOM DEPTH LOGGED
TOPL.F                      4580.0000:   TOP DEPTH LOGGED
CS1 .IN                       13.3750:   CASING SIZE 1
BS1 .IN                       12.2500:   BIT SIZE 1
DDB1.F                      8534.0000:   DEPTH DRILLED BIT 1
BHF .                              81:   FLUID CODE
DPT .          Lignosulfonate (Ligno):   DRILLING FLUID TYPE
MUDD.                         10.5000:   FLUID DENSITY
MUDV.                         29.0000:   FLUID VISCOSITY
DFPH.                          9.8000:   FLUID PH
FL  .                          6.8000:   FLUID LOSS
RM  .OHMM                       .7680:   RM
RMT .DEGC                     89.0000:   RM TEMP
RMF .OHMM                       .8480:   RMF
RMFT.DEGC                     89.0000:   RMF TEMP
FSC .                               M:   RMF CODE
RMC .OHMM                       .8250:   RMC
RMCT.DEGC                     89.0000:   RMC TEMP
CMC .                               M:   RMC CODE
TMAX.DEGC                    162.0000:   MAX REC TEMP
TIMC.                         16.2500:   TIME SINCE CIRCLN
~PARAMETER INFORMATION (zones)
#MNEM.UNIT                       Value     Description
#=========                       =====     ===========
#ZONATION                          DIL:   ZONATION NAME
#ZONE                            RUN_1:   ZONE NAME
TOP .                       4580.0000:   TOP DEPTH
BOT .                       8517.5000:   BOTTOM DEPTH
RUN .                               1:   RUN NUMBER
LCCD.                             440:   LOGGING CONTRACTOR
SRVC.                    Schlumberger:   LOGGING CONT NAME
DICO.          QC Data Collectors Ltd:   DIG COMPANY NAME
LDAT.                      08/24/1989:   DATE LOGGED
ELD .F                       110.0000:   LOG DATUM ELEVATION
TDD .F                      8534.0000:   TOTAL DEPTH DRILLER
TDL .F                      8523.0000:   TOTAL DEPTH LOGGER
BOTL.F                      8517.0000:   BOTTOM DEPTH LOGGED
TOPL.F                      4580.0000:   TOP DEPTH LOGGED
CS1 .IN                       13.3750:   CASING SIZE 1
BS1 .IN                       12.2500:   BIT SIZE 1
DDB1.F                      8534.0000:   DEPTH DRILLED BIT 1
BHF .                              81:   FLUID CODE
DPT .          Lignosulfonate (Ligno):   DRILLING FLUID TYPE
MUDD.                         10.5000:   FLUID DENSITY
MUDV.                         29.0000:   FLUID VISCOSITY
DFPH.                          9.8000:   FLUID PH
FL  .                          6.8000:   FLUID LOSS
RM  .OHMM                       .7680:   RM
RMT .DEGC                     89.0000:   RM TEMP
RMF .OHMM                       .8480:   RMF
RMFT.DEGC                     89.0000:   RMF TEMP
FSC .                               M:   RMF CODE
RMC .OHMM                       .8250:   RMC
RMCT.DEGC                     89.0000:   RMC TEMP
CMC .                               M:   RMC CODE
TMAX.DEGC                    162.0000:   MAX REC TEMP
TIMC.                         16.2500:   TIME SINCE CIRCLN
~PARAMETER INFORMATION (zones)
#MNEM.UNIT                       Value     Description
#=========                       =====     ===========
#ZONATION                          FDC:   ZONATION NAME
#ZONE                            RUN_1:   ZONE NAME
TOP .                       4530.0000:   TOP DEPTH
BOT .                       8517.5000:   BOTTOM DEPTH
RUN .                               1:   RUN NUMBER
LCCD.                             440:   LOGGING CONTRACTOR
SRVC.                    Schlumberger:   LOGGING CONT NAME
DICO.          QC Data Collectors Ltd:   DIG COMPANY NAME
LDAT.                      08/24/1989:   DATE LOGGED
ELD .F                       110.0000:   LOG DATUM ELEVATION
TDD .F                      8534.0000:   TOTAL DEPTH DRILLER
TDL .F                      8523.0000:   TOTAL DEPTH LOGGER
BOTL.F                      8517.0000:   BOTTOM DEPTH LOGGED
TOPL.F                      4580.0000:   TOP DEPTH LOGGED
CS1 .IN                       13.3750:   CASING SIZE 1
BS1 .IN                       12.2500:   BIT SIZE 1
DDB1.F                      8534.0000:   DEPTH DRILLED BIT 1
BHF .                              81:   FLUID CODE
DPT .          Lignosulfonate (Ligno):   DRILLING FLUID TYPE
MUDD.                         10.5000:   FLUID DENSITY
MUDV.                         29.0000:   FLUID VISCOSITY
DFPH.                          9.8000:   FLUID PH
FL  .                          6.8000:   FLUID LOSS
RM  .OHMM                       .7680:   RM
RMT .DEGC                     89.0000:   RM TEMP
RMF .OHMM                       .8480:   RMF
RMFT.DEGC                     89.0000:   RMF TEMP
FSC .                               M:   RMF CODE
RMC .OHMM                       .8250:   RMC
RMCT.DEGC                     89.0000:   RMC TEMP
CMC .                               M:   RMC CODE
TMAX.DEGC                    162.0000:   MAX REC TEMP
TIMC.                         16.2500:   TIME SINCE CIRCLN
~Curve Information Block
#MNEM.UNIT                    API CODE    No Description
#=========                    ========    == ===========
DEPT.F                   00 001 00 00:     1  DEPTH
NPHI.%                               :     2  Neutron Porosity
ILD.OHMM                             :     3  Deep Induction Resistivity
ILM.OHMM                             :     4  Medium Induction Resistivity
SFL.OHMM                             :     5  Medium Resistivity
SP.MV                                :     6  Spontaneous Potential
CALI.IN                              :     7  Caliper
DPHI.%                               :     8  Porosity
DRHO.G/C3                            :     9  Bulk Density Correction
GR.GAPI                              :    10  Gamma Ray
~ASCII
# ...
 4566.5000    61.5607  -999.2500  -999.2500  -999.2500  -999.2500  -999.2500  -999.2500  -999.2500    45.7576
 4567.0000    57.5758  -999.2500  -999.2500  -999.2500  -999.2500  -999.2500  -999.2500  -999.2500    46.6470
 4567.5000    56.8797  -999.2500  -999.2500  -999.2500  -999.2500  -999.2500  -999.2500  -999.2500    46.8793
 4568.0000    57.7628  -999.2500  -999.2500  -999.2500  -999.2500  -999.2500  -999.2500  -999.2500    46.5476
 4568.5000    58.6784  -999.2500  -999.2500  -999.2500  -999.2500  -999.2500  -999.2500  -999.2500    45.2760
 4569.0000    58.5208  -999.2500  -999.2500  -999.2500  -999.2500  -999.2500  -999.2500  -999.2500    43.9028
 4569.5000    57.5148  -999.2500  -999.2500  -999.2500  -999.2500  -999.2500  -999.2500  -999.2500    42.5675
 4570.0000    56.4416  -999.2500  -999.2500  -999.2500  -999.2500  -999.2500  -999.2500  -999.2500    41.5035
 4570.5000    55.8044  -999.2500  -999.2500  -999.2500  -999.2500  -999.2500  -999.2500  -999.2500    41.2424
 4571.0000    55.8471  -999.2500  -999.2500  -999.2500  -999.2500  -999.2500  -999.2500  -999.2500    42.3319
 4571.5000    56.6207  -999.2500  -999.2500  -999.2500  -999.2500  -999.2500  -999.2500  -999.2500    42.8525
 4572.0000    57.4991  -999.2500  -999.2500  -999.2500  -999.2500  -999.2500  -999.2500  -999.2500    41.8008
 4572.5000    57.4577  -999.2500  -999.2500  -999.2500  -999.2500  -999.2500  -999.2500  -999.2500    40.2950
 4573.0000    56.3414  -999.2500  -999.2500  -999.2500  -999.2500  -999.2500  -999.2500  -999.2500    40.2388
 4573.5000    54.8920  -999.2500  -999.2500  -999.2500  -999.2500  -999.2500  -999.2500  -999.2500    40.3380
 4574.0000    56.6395  -999.2500  -999.2500  -999.2500  -999.2500  -999.2500  -999.2500  -999.2500    40.1964
 4574.5000    57.9763  -999.2500  -999.2500  -999.2500  -999.2500  -999.2500  -999.2500  -999.2500    39.4998
 4575.0000    59.0273  -999.2500  -999.2500  -999.2500  -999.2500  -999.2500  -999.2500  -999.2500    38.2685
 4575.5000    59.9580  -999.2500  -999.2500  -999.2500  -999.2500  -999.2500  -999.2500  -999.2500    36.1912
 4576.0000    60.8887  -999.2500  -999.2500  -999.2500  -999.2500  -999.2500  -999.2500  -999.2500    36.6364
 4576.5000    61.3847  -999.2500  -999.2500  -999.2500  -999.2500  -999.2500  -999.2500  -999.2500    39.0767
 4577.0000    59.0120  -999.2500  -999.2500  -999.2500  -999.2500  -999.2500  -999.2500  -999.2500    40.2885
 4577.5000    58.0421  -999.2500  -999.2500  -999.2500  -999.2500  -999.2500  -999.2500  -999.2500    40.5839
 4578.0000    57.6778  -999.2500  -999.2500  -999.2500  -999.2500  -999.2500  -999.2500  -999.2500    41.1528
 4578.5000    58.1116  -999.2500  -999.2500  -999.2500  -999.2500  -999.2500  -999.2500  -999.2500    39.5037
 4579.0000    59.1192  -999.2500  -999.2500  -999.2500  -999.2500  -999.2500  -999.2500  -999.2500    38.1578
 4579.5000    59.6526  -999.2500  -999.2500  -999.2500  -999.2500  -999.2500  -999.2500  -999.2500    39.1952
 4580.0000    57.2371  1925.4629  1935.5039      .5819  -149.8357    13.1625    39.0767  -999.2500    44.0473
 4580.5000    53.0287  1952.0312  1910.1445      .5862  -143.8772    13.3517    38.8366  -999.2500    49.6127
 4581.0000    49.5055  1888.9160  1685.0273      .6824  -139.4102    13.9291    39.2645  -999.2500    53.9937
 4581.5000    46.0950  1635.9434   668.1182     1.2877  -135.3572    14.9573    38.8092  -999.2500    55.6187
 4582.0000    43.6418   809.7598   166.3101     1.6252  -131.2573    17.5838    36.6612      .2719    56.8858
 4582.5000    42.7845     2.5812     4.4371     1.3492  -128.4253    17.4604    34.5945      .0308    58.4581
 4583.0000    42.6206     1.0301      .5984      .7946  -125.9492    16.9437    33.3652      .0195    60.0186
 4583.5000    42.6595      .9181      .4279      .7658  -121.6602    16.5983    33.8301      .0190    61.3605
 4584.0000    42.8303      .9592      .3807      .7658  -119.2615    16.4018    34.0718      .0201    61.7354
 4584.5000    43.2993     1.0662      .4966      .7860  -116.8627    16.7227    33.2530      .0229    61.6467
 4585.0000    41.4985     1.2124      .6113      .8439  -112.9476    17.9436    31.1183      .0252    61.7065
 4585.5000    39.6804     1.3269      .8952      .9777  -105.3414    19.6752    28.8013      .0256    62.2527
 4586.0000    40.2211     1.2906     1.0785     1.0909   -99.1825    19.6252    27.7805      .0194    62.1840
 4586.5000    42.6422     1.2424     1.1929     1.1330   -92.7684    18.9463    28.0981      .0078    61.9109
 4587.0000    44.4100     1.1997     1.1833     1.1593   -84.7354    17.4209    28.4923      .0053    61.8769
 4587.5000    44.8324     1.1660     1.1795     1.0974   -74.4011    16.9874    28.5958      .0051    62.2540
 4588.0000    43.8187     1.1508     1.1757     1.0244   -70.3116    16.9780    28.1450      .0054    62.9205
 4588.5000    40.5255     1.1572     1.1812     1.0058   -68.0378    17.2093    27.2814      .0064    62.3718
 4589.0000    38.4697     1.2057     1.2266     1.0079   -66.4044    17.5007    26.6539      .0075    61.2967
 4589.5000    37.8666     1.2653     1.3050     1.0166   -64.9349    17.6287    26.4568      .0082    60.4637
 4590.0000    39.1096     1.3131     1.3441     1.0217   -63.6985    17.7163    26.4890      .0069    64.7158
 4590.5000    39.3121     1.3407     1.3020     1.0240   -62.9417    17.8016    26.8633      .0037    70.1459
 4591.0000    39.0521     1.2991     1.2217     1.0231   -62.3798    18.0769    27.3252      .0011    73.1160
 4591.5000    38.2366     1.2372     1.2076     1.0025   -61.8445    19.0031    27.6010     -.0005    74.2709
 4592.0000    36.6166     1.1891     1.2054      .9675   -61.3095    19.4820    27.3373      .0001    73.4102
 4592.5000    36.8519     1.1849     1.2068      .9373   -61.0660    19.8274    26.7284      .0032    70.7693
 4593.0000    37.0104     1.1842     1.2096      .9579   -60.8267    20.0676    26.4231      .0063    69.9088
 4593.5000    36.2599     1.1809     1.2125     1.0113   -60.6013    20.1071    26.5037      .0047    69.6456
 4594.0000    34.6118     1.1884     1.2129     1.0785   -60.7458    19.9537    27.8892      .0010    69.7896
 4594.5000    33.0596     1.1955     1.2169     1.1460   -61.3076    19.7160    29.3649     -.0021    70.4127
 4595.0000    33.6410     1.2011     1.2278     1.1782   -62.2798    19.5075    29.8551     -.0048    71.3954
 4595.5000    35.2328     1.2100     1.2400     1.1664   -63.1161    19.3603    30.0307     -.0070    72.8258
 4596.0000    36.8748     1.2250     1.2543     1.1097   -63.3642    19.2572    30.4002     -.0078    74.0779
 4596.5000    36.7159     1.2430     1.2690     1.0592   -63.1792    19.1922    31.1965     -.0078    74.8107
 4597.0000    34.5616     1.2500     1.2766     1.0800   -63.0589    19.1509    32.4606     -.0072    75.1906
 4597.5000    33.0003     1.2650     1.2850     1.1579   -63.5989    19.1552    33.7224     -.0058    75.1959
 4598.0000    32.3068     1.2750     1.2890     1.1855   -64.9597    19.2155    34.4991     -.0004    74.4410
 4598.5000    32.2434     1.2850     1.2940     1.1839   -66.4982    19.3342    32.5779      .0109    73.9153
 4599.0000    32.3047     1.2950     1.2980     1.1679   -67.8134    19.5726    29.0735      .0237    73.8778
 4599.5000    32.4412     1.3020     1.3040     1.1433   -68.4467    19.9648    26.8989      .0293    74.7000
 4600.0000    32.6285     1.3080     1.3070     1.1196   -68.2916    20.3139    24.5522      .0226    76.3685
 4600.5000    32.8861     1.3204     1.3120     1.1058   -67.3259    20.5375    23.4481      .0112    77.2382
 4601.0000    33.3027     1.3196     1.3070     1.1050   -66.1077    20.7067    23.7172      .0051    76.4064
 4601.5000    33.9953     1.3182     1.2992     1.1198   -65.4772    20.9019    23.8566      .0035    75.3333
 4602.0000    34.9074     1.3111     1.2967     1.1118   -65.7695    21.3572    23.6636      .0029    74.4827
 4602.5000    35.8077     1.3040     1.2935     1.0722   -66.0950    22.2787    23.4115      .0032    78.2025
