~VERSION INFORMATION
VERS.                             2.0:   CWLS Log ASCII Standard-VERSION 2.0
WRAP.                              NO:   One line per depth step
~Well Information Block
STRT.F                      4530.0000:   Top Depth
STOP.F                      8517.0000:   Bottom Depth
STEP.F                         .50000:   Depth Increment
NULL.                        -999.250:   Null Value
FLD .                     MU BLK A 16:   Field Name
WELL.       OCSG03011  A005 ST00 BP00:   NAME
API .                    427024017200:   WELL API
R1  .                           38396:   COMMENT  1
EDF .F                       109.0000:   ELEV DRILL FLOOR
COMP.                     OXY USA INC:   OPERATOR
BN  .                            A 16:   BLOCK
CTRY.                             USA:   COUNTRY NAME
CNTY.                        MG ILD L:   COUNTY NAME
EKB .F                       110.0000:   ELEV KELLY BUSHING
TDD .F                       8534.000:   FINAL TD DRILLER
STAT.                           TEXAS:   STATE NAME
UWI .                    427024017200:   WELL API
DICO.               IHS : Digitizing Company
~PARAMETER INFORMATION (zones)
#MNEM.UNIT                       Value     Description
#=========                       =====     ===========
#ZONATION                          CNL:   ZONATION NAME
#ZONE                            RUN_1:   ZONE NAME
TOP .                       4530.0000:   TOP DEPTH
BOT .                       8517.5000:   BOTTOM DEPTH
RUN .                               1:   RUN NUMBER
LCCD.                             440:   LOGGING CONTRACTOR
SRVC.                    Schlumberger:   LOGGING CONT NAME
DICO.          QC Data Collectors Ltd:   DIG COMPANY NAME
LDAT.                      08/24/1989:   DATE LOGGED
ELD .F                       110.0000:   LOG DATUM ELEVATION
TDD .F                      8534.0000:   TOTAL DEPTH DRILLER
TDL .F                      8523.0000:   TOTAL DEPTH LOGGER
BOTL.F                      8517.0000:   BOTTOM DEPTH LOGGED
TOPL.F                      4580.0000:   TOP DEPTH LOGGED
CS1 .IN                       13.3750:   CASING SIZE 1
BS1 .IN                       12.2500:   BIT SIZE 1
DDB1.F                      8534.0000:   DEPTH DRILLED BIT 1
BHF .                              81:   FLUID CODE
DPT .          Lignosulfonate (Ligno):   DRILLING FLUID TYPE
MUDD.                         10.5000:   FLUID DENSITY
MUDV.                         29.0000:   FLUID VISCOSITY
DFPH.                          9.8000:   FLUID PH
FL  .                          6.8000:   FLUID LOSS
RM  .OHMM                       .7680:   RM
RMT .DEGC                     89.0000:   RM TEMP
RMF .OHMM                       .8480:   RMF
RMFT.DEGC                     89.0000:   RMF TEMP
FSC .                               M:   RMF CODE
RMC .OHMM                       .8250:   RMC
RMCT.DEGC                     89.0000:   RMC TEMP
CMC .                               M:   RMC CODE
TMAX.DEGC                    162.0000:   MAX REC TEMP
TIMC.                         16.2500:   TIME SINCE CIRCLN
~PARAMETER INFORMATION (zones)
#MNEM.UNIT                       Value     Description
#=========                       =====     ===========
#ZONATION                          DIL:   ZONATION NAME
#ZONE                            RUN_1:   ZONE NAME
TOP .                       4580.0000:   TOP DEPTH
BOT .                       8517.5000:   BOTTOM DEPTH
RUN .                               1:   RUN NUMBER
LCCD.                             440:   LOGGING CONTRACTOR
SRVC.                    Schlumberger:   LOGGING CONT NAME
DICO.          QC Data Collectors Ltd:   DIG COMPANY NAME
LDAT.                      08/24/1989:   DATE LOGGED
ELD .F                       110.0000:   LOG DATUM ELEVATION
TDD .F                      8534.0000:   TOTAL DEPTH DRILLER
TDL .F                      8523.0000:   TOTAL DEPTH LOGGER
BOTL.F                      8517.0000:   BOTTOM DEPTH LOGGED
TOPL.F                      4580.0000:   TOP DEPTH LOGGED
CS1 .IN                       13.3750:   CASING SIZE 1
BS1 .IN                       12.2500:   BIT SIZE 1
DDB1.F                      8534.0000:   DEPTH DRILLED BIT 1
BHF .                              81:   FLUID CODE
DPT .          Lignosulfonate (Ligno):   DRILLING FLUID TYPE
MUDD.                         10.5000:   FLUID DENSITY
MUDV.                         29.0000:   FLUID VISCOSITY
DFPH.                          9.8000:   FLUID PH
FL  .                          6.8000:   FLUID LOSS
RM  .OHMM                       .7680:   RM
RMT .DEGC                     89.0000:   RM TEMP
RMF .OHMM                       .8480:   RMF
RMFT.DEGC                     89.0000:   RMF TEMP
FSC .                               M:   RMF CODE
RMC .OHMM                       .8250:   RMC
RMCT.DEGC                     89.0000:   RMC TEMP
CMC .                               M:   RMC CODE
TMAX.DEGC                    162.0000:   MAX REC TEMP
TIMC.                         16.2500:   TIME SINCE CIRCLN
~PARAMETER INFORMATION (zones)
#MNEM.UNIT                       Value     Description
#=========                       =====     ===========
#ZONATION                          FDC:   ZONATION NAME
#ZONE                            RUN_1:   ZONE NAME
TOP .                       4530.0000:   TOP DEPTH
BOT .                       8517.5000:   BOTTOM DEPTH
RUN .                               1:   RUN NUMBER
LCCD.                             440:   LOGGING CONTRACTOR
SRVC.                    Schlumberger:   LOGGING CONT NAME
DICO.          QC Data Collectors Ltd:   DIG COMPANY NAME
LDAT.                      08/24/1989:   DATE LOGGED
ELD .F                       110.0000:   LOG DATUM ELEVATION
TDD .F                      8534.0000:   TOTAL DEPTH DRILLER
TDL .F                      8523.0000:   TOTAL DEPTH LOGGER
BOTL.F                      8517.0000:   BOTTOM DEPTH LOGGED
TOPL.F                      4580.0000:   TOP DEPTH LOGGED
CS1 .IN                       13.3750:   CASING SIZE 1
BS1 .IN                       12.2500:   BIT SIZE 1
DDB1.F                      8534.0000:   DEPTH DRILLED BIT 1
BHF .                              81:   FLUID CODE
DPT .          Lignosulfonate (Ligno):   DRILLING FLUID TYPE
MUDD.                         10.5000:   FLUID DENSITY
MUDV.                         29.0000:   FLUID VISCOSITY
DFPH.                          9.8000:   FLUID PH
FL  .                          6.8000:   FLUID LOSS
RM  .OHMM                       .7680:   RM
RMT .DEGC                     89.0000:   RM TEMP
RMF .OHMM                       .8480:   RMF
RMFT.DEGC                     89.0000:   RMF TEMP
FSC .                               M:   RMF CODE
RMC .OHMM                       .8250:   RMC
RMCT.DEGC                     89.0000:   RMC TEMP
CMC .                               M:   RMC CODE
TMAX.DEGC                    162.0000:   MAX REC TEMP
TIMC.                         16.2500:   TIME SINCE CIRCLN
~Curve Information Block
#MNEM.UNIT                    API CODE    No Description
#=========                    ========    == ===========
DEPT.F                   00 001 00 00:     1  DEPTH
NPHI.%                               :     2  Neutron Porosity
ILD.OHMM                             :     3  Deep Induction Resistivity
ILM.OHMM                             :     4  Medium Induction Resistivity
SFL.OHMM                             :     5  Medium Resistivity
SP.MV                                :     6  Spontaneous Potential
CALI.IN                              :     7  Caliper
DPHI.%                               :     8  Porosity
DRHO.G/C3                            :     9  Bulk Density Correction
GR.GAPI                              :    10  Gamma Ray
~ASCII
# ...
 8216.5000    34.6967     1.3375     1.3419     1.2168   -43.1444    13.7576    17.7439      .0058    76.5369
 8217.0000    35.8726     1.3334     1.3389     1.2011   -43.1892    13.7592    17.7757      .0070    77.4463
 8217.5000    36.5826     1.3348     1.3449     1.1813   -43.2320    13.7460    18.0619      .0078    78.7544
 8218.0000    35.3070     1.3337     1.3533     1.1527   -43.2776    13.7290    18.7902      .0079    79.7107
 8218.5000    34.0283     1.3252     1.3456     1.1211   -43.3364    13.7011    19.7759      .0064    79.9983
 8219.0000    33.1724     1.3153     1.3350     1.1055   -43.3953    13.6755    20.5133      .0036    80.1237
 8219.5000    32.0827     1.3037     1.3206     1.1084   -43.4373    13.6523    20.6385      .0004    80.4429
 8220.0000    32.0160     1.2979     1.3104     1.1049   -43.4760    13.6304    20.6178     -.0023    83.0825
 8220.5000    34.2310     1.2980     1.3024     1.0960   -43.5086    13.6091    20.6857     -.0043    84.4974
 8221.0000    35.5021     1.2943     1.2972     1.0851   -43.4856    13.6105    20.7051     -.0034    82.6786
 8221.5000    36.4379     1.2889     1.2937     1.0760   -43.4625    13.6111    20.3156     -.0011    80.7687
 8222.0000    36.5986     1.2825     1.2984     1.0728   -43.4513    13.6087    19.8742      .0011    78.8077
 8222.5000    35.0405     1.2775     1.3192     1.0945   -43.4578    13.5815    19.4102      .0027    78.3666
 8223.0000    33.9471     1.2746     1.3330     1.1327   -43.4644    13.5521    18.9673      .0042    78.3092
 8223.5000    33.6028     1.2786     1.3315     1.1703   -43.4540    13.5228    18.5785      .0045    78.3683
 8224.0000    34.2622     1.2860     1.3215     1.1733   -43.4420    13.5224    18.5968      .0041    78.5400
 8224.5000    35.1840     1.2877     1.3126     1.1762   -43.4230    13.5225    19.1957      .0030    78.7394
 8225.0000    36.3553     1.2813     1.3031     1.1593   -43.3985    13.5244    19.8368      .0032    79.0918
 8225.5000    37.2708     1.2629     1.2921     1.1410   -43.3740    13.5249    20.1756      .0037    79.5393
 8226.0000    37.9290     1.2459     1.2832     1.1199   -43.3802    13.5177    20.4907      .0050    80.0951
 8226.5000    38.2230     1.2312     1.2748     1.0966   -43.3883    13.5126    20.7383      .0063    80.9159
 8227.0000    38.1656     1.2243     1.2670     1.0711   -43.3887    13.5110    20.9535      .0070    81.6403
 8227.5000    37.3753     1.2192     1.2623     1.0449   -43.3590    13.5266    20.9748      .0077    82.2592
 8228.0000    36.2118     1.2191     1.2609     1.0271   -43.3293    13.5092    20.5800      .0054    81.6389
 8228.5000    34.7660     1.2297     1.2765     1.0468   -43.2749    13.4714    19.7861      .0004    80.0494
 8229.0000    33.4153     1.2455     1.2939     1.0996   -43.2158    13.4303    19.1606     -.0045    78.0404
 8229.5000    33.1423     1.2529     1.3088     1.1463   -43.1714    13.4121    18.6475     -.0077    75.2574
 8230.0000    33.5790     1.2578     1.3104     1.1697   -43.1302    13.4456    18.2537     -.0099    74.3572
 8230.5000    33.8828     1.2503     1.3064     1.1897   -43.0630    13.4689    19.1552     -.0090    73.5559
 8231.0000    33.4660     1.2426     1.2970     1.1757   -42.9904    13.4690    20.2727     -.0082    73.9858
 8231.5000    33.1451     1.2300     1.2864     1.1619   -42.9038    13.4468    20.8576     -.0063    76.4119
 8232.0000    34.8143     1.2159     1.2706     1.1221   -43.0240    13.4198    21.3972     -.0041    77.7603
 8232.5000    36.3927     1.1997     1.2544     1.0828   -43.3723    13.3862    21.7579     -.0009    77.6027
 8233.0000    37.4019     1.1936     1.2377     1.0507   -43.7482    13.3863    21.9608      .0023    77.5378
 8233.5000    37.8363     1.1862     1.2212     1.0255   -44.0418    13.4065    22.1184      .0043    82.7360
 8234.0000    37.4127     1.1769     1.2102     1.0134   -44.2069    13.4261    22.1872      .0055    85.8315
 8234.5000    36.7226     1.1650     1.1995     1.0022   -44.3377    13.4409    21.9642      .0064    87.1345
 8235.0000    36.7133     1.1564     1.1993      .9944   -44.4421    13.4556    21.3021      .0073    87.3495
 8235.5000    37.1624     1.1493     1.2035      .9867   -44.4944    13.4619    20.6408      .0080    85.9307
 8236.0000    37.5695     1.1463     1.2205      .9923   -44.4962    13.4678    20.0957      .0081    83.7705
 8236.5000    38.1169     1.1530     1.2341     1.0415   -44.4516    13.4767    19.5662      .0057    81.5581
 8237.0000    37.6155     1.1608     1.2433     1.0896   -44.3720    13.4895    19.2478      .0029    80.1746
 8237.5000    36.6306     1.1684     1.2488     1.0993   -44.3256    13.5019    19.1164      .0005    78.6449
 8238.0000    37.2458     1.1725     1.2545     1.0975   -44.3068    13.5128    20.0177     -.0005    80.8702
 8238.5000    38.1010     1.1748     1.2622     1.0783   -44.3391    13.5230    20.9348     -.0011    83.9060
 8239.0000    38.2378     1.1762     1.2699     1.0622   -44.4109    13.5092    21.4951     -.0010    85.5775
 8239.5000    37.8861     1.1773     1.2715     1.0522   -44.5580    13.4294    21.4409     -.0009    86.2909
 8240.0000    37.1819     1.1785     1.2724     1.0562   -44.6487    13.3565    21.1953     -.0014    86.2538
 8240.5000    35.8874     1.1797     1.2666     1.0647   -44.5959    13.3019    20.9792     -.0007    84.4818
 8241.0000    35.7189     1.1819     1.2605     1.0745   -44.5511    13.2496    20.7945      .0009    81.1934
 8241.5000    37.2615     1.1840     1.2538     1.1136   -44.5099    13.2008    20.7038      .0023    78.5902
 8242.0000    38.1599     1.1860     1.2489     1.1427   -44.5169    13.1659    20.6612      .0021    77.0894
 8242.5000    38.6738     1.1880     1.2452     1.1244   -44.5656    13.1475    20.7274      .0017    76.3760
 8243.0000    39.4497     1.1870     1.2424     1.0868   -44.6813    13.1750    20.7937      .0004    77.2222
 8243.5000    40.2592     1.1858     1.2400     1.0528   -44.7846    13.2066    20.9952     -.0009    79.0670
 8244.0000    41.2386     1.1850     1.2380     1.0394   -44.8740    13.2364    21.1180     -.0026    80.8884
 8244.5000    40.6194     1.1845     1.2367     1.0366   -44.9567    13.2633    21.0429     -.0041    82.5483
 8245.0000    38.4796     1.1840     1.2353     1.0238   -45.0341    13.2826    20.9706     -.0053    83.8512
 8245.5000    35.9997     1.1840     1.2359     1.0215   -45.0974    13.3178    20.8706     -.0060    84.6444
 8246.0000    35.9560     1.1846     1.2367     1.0333   -45.1207    13.3670    20.7570     -.0060    84.6565
 8246.5000    36.9121     1.1852     1.2392     1.0750   -45.1440    13.4492    20.6665     -.0058    83.4277
 8247.0000    36.7164     1.1898     1.2427     1.1150   -45.0912    13.5275    20.5866     -.0049    81.7693
 8247.5000    36.1447     1.1943     1.2476     1.1401   -45.0262    13.5666    20.5690     -.0039    79.4528
 8248.0000    35.8448     1.2009     1.2533     1.1151   -44.9804    13.5938    20.5681     -.0015    76.5968
 8248.5000    36.0543     1.2086     1.2638     1.0737   -44.9534    13.5833    20.6264      .0009    75.5468
 8249.0000    36.6462     1.2202     1.2777     1.0398   -44.9265    13.5701    20.6910      .0016    77.5818
 8249.5000    37.1172     1.2346     1.2967     1.0162   -44.8994    13.5439    20.7032      .0003    79.3694
 8250.0000    37.5836     1.2574     1.3208     1.0186   -44.8724    13.5249    20.4232     -.0013    81.4409
 8250.5000    35.3852     1.2853     1.3602     1.0666   -44.7993    13.5278    19.9046     -.0018    83.8473
 8251.0000    33.5292     1.3176     1.4133     1.1223   -44.6810    13.5387    19.1934     -.0009    83.1034
 8251.5000    31.8665     1.3510     1.4556     1.1844   -44.5665    13.5429    18.4830      .0002    81.6520
 8252.0000    30.9604     1.3855     1.4886     1.2435   -44.4897    13.5410    17.8427      .0017    79.9296
 8252.5000    30.3529     1.4162     1.5144     1.3005   -44.4131    13.5441    17.2345      .0035    78.4860
