~VERSION INFORMATION
VERS.                                                 2.0:   CWLS Log ASCII Standard-VERSION 2.0
WRAP.                                                  NO:   One line per depth step
~Well Information Block
STRT.F                                          1471.0000:   Top Depth
STOP.F                                         12100.0000:   Bottom Depth
STEP.F                                             .50000:   Depth Increment
NULL.                                            -999.250:   Null Value
FLD .                                        MU BLK A 175:   Field Name
WELL.                           OCSG03931   001 ST00 BP00:   NAME
API .                                        427124004600:   WELL API
EDF .F                                            85.0000:   ELEV DRILL FLOOR
COMP.                                GULF OIL CORPORATION:   OPERATOR
BN  .                                               A 175:   BLOCK
CTRY.                                                 USA:   COUNTRY NAME
CNTY.                                            M I E AD:   COUNTY NAME
EKB .F                                            86.0000:   ELEV KELLY BUSHING
TDD .F                                          12102.000:   FINAL TD DRILLER
STAT.                                               TEXAS:   STATE NAME
UWI .                                        427124004600:   WELL API
DICO.               IHS : Digitizing Company
~PARAMETER INFORMATION (zones)
#MNEM.UNIT                       Value     Description
#=========                       =====     ===========
#ZONATION                          CNL:   ZONATION NAME
#ZONE                            RUN_2:   ZONE NAME
TOP .                       3452.0000:   TOP DEPTH
BOT .                      12100.5000:   BOTTOM DEPTH
RUN .                               2:   RUN NUMBER
LCCD.                             440:   LOGGING CONTRACTOR
SRVC.                    Schlumberger:   LOGGING CONT NAME
DICO.          QC Data Collectors Ltd:   DIG COMPANY NAME
LDAT.                      06/16/1981:   DATE LOGGED
ELD .F                        86.0000:   LOG DATUM ELEVATION
TDD .F                      7546.0000:   TOTAL DEPTH DRILLER
TDL .F                      7545.0000:   TOTAL DEPTH LOGGER
BOTL.F                     12100.0000:   BOTTOM DEPTH LOGGED
TOPL.F                      3504.0000:   TOP DEPTH LOGGED
CS1 .IN                        9.6250:   CASING SIZE 1
BS1 .IN                       12.2500:   BIT SIZE 1
DDB1.F                      7546.0000:   DEPTH DRILLED BIT 1
BHF .                              99:   FLUID CODE
DPT .                   Miscellaneous:   DRILLING FLUID TYPE
MUDD.                         14.0000:   FLUID DENSITY
MUDV.                         42.0000:   FLUID VISCOSITY
DFPH.                         11.0000:   FLUID PH
FL  .                          4.8000:   FLUID LOSS
RM  .OHMM                       .7300:   RM
RMT .DEGF                     74.0000:   RM TEMP
RMF .OHMM                       .4600:   RMF
RMFT.DEGF                     74.0000:   RMF TEMP
FSC .                               M:   RMF CODE
RMC .OHMM                      1.1200:   RMC
RMCT.DEGF                     74.0000:   RMC TEMP
CMC .                               M:   RMC CODE
TMAX.DEGF                    168.0000:   MAX REC TEMP
TIMC.                          7.0000:   TIME SINCE CIRCLN
~PARAMETER INFORMATION (zones)
#MNEM.UNIT                       Value     Description
#=========                       =====     ===========
#ZONATION                          DIL:   ZONATION NAME
#ZONE                            RUN_1:   ZONE NAME
TOP .                       1471.0000:   TOP DEPTH
BOT .                      12095.5000:   BOTTOM DEPTH
RUN .                               1:   RUN NUMBER
LCCD.                             440:   LOGGING CONTRACTOR
SRVC.                    Schlumberger:   LOGGING CONT NAME
DICO.          QC Data Collectors Ltd:   DIG COMPANY NAME
LDAT.                      05/25/1981:   DATE LOGGED
ELD .F                        86.0000:   LOG DATUM ELEVATION
TDD .F                      4590.0000:   TOTAL DEPTH DRILLER
TDL .F                      3529.0000:   TOTAL DEPTH LOGGER
BOTL.F                     12095.0000:   BOTTOM DEPTH LOGGED
TOPL.F                      1471.0000:   TOP DEPTH LOGGED
CS1 .IN                       20.0000:   CASING SIZE 1
BS1 .IN                       12.2500:   BIT SIZE 1
DDB1.F                      4590.0000:   DEPTH DRILLED BIT 1
BHF .                              99:   FLUID CODE
DPT .                   Miscellaneous:   DRILLING FLUID TYPE
MUDD.                         11.4000:   FLUID DENSITY
MUDV.                         44.0000:   FLUID VISCOSITY
DFPH.                         11.0000:   FLUID PH
FL  .                         10.0000:   FLUID LOSS
RM  .OHMM                       .5200:   RM
RMT .DEGF                     75.0000:   RM TEMP
RMF .OHMM                       .3500:   RMF
RMFT.DEGF                     75.0000:   RMF TEMP
FSC .                               M:   RMF CODE
RMC .OHMM                       .8800:   RMC
RMCT.DEGF                     75.0000:   RMC TEMP
CMC .                               M:   RMC CODE
TMAX.DEGF                    125.0000:   MAX REC TEMP
TIMC.                         14.0000:   TIME SINCE CIRCLN
~PARAMETER INFORMATION (zones)
#MNEM.UNIT                       Value     Description
#=========                       =====     ===========
#ZONATION                          FDC:   ZONATION NAME
#ZONE                            RUN_4:   ZONE NAME
TOP .                      11080.0000:   TOP DEPTH
BOT .                      12095.0000:   BOTTOM DEPTH
RUN .                               4:   RUN NUMBER
LCCD.                             440:   LOGGING CONTRACTOR
SRVC.                    Schlumberger:   LOGGING CONT NAME
DICO.          QC Data Collectors Ltd:   DIG COMPANY NAME
LDAT.                      07/06/1981:   DATE LOGGED
ELD .F                        86.0000:   LOG DATUM ELEVATION
TDD .F                     12100.0000:   TOTAL DEPTH DRILLER
TDL .F                     12102.0000:   TOTAL DEPTH LOGGER
BOTL.F                     12095.0000:   BOTTOM DEPTH LOGGED
TOPL.F                     11080.0000:   TOP DEPTH LOGGED
CS1 .IN                        9.6250:   CASING SIZE 1
BS1 .IN                        8.5000:   BIT SIZE 1
DDB1.F                     12100.0000:   DEPTH DRILLED BIT 1
BHF .                              99:   FLUID CODE
DPT .                   Miscellaneous:   DRILLING FLUID TYPE
MUDD.                         15.7000:   FLUID DENSITY
MUDV.                         50.0000:   FLUID VISCOSITY
DFPH.                         11.0000:   FLUID PH
FL  .                          4.2000:   FLUID LOSS
RM  .OHMM                      1.2000:   RM
RMT .DEGF                     90.0000:   RM TEMP
RMF .OHMM                       .6600:   RMF
RMFT.DEGF                     78.0000:   RMF TEMP
FSC .                               M:   RMF CODE
RMC .OHMM                      1.4200:   RMC
RMCT.DEGF                     78.0000:   RMC TEMP
CMC .                               M:   RMC CODE
TMAX.DEGF                    277.0000:   MAX REC TEMP
TIMC.                         20.0000:   TIME SINCE CIRCLN
~PARAMETER INFORMATION (zones)
#MNEM.UNIT                       Value     Description
#=========                       =====     ===========
#ZONATION                          FDC:   ZONATION NAME
#ZONE                            RUN_2:   ZONE NAME
TOP .                       3504.0000:   TOP DEPTH
BOT .                      12100.5000:   BOTTOM DEPTH
RUN .                               2:   RUN NUMBER
LCCD.                             440:   LOGGING CONTRACTOR
SRVC.                    Schlumberger:   LOGGING CONT NAME
DICO.          QC Data Collectors Ltd:   DIG COMPANY NAME
LDAT.                      06/16/1981:   DATE LOGGED
ELD .F                        86.0000:   LOG DATUM ELEVATION
TDD .F                      7546.0000:   TOTAL DEPTH DRILLER
TDL .F                      7545.0000:   TOTAL DEPTH LOGGER
BOTL.F                     12100.0000:   BOTTOM DEPTH LOGGED
TOPL.F                      3504.0000:   TOP DEPTH LOGGED
CS1 .IN                        9.6250:   CASING SIZE 1
BS1 .IN                       12.2500:   BIT SIZE 1
DDB1.F                      7546.0000:   DEPTH DRILLED BIT 1
BHF .                              99:   FLUID CODE
DPT .                   Miscellaneous:   DRILLING FLUID TYPE
MUDD.                         14.0000:   FLUID DENSITY
MUDV.                         42.0000:   FLUID VISCOSITY
DFPH.                         11.0000:   FLUID PH
FL  .                          4.8000:   FLUID LOSS
RM  .OHMM                       .7300:   RM
RMT .DEGF                     74.0000:   RM TEMP
RMF .OHMM                       .4600:   RMF
RMFT.DEGF                     74.0000:   RMF TEMP
FSC .                               M:   RMF CODE
RMC .OHMM                      1.1200:   RMC
RMCT.DEGF                     74.0000:   RMC TEMP
CMC .                               M:   RMC CODE
TMAX.DEGF                    168.0000:   MAX REC TEMP
TIMC.                          7.0000:   TIME SINCE CIRCLN
~Curve Information Block
#MNEM.UNIT                                        API CODE    No Description
#=========                                        ========    == ===========
DEPT.F                                       00 001 00 00:     1  DEPTH
CALI.IN                                                  :     2  Caliper
NPHI.%                                                   :     3  Neutron Porosity
CILD.MMHO                                                :     4  Deep Induction Conductivity
DT.US/F                                                  :     5  Sonic Transit Time
GR.GAPI                                                  :     6  Gamma Ray
ILD.OHMM                                                 :     7  Deep Induction Resistivity
SFL.OHMM                                                 :     8  Medium Resistivity
SP.MV                                                    :     9  Spontaneous Potential
DPHI.%                                                   :    10  Porosity
~ASCII
 1471.0000  -999.2500  -999.2500    43.5076   207.1763    36.6747    21.6747  -999.2500   -81.9652  -999.2500
 1471.5000  -999.2500  -999.2500  1051.4023   201.8521    40.2864     8.2761  -999.2500   -83.7441  -999.2500
 1472.0000  -999.2500  -999.2500  1574.3125   202.4944    44.3405     2.3062      .4555   -84.8408  -999.2500
 1472.5000  -999.2500  -999.2500  1619.4766   209.3799    47.1558     1.5124      .5369   -85.6344  -999.2500
 1473.0000  -999.2500  -999.2500  1663.4160   210.9812    50.3577     1.0156      .5923   -86.3281  -999.2500
 1473.5000  -999.2500  -999.2500  1719.4277   208.6755    52.1052      .7097      .6157   -87.0647  -999.2500
 1474.0000  -999.2500  -999.2500  1772.3398   217.6104    51.5540      .5722      .6273   -87.6472  -999.2500
 1474.5000  -999.2500  -999.2500  1507.3887   224.1667    49.8216      .5878      .6405   -88.0138  -999.2500
 1475.0000  -999.2500  -999.2500  1413.3301   225.1868    49.1431      .6307      .7272   -88.2543  -999.2500
 1475.5000  -999.2500  -999.2500  1363.0625   208.8767    49.7174      .6801      .7842   -88.4039  -999.2500
 1476.0000  -999.2500  -999.2500  1335.3965   192.3840    50.6778      .7262      .8416   -88.5101  -999.2500
 1476.5000  -999.2500  -999.2500  1312.2891   203.3550    51.7426      .7537      .8734   -88.6243  -999.2500
 1477.0000  -999.2500  -999.2500  1295.6973   248.3386    52.8557      .7667      .9146   -88.8000  -999.2500
 1477.5000  -999.2500  -999.2500  1281.5859  -999.2500    53.9936      .7787      .9701   -88.9540  -999.2500
 1478.0000  -999.2500  -999.2500  1267.4746   249.6199    54.9873      .7889      .9770   -89.0946  -999.2500
 1478.5000  -999.2500  -999.2500  1256.6348   218.0469    54.8220      .7992      .9206   -89.2117  -999.2500
 1479.0000  -999.2500  -999.2500  1246.5859   204.7666    53.5076      .8090      .8598   -89.2968  -999.2500
 1479.5000  -999.2500  -999.2500  1236.5371   200.3477    52.9676      .8190      .8120   -89.3451  -999.2500
 1480.0000  -999.2500  -999.2500  1226.4883   193.7092    52.9664      .8213      .7797   -89.3983  -999.2500
 1480.5000  -999.2500  -999.2500  1214.1992   179.8096    52.2372      .8223      .7615   -89.5236  -999.2500
 1481.0000  -999.2500  -999.2500  1205.8418   170.6001    50.1678      .8186      .7360   -89.6445  -999.2500
 1481.5000  -999.2500  -999.2500  1225.8906   167.5996    48.3998      .8121      .7316   -89.6700  -999.2500
 1482.0000  -999.2500  -999.2500  1245.9395   170.9202    47.6217      .8011      .7380   -89.8881  -999.2500
 1482.5000  -999.2500  -999.2500  1282.2617   176.8181    48.3226      .7833      .7429   -90.0945  -999.2500
 1483.0000  -999.2500  -999.2500  1319.6289   188.7185    49.5260      .7650      .7437   -90.0468  -999.2500
 1483.5000  -999.2500  -999.2500  1345.3984   192.5520    48.4344      .7489      .7252   -89.8577  -999.2500
 1484.0000  -999.2500  -999.2500  1366.1465   182.0676    46.5899      .7376      .6808   -89.6855  -999.2500
 1484.5000  -999.2500  -999.2500  1381.0176   174.1357    44.1423      .7315      .6244   -89.7052  -999.2500
 1485.0000  -999.2500  -999.2500  1389.7559   173.8440    42.9269      .7289      .5849   -89.8445  -999.2500
 1485.5000  -999.2500  -999.2500  1391.6426   188.1189    42.1891      .7279      .5570   -89.8512  -999.2500
 1486.0000  -999.2500  -999.2500  1386.7832   196.7056    41.3477      .7281      .5540   -89.7227  -999.2500
 1486.5000  -999.2500  -999.2500  1376.5723   199.3855    39.9171      .7307      .5679   -89.3547  -999.2500
 1487.0000  -999.2500  -999.2500  1361.8340   197.1799    38.1778      .7344      .5822   -89.0790  -999.2500
 1487.5000  -999.2500  -999.2500  1347.0918   196.7615    37.4457      .7396      .5978   -88.9690  -999.2500
 1488.0000  -999.2500  -999.2500  1332.3535   197.3855    37.1257      .7524      .6127   -88.9740  -999.2500
 1488.5000  -999.2500  -999.2500  1308.8418   192.7187    37.3563      .7680      .6257   -88.8254  -999.2500
 1489.0000  -999.2500  -999.2500  1274.9160   186.3555    37.9966      .7899      .6294   -88.9050  -999.2500
 1489.5000  -999.2500  -999.2500  1251.6172   184.6523    39.1829      .8112      .6269   -89.1219  -999.2500
 1490.0000  -999.2500  -999.2500  1237.2090   185.3003    40.6345      .8154      .6227   -89.4219  -999.2500
 1490.5000  -999.2500  -999.2500  1223.2031   181.0305    41.9186      .8165      .6235   -89.5015  -999.2500
 1491.0000  -999.2500  -999.2500  1235.3965   174.1799    42.3844      .7983      .6248   -89.3704  -999.2500
 1491.5000  -999.2500  -999.2500  1247.5898   170.0852    41.9332      .7801      .6269   -89.2959  -999.2500
 1492.0000  -999.2500  -999.2500  1259.7793   166.7458    41.1736      .7697      .6230   -89.2891  -999.2500
 1492.5000  -999.2500  -999.2500  1271.9727   171.5552    40.3062      .7745      .6170   -89.2821  -999.2500
 1493.0000  -999.2500  -999.2500  1284.1660   172.1760    39.8364      .7555      .6133   -89.4447  -999.2500
 1493.5000  -999.2500  -999.2500  1294.2227   167.7659    39.0449      .7526      .6096   -89.6118  -999.2500
 1494.0000  -999.2500  -999.2500  1303.8613   167.6333    37.8901      .7514      .6060   -89.8314  -999.2500
 1494.5000  -999.2500  -999.2500  1313.4805   177.2373    37.1610      .7516      .6024   -90.0724  -999.2500
 1495.0000  -999.2500  -999.2500  1322.7461   181.0212    37.5561      .7507      .6114   -90.3024  -999.2500
 1495.5000  -999.2500  -999.2500  1332.0098   183.6292    39.0599      .7464      .6241   -90.4775  -999.2500
 1496.0000  -999.2500  -999.2500  1325.9961   184.3125    40.3945      .7450      .6286   -90.6584  -999.2500
 1496.5000  -999.2500  -999.2500  1312.4336   183.5332    40.6753      .7469      .6332   -90.8590  -999.2500
 1497.0000  -999.2500  -999.2500  1298.8691   182.7122    40.0682      .7572      .6368   -91.0770  -999.2500
 1497.5000  -999.2500  -999.2500  1285.3086   182.6931    40.8295      .7674      .6369   -91.3035  -999.2500
 1498.0000  -999.2500  -999.2500  1271.7441   182.4194    43.3346      .7774      .6432   -91.3605  -999.2500
 1498.5000  -999.2500  -999.2500  1263.7910   181.5347    45.7033      .7874      .6610   -91.2004  -999.2500
 1499.0000  -999.2500  -999.2500  1255.8574   180.4307    47.2885      .7945      .6808   -90.9524  -999.2500
 1499.5000  -999.2500  -999.2500  1247.9238   179.3264    46.6142      .8009      .6909   -90.5984  -999.2500
 1500.0000  -999.2500  -999.2500  1239.9883   178.3533    45.3669      .8072      .6946   -90.3082  -999.2500
 1500.5000  -999.2500  -999.2500  1232.0547   177.6199    44.5399      .8119      .6903   -90.2003  -999.2500
 1501.0000  -999.2500  -999.2500  1224.1211   177.3894    45.1518      .8165      .6877   -90.2758  -999.2500
 1501.5000  -999.2500  -999.2500  1216.1875   177.7917    46.4692      .8198      .6857   -90.2831  -999.2500
 1502.0000  -999.2500  -999.2500  1216.1367   178.4204    48.1487      .8222      .6833   -90.0685  -999.2500
 1502.5000  -999.2500  -999.2500  1216.3633   179.2065    50.0873      .8246      .6854   -90.3198  -999.2500
 1503.0000  -999.2500  -999.2500  1222.9570   179.9932    51.7946      .8242      .6922   -90.7365  -999.2500
 1503.5000  -999.2500  -999.2500  1229.5508   180.7793    51.7417      .8238      .7015   -91.0731  -999.2500
 1504.0000  -999.2500  -999.2500  1236.1465   181.1716    49.7291      .8209      .7115   -91.3754  -999.2500
 1504.5000  -999.2500  -999.2500  1238.3906   180.9727    47.6308      .8165      .7177   -91.4636  -999.2500
 1505.0000  -999.2500  -999.2500  1238.7422   180.5850    46.5409      .8159      .7193   -91.5479  -999.2500
 1505.5000  -999.2500  -999.2500  1239.0957   179.9663    46.5128      .8157      .7146   -91.7408  -999.2500
 1506.0000  -999.2500  -999.2500  1239.4492   178.8118    47.7380      .8195      .7150   -91.7946  -999.2500
 1506.5000  -999.2500  -999.2500  1231.9980   177.9133    48.8409      .8236      .7264   -91.7112  -999.2500
 1507.0000  -999.2500  -999.2500  1218.9590   178.0872    49.4776      .8282      .7379   -91.7241  -999.2500
