~VERSION INFORMATION
VERS.                                                 2.0:   CWLS Log ASCII Standard-VERSION 2.0
WRAP.                                                  NO:   One line per depth step
~Well Information Block
STRT.F                                          1471.0000:   Top Depth
STOP.F                                         12100.0000:   Bottom Depth
STEP.F                                             .50000:   Depth Increment
NULL.                                            -999.250:   Null Value
FLD .                                        MU BLK A 175:   Field Name
WELL.                           OCSG03931   001 ST00 BP00:   NAME
API .                                        427124004600:   WELL API
EDF .F                                            85.0000:   ELEV DRILL FLOOR
COMP.                                GULF OIL CORPORATION:   OPERATOR
BN  .                                               A 175:   BLOCK
CTRY.                                                 USA:   COUNTRY NAME
CNTY.                                            M I E AD:   COUNTY NAME
EKB .F                                            86.0000:   ELEV KELLY BUSHING
TDD .F                                          12102.000:   FINAL TD DRILLER
STAT.                                               TEXAS:   STATE NAME
UWI .                                        427124004600:   WELL API
DICO.               IHS : Digitizing Company
~PARAMETER INFORMATION (zones)
#MNEM.UNIT                       Value     Description
#=========                       =====     ===========
#ZONATION                          CNL:   ZONATION NAME
#ZONE                            RUN_2:   ZONE NAME
TOP .                       3452.0000:   TOP DEPTH
BOT .                      12100.5000:   BOTTOM DEPTH
RUN .                               2:   RUN NUMBER
LCCD.                             440:   LOGGING CONTRACTOR
SRVC.                    Schlumberger:   LOGGING CONT NAME
DICO.          QC Data Collectors Ltd:   DIG COMPANY NAME
LDAT.                      06/16/1981:   DATE LOGGED
ELD .F                        86.0000:   LOG DATUM ELEVATION
TDD .F                      7546.0000:   TOTAL DEPTH DRILLER
TDL .F                      7545.0000:   TOTAL DEPTH LOGGER
BOTL.F                     12100.0000:   BOTTOM DEPTH LOGGED
TOPL.F                      3504.0000:   TOP DEPTH LOGGED
CS1 .IN                        9.6250:   CASING SIZE 1
BS1 .IN                       12.2500:   BIT SIZE 1
DDB1.F                      7546.0000:   DEPTH DRILLED BIT 1
BHF .                              99:   FLUID CODE
DPT .                   Miscellaneous:   DRILLING FLUID TYPE
MUDD.                         14.0000:   FLUID DENSITY
MUDV.                         42.0000:   FLUID VISCOSITY
DFPH.                         11.0000:   FLUID PH
FL  .                          4.8000:   FLUID LOSS
RM  .OHMM                       .7300:   RM
RMT .DEGF                     74.0000:   RM TEMP
RMF .OHMM                       .4600:   RMF
RMFT.DEGF                     74.0000:   RMF TEMP
FSC .                               M:   RMF CODE
RMC .OHMM                      1.1200:   RMC
RMCT.DEGF                     74.0000:   RMC TEMP
CMC .                               M:   RMC CODE
TMAX.DEGF                    168.0000:   MAX REC TEMP
TIMC.                          7.0000:   TIME SINCE CIRCLN
~PARAMETER INFORMATION (zones)
#MNEM.UNIT                       Value     Description
#=========                       =====     ===========
#ZONATION                          DIL:   ZONATION NAME
#ZONE                            RUN_1:   ZONE NAME
TOP .                       1471.0000:   TOP DEPTH
BOT .                      12095.5000:   BOTTOM DEPTH
RUN .                               1:   RUN NUMBER
LCCD.                             440:   LOGGING CONTRACTOR
SRVC.                    Schlumberger:   LOGGING CONT NAME
DICO.          QC Data Collectors Ltd:   DIG COMPANY NAME
LDAT.                      05/25/1981:   DATE LOGGED
ELD .F                        86.0000:   LOG DATUM ELEVATION
TDD .F                      4590.0000:   TOTAL DEPTH DRILLER
TDL .F                      3529.0000:   TOTAL DEPTH LOGGER
BOTL.F                     12095.0000:   BOTTOM DEPTH LOGGED
TOPL.F                      1471.0000:   TOP DEPTH LOGGED
CS1 .IN                       20.0000:   CASING SIZE 1
BS1 .IN                       12.2500:   BIT SIZE 1
DDB1.F                      4590.0000:   DEPTH DRILLED BIT 1
BHF .                              99:   FLUID CODE
DPT .                   Miscellaneous:   DRILLING FLUID TYPE
MUDD.                         11.4000:   FLUID DENSITY
MUDV.                         44.0000:   FLUID VISCOSITY
DFPH.                         11.0000:   FLUID PH
FL  .                         10.0000:   FLUID LOSS
RM  .OHMM                       .5200:   RM
RMT .DEGF                     75.0000:   RM TEMP
RMF .OHMM                       .3500:   RMF
RMFT.DEGF                     75.0000:   RMF TEMP
FSC .                               M:   RMF CODE
RMC .OHMM                       .8800:   RMC
RMCT.DEGF                     75.0000:   RMC TEMP
CMC .                               M:   RMC CODE
TMAX.DEGF                    125.0000:   MAX REC TEMP
TIMC.                         14.0000:   TIME SINCE CIRCLN
~PARAMETER INFORMATION (zones)
#MNEM.UNIT                       Value     Description
#=========                       =====     ===========
#ZONATION                          FDC:   ZONATION NAME
#ZONE                            RUN_4:   ZONE NAME
TOP .                      11080.0000:   TOP DEPTH
BOT .                      12095.0000:   BOTTOM DEPTH
RUN .                               4:   RUN NUMBER
LCCD.                             440:   LOGGING CONTRACTOR
SRVC.                    Schlumberger:   LOGGING CONT NAME
DICO.          QC Data Collectors Ltd:   DIG COMPANY NAME
LDAT.                      07/06/1981:   DATE LOGGED
ELD .F                        86.0000:   LOG DATUM ELEVATION
TDD .F                     12100.0000:   TOTAL DEPTH DRILLER
TDL .F                     12102.0000:   TOTAL DEPTH LOGGER
BOTL.F                     12095.0000:   BOTTOM DEPTH LOGGED
TOPL.F                     11080.0000:   TOP DEPTH LOGGED
CS1 .IN                        9.6250:   CASING SIZE 1
BS1 .IN                        8.5000:   BIT SIZE 1
DDB1.F                     12100.0000:   DEPTH DRILLED BIT 1
BHF .                              99:   FLUID CODE
DPT .                   Miscellaneous:   DRILLING FLUID TYPE
MUDD.                         15.7000:   FLUID DENSITY
MUDV.                         50.0000:   FLUID VISCOSITY
DFPH.                         11.0000:   FLUID PH
FL  .                          4.2000:   FLUID LOSS
RM  .OHMM                      1.2000:   RM
RMT .DEGF                     90.0000:   RM TEMP
RMF .OHMM                       .6600:   RMF
RMFT.DEGF                     78.0000:   RMF TEMP
FSC .                               M:   RMF CODE
RMC .OHMM                      1.4200:   RMC
RMCT.DEGF                     78.0000:   RMC TEMP
CMC .                               M:   RMC CODE
TMAX.DEGF                    277.0000:   MAX REC TEMP
TIMC.                         20.0000:   TIME SINCE CIRCLN
~PARAMETER INFORMATION (zones)
#MNEM.UNIT                       Value     Description
#=========                       =====     ===========
#ZONATION                          FDC:   ZONATION NAME
#ZONE                            RUN_2:   ZONE NAME
TOP .                       3504.0000:   TOP DEPTH
BOT .                      12100.5000:   BOTTOM DEPTH
RUN .                               2:   RUN NUMBER
LCCD.                             440:   LOGGING CONTRACTOR
SRVC.                    Schlumberger:   LOGGING CONT NAME
DICO.          QC Data Collectors Ltd:   DIG COMPANY NAME
LDAT.                      06/16/1981:   DATE LOGGED
ELD .F                        86.0000:   LOG DATUM ELEVATION
TDD .F                      7546.0000:   TOTAL DEPTH DRILLER
TDL .F                      7545.0000:   TOTAL DEPTH LOGGER
BOTL.F                     12100.0000:   BOTTOM DEPTH LOGGED
TOPL.F                      3504.0000:   TOP DEPTH LOGGED
CS1 .IN                        9.6250:   CASING SIZE 1
BS1 .IN                       12.2500:   BIT SIZE 1
DDB1.F                      7546.0000:   DEPTH DRILLED BIT 1
BHF .                              99:   FLUID CODE
DPT .                   Miscellaneous:   DRILLING FLUID TYPE
MUDD.                         14.0000:   FLUID DENSITY
MUDV.                         42.0000:   FLUID VISCOSITY
DFPH.                         11.0000:   FLUID PH
FL  .                          4.8000:   FLUID LOSS
RM  .OHMM                       .7300:   RM
RMT .DEGF                     74.0000:   RM TEMP
RMF .OHMM                       .4600:   RMF
RMFT.DEGF                     74.0000:   RMF TEMP
FSC .                               M:   RMF CODE
RMC .OHMM                      1.1200:   RMC
RMCT.DEGF                     74.0000:   RMC TEMP
CMC .                               M:   RMC CODE
TMAX.DEGF                    168.0000:   MAX REC TEMP
TIMC.                          7.0000:   TIME SINCE CIRCLN
~Curve Information Block
#MNEM.UNIT                                        API CODE    No Description
#=========                                        ========    == ===========
DEPT.F                                       00 001 00 00:     1  DEPTH
CALI.IN                                                  :     2  Caliper
NPHI.%                                                   :     3  Neutron Porosity
CILD.MMHO                                                :     4  Deep Induction Conductivity
DT.US/F                                                  :     5  Sonic Transit Time
GR.GAPI                                                  :     6  Gamma Ray
ILD.OHMM                                                 :     7  Deep Induction Resistivity
SFL.OHMM                                                 :     8  Medium Resistivity
SP.MV                                                    :     9  Spontaneous Potential
DPHI.%                                                   :    10  Porosity
~ASCII
# ...
 7822.0000     9.8820    35.6379  1863.0840   136.4197    51.7662      .5331      .6683   -95.3346    23.7437
 7822.5000     9.8381    35.3859  1862.3730   136.6880    51.0107      .5341      .6658   -95.3540    23.0723
 7823.0000     9.7942    35.3619  1861.6621   136.1873    49.4561      .5350      .6672   -95.3569    22.1037
 7823.5000     9.7555    35.3489  1860.9512   135.6802    48.0830      .5359      .6663   -95.3472    21.5896
 7824.0000     9.7156    35.3402  1861.3184   135.2617    48.2448      .5357      .6636   -95.3374    21.3544
 7824.5000     9.6842    35.4012  1864.5293   134.9077    49.5689      .5342      .6610   -95.3276    21.3645
 7825.0000     9.6587    35.3042  1867.7441   135.3618    51.7365      .5327      .6552   -95.2885    21.8304
 7825.5000     9.6368    34.6891  1870.9551   135.8884    53.0568      .5288      .6432   -95.2000    22.5250
 7826.0000     9.6229    34.6213  1874.1699   136.4873    53.2199      .5256      .6351   -95.1117    23.5504
 7826.5000     9.6232    35.4390  1877.3848   136.3030    52.3593      .5229      .6300   -95.0233    24.7024
 7827.0000     9.6264    35.9321  1880.2070   135.8606    51.3294      .5244      .6394   -95.0245    24.9927
 7827.5000     9.6447    35.7303  1879.2617   135.2341    50.5129      .5258      .6538   -95.0471    24.4505
 7828.0000     9.6613    35.5657  1878.3164   135.0813    50.9163      .5277      .6686   -95.0697    23.8222
 7828.5000     9.6766    36.0953  1877.3691   135.2559    52.1484      .5300      .6731   -95.1033    24.1779
 7829.0000     9.6950    36.6846  1876.4238   135.9250    52.5928      .5323      .6679   -95.1534    25.1355
 7829.5000     9.7346    36.8914  1875.4785   136.3828    52.2501      .5330      .6559   -95.2036    25.1713
 7830.0000     9.7729    36.2139  1879.1543   136.5217    51.5084      .5330      .6431   -95.2538    25.0155
 7830.5000     9.8109    35.4390  1891.4922   136.1736    51.3711      .5327      .6381   -95.2441    24.6862
 7831.0000     9.8593    34.7864  1903.8320   135.9543    51.5562      .5268      .6362   -95.1786    23.6108
 7831.5000     9.8190    34.7698  1916.1582   135.9788    52.6841      .5209      .6352   -95.1129    22.8410
 7832.0000     9.7736    35.5186  1923.0332   136.1340    54.6592      .5156      .6351   -95.0472    22.2960
 7832.5000     9.7447    36.9004  1929.3867   136.4441    57.3220      .5106      .6351   -94.9286    22.5597
 7833.0000     9.7306    37.8506  1935.7363   136.6021    58.3666      .5057      .6355   -94.8046    23.3972
 7833.5000     9.7246    37.7975  1942.0918   136.6272    56.0838      .5047      .6360   -94.6807    24.1750
 7834.0000     9.7202    36.7766  1938.0137   136.4917    53.9788      .5039      .6452   -94.5698    24.7227
 7834.5000     9.7178    35.2755  1923.8066   136.2827    52.9918      .5074      .6584   -94.4775    24.7820
 7835.0000     9.7197    34.1146  1909.6230   136.0593    52.4475      .5129      .6691   -94.3854    24.1750
 7835.5000     9.7229    34.6022  1895.4414   135.8003    52.2497      .5187      .6755   -94.2931    23.5916
 7836.0000     9.7265    36.0577  1880.8867   135.5437    52.5186      .5248      .6813   -94.2594    23.1563
 7836.5000     9.7320    37.0161  1865.1445   135.3394    54.5562      .5309      .6867   -94.2692    22.9534
 7837.0000     9.7341    37.0043  1849.4043   135.1440    56.0933      .5372      .6912   -94.2791    22.9040
 7837.5000     9.7352    36.0695  1833.6621   134.9941    55.1202      .5415      .6921   -94.2888    22.5081
 7838.0000     9.7378    35.4409  1817.9199   135.0125    52.7123      .5458      .6931   -94.3401    21.7862
 7838.5000     9.7513    35.8588  1810.4824   135.1301    49.8141      .5500      .6923   -94.4065    21.1815
 7839.0000     9.7674    36.4555  1805.5430   134.9358    48.4692      .5492      .6907   -94.4728    20.8519
 7839.5000     9.7739    36.8142  1800.5996   134.2534    48.1357      .5485      .6887   -94.5167    21.2154
 7840.0000     9.7838    36.9136  1806.8184   133.7961    47.5773      .5472      .6855   -94.5548    21.9395
 7840.5000     9.8041    36.4584  1815.6309   134.3118    47.0410      .5444      .6771   -94.5743    22.4271
 7841.0000     9.8231    35.6364  1824.4414   135.1003    47.7005      .5416      .6555   -94.5879    22.7335
 7841.5000     9.8262    34.6412  1847.7695   136.1143    49.0049      .5374      .6373   -94.6013    22.0367
 7842.0000     9.8267    34.0917  1874.7988   136.6494    50.7851      .5311      .6277   -94.6149    21.4865
 7842.5000     9.8298    34.9440  1901.0840   136.6702    52.4500      .5249      .6305   -94.6284    21.4157
 7843.0000     9.8373    36.5070  1921.6270   136.6187    53.7715      .5144      .6299   -94.6378    23.0907
 7843.5000     9.8548    37.1663  1942.1719   137.0862    54.6408      .5029      .6234   -94.6141    23.8391
 7844.0000     9.8703    36.9836  1962.7148   137.5576    55.2844      .4960      .6134   -94.5905    24.2947
 7844.5000     9.8865    36.0474  1980.0664   138.0352    55.4352      .4919      .6032   -94.5668    24.0992
 7845.0000     9.9043    35.0059  1993.1953   138.4255    54.0045      .4879      .6110   -94.5431    23.8995
 7845.5000     9.9214    34.5164  2006.3398   138.4883    51.6359      .4891      .6201   -94.5179    24.3006
 7846.0000     9.9228    35.0324  2009.8262   138.4480    49.6094      .4907      .6298   -94.4658    24.5168
 7846.5000     9.9000    36.4510  2010.9336   138.0137    48.9236      .4923      .6399   -94.4137    24.0439
 7847.0000     9.8677    37.2142  2011.2871   137.5796    49.2458      .4933      .6501   -94.3615    23.6005
 7847.5000     9.8386    37.2665  2008.9434   137.2175    50.2628      .4939      .6547   -94.3093    23.2808
 7848.0000     9.8204    36.5689  2006.5996   136.9243    52.0258      .4942      .6577   -94.2592    23.0648
 7848.5000     9.8143    35.8500  2004.2539   136.8450    53.6613      .4924      .6634   -94.2106    22.9235
 7849.0000     9.8079    35.4600  2000.9746   136.3799    54.7812      .4907      .6722   -94.1621    22.9946
 7849.5000     9.8050    35.1322  1997.2051   135.9036    55.2881      .4895      .6763   -94.1136    22.9950
 7850.0000     9.8172    34.7267  1983.6797   135.6714    54.5182      .4924      .6736   -94.1334    22.9054
 7850.5000     9.8450    34.0962  1959.8926   135.9883    53.6588      .4984      .6658   -94.2451    22.9230
 7851.0000     9.8264    33.2322  1936.1074   136.1628    52.2661      .5052      .6535   -94.3568    23.3147
 7851.5000     9.8280    33.9865  1914.9453   135.3079    50.8734      .5132      .6595   -94.4685    23.9341
 7852.0000     9.8306    35.2032  1895.4648   132.0403    49.9036      .5212      .7045   -94.5162    24.2899
 7852.5000     9.8220    36.4481  1876.0117   125.2848    48.8799      .5247      .7653   -94.5474    23.3471
 7853.0000     9.8296    37.0411  1868.6230   121.4381    47.9010      .5279      .8101   -94.5786    21.7089
 7853.5000     9.8344    36.0076  1862.4668   121.7694    48.1492      .5308      .7443   -94.5088    20.7012
 7854.0000     9.8440    34.7216  1863.9316   125.2994    50.3829      .5277      .6600   -94.4250    20.8036
 7854.5000     9.8688    34.2980  1871.7051   130.2532    53.4332      .5247      .6049   -94.3412    21.8282
 7855.0000     9.8880    34.9838  1879.4766   136.5181    55.7822      .5174      .5715   -94.3246    23.0804
 7855.5000     9.8941    36.2374  1917.3203   137.7615    57.1896      .5065      .5666   -94.3289    23.5272
 7856.0000     9.8812    37.3704  1957.1211   138.4014    57.3821      .4961      .5726   -94.3333    23.7537
 7856.5000     9.8629    38.3618  1992.8613   138.6982    56.1451      .4884      .5700   -94.3597    23.8999
 7857.0000     9.8422    37.7814  2012.1426   138.9482    54.6432      .4841      .5694   -94.3901    23.8565
 7857.5000     9.8218    36.4702  2031.4238   139.1562    53.8182      .4805      .5763   -94.4207    23.9511
 7858.0000     9.8134    35.5671  2050.7070   139.2280    54.2338      .4770      .5925   -94.5472    24.5182
