~VERSION INFORMATION
VERS.                             2.0:   CWLS Log ASCII Standard-VERSION 2.0
WRAP.                              NO:   One line per depth step
~Well Information Block
STRT.F                      3993.0000:   Top Depth
STOP.F                     13285.0000:   Bottom Depth
STEP.F                         .50000:   Depth Increment
NULL.                        -999.250:   Null Value
FLD .                     MU BLK A 85:   Field Name
WELL.       OCSG03061  B004 ST00 BP00:   NAME
API .                    427124009200:   WELL API
EDF .F                       122.0000:   ELEV DRILL FLOOR
COMP.             TRANSCO EXPLORATION:   OPERATOR
BN  .                           A 859:   BLOCK
CTRY.                             USA:   COUNTRY NAME
CNTY.                        M I E AD:   COUNTY NAME
EKB .F                       123.0000:   ELEV KELLY BUSHING
TDD .F                          0.000:   FINAL TD DRILLER
STAT.                           TEXAS:   STATE NAME
UWI .                    427124009200:   WELL API
DICO.               IHS : Digitizing Company
~PARAMETER INFORMATION (zones)
#MNEM.UNIT                       Value     Description
#=========                       =====     ===========
#ZONATION                          CNL:   ZONATION NAME
#ZONE                            RUN_1:   ZONE NAME
TOP .                       3993.0000:   TOP DEPTH
BOT .                       9346.5000:   BOTTOM DEPTH
RUN .                               1:   RUN NUMBER
LCCD.                              20:   LOGGING CONTRACTOR
SRVC.                          Baroil:   LOGGING CONT NAME
DICO.          QC Data Collectors Ltd:   DIG COMPANY NAME
LDAT.                      12/10/1986:   DATE LOGGED
ELD .F                       123.0000:   LOG DATUM ELEVATION
TDD .F                      9350.0000:   TOTAL DEPTH DRILLER
TDL .F                      9348.0000:   TOTAL DEPTH LOGGER
BOTL.F                      9346.0000:   BOTTOM DEPTH LOGGED
TOPL.F                      4002.0000:   TOP DEPTH LOGGED
CS1 .IN                       13.3750:   CASING SIZE 1
BS1 .IN                       12.2500:   BIT SIZE 1
DDB1.F                      9350.0000:   DEPTH DRILLED BIT 1
BHF .                              65:   FLUID CODE
DPT .                        INVERMUL:   DRILLING FLUID TYPE
MUDD.                         12.8000:   FLUID DENSITY
MUDV.                         40.0000:   FLUID VISCOSITY
DFPH.                          9.2000:   FLUID PH
FL  .                         11.0000:   FLUID LOSS
RM  .OHMM                       .3400:   RM
RMT .DEGF                     70.0000:   RM TEMP
RMF .OHMM                       .1600:   RMF
RMFT.DEGF                     70.0000:   RMF TEMP
FSC .                               M:   RMF CODE
RMC .OHMM                       .4200:   RMC
RMCT.DEGF                     70.0000:   RMC TEMP
CMC .                               C:   RMC CODE
TMAX.DEGF                    202.0000:   MAX REC TEMP
~PARAMETER INFORMATION (zones)
#MNEM.UNIT                       Value     Description
#=========                       =====     ===========
#ZONATION                          DIL:   ZONATION NAME
#ZONE                            RUN_1:   ZONE NAME
TOP .                       4002.0000:   TOP DEPTH
BOT .                       9336.5000:   BOTTOM DEPTH
RUN .                               1:   RUN NUMBER
LCCD.                              20:   LOGGING CONTRACTOR
SRVC.                          Baroil:   LOGGING CONT NAME
DICO.          QC Data Collectors Ltd:   DIG COMPANY NAME
LDAT.                      12/10/1986:   DATE LOGGED
ELD .F                       123.0000:   LOG DATUM ELEVATION
TDD .F                      9350.0000:   TOTAL DEPTH DRILLER
TDL .F                      9348.0000:   TOTAL DEPTH LOGGER
BOTL.F                      9346.0000:   BOTTOM DEPTH LOGGED
TOPL.F                      4002.0000:   TOP DEPTH LOGGED
CS1 .IN                       13.3750:   CASING SIZE 1
BS1 .IN                       12.2500:   BIT SIZE 1
DDB1.F                      9350.0000:   DEPTH DRILLED BIT 1
BHF .                              65:   FLUID CODE
DPT .                        INVERMUL:   DRILLING FLUID TYPE
MUDD.                         12.8000:   FLUID DENSITY
MUDV.                         40.0000:   FLUID VISCOSITY
DFPH.                          9.2000:   FLUID PH
FL  .                         11.0000:   FLUID LOSS
RM  .OHMM                       .3400:   RM
RMT .DEGF                     70.0000:   RM TEMP
RMF .OHMM                       .1600:   RMF
RMFT.DEGF                     70.0000:   RMF TEMP
FSC .                               M:   RMF CODE
RMC .OHMM                       .4200:   RMC
RMCT.DEGF                     70.0000:   RMC TEMP
CMC .                               C:   RMC CODE
TMAX.DEGF                    202.0000:   MAX REC TEMP
~PARAMETER INFORMATION (zones)
#MNEM.UNIT                       Value     Description
#=========                       =====     ===========
#ZONATION                          DIL:   ZONATION NAME
#ZONE                            RUN_3:   ZONE NAME
TOP .                       9336.0000:   TOP DEPTH
BOT .                      13285.5000:   BOTTOM DEPTH
RUN .                               3:   RUN NUMBER
LCCD.                              20:   LOGGING CONTRACTOR
SRVC.                          Baroil:   LOGGING CONT NAME
DICO.          QC Data Collectors Ltd:   DIG COMPANY NAME
LDAT.                      12/28/1986:   DATE LOGGED
ELD .F                       123.0000:   LOG DATUM ELEVATION
TDD .                            NULL:   TOTAL DEPTH DRILLER
TDL .                            NULL:   TOTAL DEPTH LOGGER
BOTL.F                     13291.0000:   BOTTOM DEPTH LOGGED
TOPL.F                     13285.0000:   TOP DEPTH LOGGED
CS1 .IN                        9.6250:   CASING SIZE 1
BS1 .IN                        8.5000:   BIT SIZE 1
DDB1.                            NULL:   DEPTH DRILLED BIT 1
BHF .                              35:   FLUID CODE
DPT .                       PETROFREE:   DRILLING FLUID TYPE
MUDD.                         14.9000:   FLUID DENSITY
MUDV.                         49.0000:   FLUID VISCOSITY
DFPH.                            NULL:   FLUID PH
FL  .                          6.0000:   FLUID LOSS
RM  .                            NULL:   RM
RMT .                            NULL:   RM TEMP
RMF .                            NULL:   RMF
RMFT.                            NULL:   RMF TEMP
FSC .                            NULL:   RMF CODE
RMC .                            NULL:   RMC
RMCT.                            NULL:   RMC TEMP
CMC .                            NULL:   RMC CODE
TMAX.DEGF                    274.0000:   MAX REC TEMP
~PARAMETER INFORMATION (zones)
#MNEM.UNIT                       Value     Description
#=========                       =====     ===========
#ZONATION                          FDC:   ZONATION NAME
#ZONE                            RUN_1:   ZONE NAME
TOP .                       3993.0000:   TOP DEPTH
BOT .                       9346.5000:   BOTTOM DEPTH
RUN .                               1:   RUN NUMBER
LCCD.                              20:   LOGGING CONTRACTOR
SRVC.                          Baroil:   LOGGING CONT NAME
DICO.          QC Data Collectors Ltd:   DIG COMPANY NAME
LDAT.                      12/10/1986:   DATE LOGGED
ELD .F                       123.0000:   LOG DATUM ELEVATION
TDD .F                      9350.0000:   TOTAL DEPTH DRILLER
TDL .F                      9348.0000:   TOTAL DEPTH LOGGER
BOTL.F                      9346.0000:   BOTTOM DEPTH LOGGED
TOPL.F                      4002.0000:   TOP DEPTH LOGGED
CS1 .IN                       13.3750:   CASING SIZE 1
BS1 .IN                       12.2500:   BIT SIZE 1
DDB1.F                      9350.0000:   DEPTH DRILLED BIT 1
BHF .                              65:   FLUID CODE
DPT .                        INVERMUL:   DRILLING FLUID TYPE
MUDD.                         12.8000:   FLUID DENSITY
MUDV.                         40.0000:   FLUID VISCOSITY
DFPH.                          9.2000:   FLUID PH
FL  .                         11.0000:   FLUID LOSS
RM  .OHMM                       .3400:   RM
RMT .DEGF                     70.0000:   RM TEMP
RMF .OHMM                       .1600:   RMF
RMFT.DEGF                     70.0000:   RMF TEMP
FSC .                               M:   RMF CODE
RMC .OHMM                       .4200:   RMC
RMCT.DEGF                     70.0000:   RMC TEMP
CMC .                               C:   RMC CODE
TMAX.DEGF                    202.0000:   MAX REC TEMP
~Curve Information Block
#MNEM.UNIT                    API CODE    No Description
#=========                    ========    == ===========
DEPT.F                   00 001 00 00:     1  DEPTH
NPHI.%                               :     2  Neutron Porosity
CILD.MMHO                            :     3  Deep Induction Conductivity
GR.GAPI                              :     4  Gamma Ray
ILD.OHMM                             :     5  Deep Induction Resistivity
ILM.OHMM                             :     6  Medium Induction Resistivity
RFOC.OHMM                            :     7  Medium Resistivity
SP.MV                                :     8  Spontaneous Potential
CALI.IN                              :     9  Caliper
DRHO.G/C3                            :    10  Bulk Density Correction
GRD.GAPI                             :    11  Gamma Ray
RHOB.G/C3                            :    12  Bulk Density
~ASCII
# ...
 8629.0000    28.1824  1104.4160  -999.2500      .9106     1.1250     1.0711   -55.0504    14.5836      .0753    44.9524     2.4237
 8629.5000    28.2381  1062.5859  -999.2500      .9305     1.1819     1.0655   -55.0537    14.1614      .0940    46.4689     2.4981
 8630.0000    28.5490  1037.6094  -999.2500      .9376     1.1423     1.1077   -55.0571    14.3612      .1020    46.0178     2.5457
 8630.5000    30.8354  1040.5059  -999.2500      .9316     1.0395     1.1728   -55.2454    14.5942      .0857    45.2521     2.5695
 8631.0000    30.9323  1068.9219  -999.2500      .9219      .9310     1.2743   -55.4977    14.7382      .0535    45.2755     2.5622
 8631.5000    28.9327  1092.8320  -999.2500      .9063      .9111     1.2412   -55.4453    14.8503      .0331    45.8661     2.5057
 8632.0000    26.3464  1115.2832  -999.2500      .8898      .8980     1.1680   -55.2059    14.9673      .0227    45.7792     2.4845
 8632.5000    26.7939  1135.5801  -999.2500      .8722      .9008     1.0504   -54.9665    14.9590      .0169    45.3612     2.4689
 8633.0000    27.7513  1155.5547  -999.2500      .8550      .9135     1.0092   -54.7984    14.8759      .0211    45.1857     2.4592
 8633.5000    27.5168  1150.1719  -999.2500      .8637      .9567      .9836   -54.8969    14.8181      .0486    45.8809     2.4558
 8634.0000    26.4036  1139.8867  -999.2500      .8751     1.0019      .9850   -54.9951    14.6223      .0703    46.8082     2.4607
 8634.5000    25.9155  1119.2441  -999.2500      .8866     1.0496     1.0111   -55.0936    14.7435      .0776    46.9861     2.4621
 8635.0000    26.0605  1095.8516  -999.2500      .9061     1.0999     1.0438   -55.1279    14.7064      .0734    46.8066     2.4628
 8635.5000    25.2934  1070.1094  -999.2500      .9270     1.1154     1.1479   -55.0980    14.4317      .0675    46.5449     2.4723
 8636.0000    24.4422  1040.6543  -999.2500      .9484     1.1086     1.2583   -55.0681    14.4333      .0704    46.3214     2.4930
 8636.5000    23.9702  1017.4375  -999.2500      .9591     1.0740     1.2797   -55.0381    14.4712      .0793    45.7946     2.5103
 8637.0000    26.1364  1004.8018  -999.2500      .9695      .9977     1.2757   -54.9671    14.3979      .0863    44.8340     2.5209
 8637.5000    27.9175  1003.8506  -999.2500      .9784      .8954     1.2636   -54.8923    14.3572      .0684    43.7514     2.5170
 8638.0000    29.2547  1007.4990  -999.2500      .9773      .9050     1.2014   -54.8176    14.4798      .0556    42.8118     2.4866
 8638.5000    29.6288  1013.6504  -999.2500      .9763      .9402     1.1006   -54.8118    14.3493      .0539    42.7391     2.4295
 8639.0000    28.8243  1020.7051  -999.2500      .9624      .9776     1.0094   -54.9193    14.2837      .0580    45.3372     2.3979
 8639.5000    27.7750  1029.3555  -999.2500      .9452     1.0331     1.0102   -55.0267    14.4318      .0635    47.8378     2.4023
 8640.0000    27.3102  1090.4063  -999.2500      .9283     1.0659     1.0243   -55.3430    14.3780      .0672    48.5222     2.4093
 8640.5000    27.3791  1142.5859  -999.2500      .9013     1.0385     1.0947   -55.6629    14.3286      .0725    48.0302     2.4366
 8641.0000    27.2394  1170.8516  -999.2500      .8742      .9949     1.1437   -55.9827    15.3018      .0466    47.0451     2.4532
 8641.5000    27.7972  1157.1895  -999.2500      .8635      .9331     1.1724   -55.9128    15.8598      .0165    47.6627     2.4524
 8642.0000    28.3731  1138.9219  -999.2500      .8847      .9238     1.1785   -55.8329    15.7560      .0097    48.8391     2.4326
 8642.5000    28.0006  1115.5313  -999.2500      .9064      .9435     1.1289   -55.7094    14.9762      .0189    49.5128     2.4188
 8643.0000    26.2863  1088.1797  -999.2500      .9271      .9615     1.0482   -55.4401    14.5077      .0212    49.4938     2.4193
 8643.5000    25.9464  1064.5156  -999.2500      .9167      .9758     1.0110   -55.1708    14.3261      .0194    49.8847     2.4278
 8644.0000    27.9442  1100.4570  -999.2500      .9064      .9794     1.0318   -54.9261    14.7681      .0361    50.4359     2.4362
 8644.5000    28.3665  1136.0508  -999.2500      .8911      .9592     1.0531   -55.0432    15.5336      .0629    51.0808     2.4594
 8645.0000    28.0644  1145.2461  -999.2500      .8754      .9389     1.0493   -55.1602    15.9102      .0784    51.8058     2.4936
 8645.5000    27.5360  1146.9746  -999.2500      .8622      .9170     1.0429   -55.2772    15.8849      .0828    52.6307     2.5073
 8646.0000    27.7683  1146.5645  -999.2500      .8592      .8976     1.0577   -55.3381    15.7442      .0701    53.5901     2.4942
 8646.5000    28.2722  1143.7227  -999.2500      .8561      .8821     1.0731   -55.3602    14.5377      .0513    54.2066     2.4740
 8647.0000    28.5934  1141.1406  -999.2500      .8441      .8687     1.1012   -55.3823    14.6440      .0316    53.4014     2.4623
 8647.5000    28.7048  1138.7832  -999.2500      .8496      .8691     1.1030   -55.3121    14.7583      .0239    50.8712     2.4549
 8648.0000    28.8611  1131.6816  -999.2500      .8551      .8694     1.0494   -55.2380    14.8187      .0547    48.6899     2.4485
 8648.5000    28.5156  1122.3750  -999.2500      .8605      .9043     1.0111   -55.2020    14.8548      .0710    49.6258     2.4511
 8649.0000    27.6325  1115.0977  -999.2500      .8621      .9501      .9986   -55.1942    14.8801      .0678    50.1825     2.4574
 8649.5000    26.7509  1111.8398  -999.2500      .8638      .9737     1.0351   -55.1926    14.8957      .0588    50.0333     2.4675
 8650.0000    26.8206  1110.4824  -999.2500      .8655      .9770     1.0721   -55.2778    14.7997      .0529    48.9451     2.4770
 8650.5000    27.2429  1110.1816  -999.2500      .8825      .9467     1.1074   -55.3630    14.6546      .0560    48.9464     2.4785
 8651.0000    26.6233  1110.9512  -999.2500      .8840      .9173     1.1024   -55.4482    14.9289      .0672    50.8860     2.4766
 8651.5000    25.8953  1112.8633  -999.2500      .8821      .8991     1.0610   -55.7855    14.7681      .0832    54.0155     2.4737
 8652.0000    26.0147  1116.4219  -999.2500      .8795      .8968     1.0424   -56.1368    14.8139      .0858    55.8010     2.4635
 8652.5000    26.4303  1125.1348  -999.2500      .8724      .9073     1.0263   -56.0751    14.5461      .0670    56.2023     2.4472
 8653.0000    26.2062  1138.0059  -999.2500      .8652      .9163     1.0071   -55.9892    14.6818      .0515    55.6814     2.4367
 8653.5000    25.7119  1149.2930  -999.2500      .8573      .9220      .9903   -55.9058    14.9770      .0507    55.0840     2.4361
 8654.0000    25.9197  1158.6621  -999.2500      .8495      .9195      .9752   -55.8504    14.8329      .0586    54.6992     2.4511
 8654.5000    26.8978  1161.4375  -999.2500      .8470      .9072     1.0007   -55.7949    15.0438      .0692    54.3823     2.4609
 8655.0000    27.4745  1161.7363  -999.2500      .8487      .8989     1.0462   -55.7493    14.6302      .0577    54.1764     2.4626
 8655.5000    27.6195  1156.1680  -999.2500      .8503      .9120     1.0511   -55.8351    14.5874      .0563    54.5618     2.4626
 8656.0000    27.4867  1155.9082  -999.2500      .8520      .9164     1.0290   -55.9210    14.5570      .0602    54.8981     2.4630
 8656.5000    28.2307  1164.1191  -999.2500      .8402      .9066     1.0008   -56.0066    14.4285      .0650    54.5938     2.4746
 8657.0000    28.9008  1185.1094  -999.2500      .8267      .8903     1.0074   -56.1038    14.5205      .0551    54.3152     2.4837
 8657.5000    29.0900  1205.7285  -999.2500      .8138      .8524     1.0042   -56.2014    14.9775      .0608    54.5568     2.4860
 8658.0000    27.9843  1220.2090  -999.2500      .8017      .8315      .9701   -56.2162    15.1810      .0715    54.8796     2.4849
 8658.5000    27.5727  1233.4512  -999.2500      .7897      .8216      .9409   -56.1794    15.2723      .0657    54.4582     2.4759
 8659.0000    27.8051  1246.6445  -999.2500      .7805      .8456      .9166   -56.0924    15.3491      .0532    53.6394     2.4394
