~VERSION INFORMATION
VERS.                             2.0:   CWLS Log ASCII Standard-VERSION 2.0
WRAP.                              NO:   One line per depth step
~Well Information Block
STRT.F                      3993.0000:   Top Depth
STOP.F                     13285.0000:   Bottom Depth
STEP.F                         .50000:   Depth Increment
NULL.                        -999.250:   Null Value
FLD .                     MU BLK A 85:   Field Name
WELL.       OCSG03061  B004 ST00 BP00:   NAME
API .                    427124009200:   WELL API
EDF .F                       122.0000:   ELEV DRILL FLOOR
COMP.             TRANSCO EXPLORATION:   OPERATOR
BN  .                           A 859:   BLOCK
CTRY.                             USA:   COUNTRY NAME
CNTY.                        M I E AD:   COUNTY NAME
EKB .F                       123.0000:   ELEV KELLY BUSHING
TDD .F                          0.000:   FINAL TD DRILLER
STAT.                           TEXAS:   STATE NAME
UWI .                    427124009200:   WELL API
DICO.               IHS : Digitizing Company
~PARAMETER INFORMATION (zones)
#MNEM.UNIT                       Value     Description
#=========                       =====     ===========
#ZONATION                          CNL:   ZONATION NAME
#ZONE                            RUN_1:   ZONE NAME
TOP .                       3993.0000:   TOP DEPTH
BOT .                       9346.5000:   BOTTOM DEPTH
RUN .                               1:   RUN NUMBER
LCCD.                              20:   LOGGING CONTRACTOR
SRVC.                          Baroil:   LOGGING CONT NAME
DICO.          QC Data Collectors Ltd:   DIG COMPANY NAME
LDAT.                      12/10/1986:   DATE LOGGED
ELD .F                       123.0000:   LOG DATUM ELEVATION
TDD .F                      9350.0000:   TOTAL DEPTH DRILLER
TDL .F                      9348.0000:   TOTAL DEPTH LOGGER
BOTL.F                      9346.0000:   BOTTOM DEPTH LOGGED
TOPL.F                      4002.0000:   TOP DEPTH LOGGED
CS1 .IN                       13.3750:   CASING SIZE 1
BS1 .IN                       12.2500:   BIT SIZE 1
DDB1.F                      9350.0000:   DEPTH DRILLED BIT 1
BHF .                              65:   FLUID CODE
DPT .                        INVERMUL:   DRILLING FLUID TYPE
MUDD.                         12.8000:   FLUID DENSITY
MUDV.                         40.0000:   FLUID VISCOSITY
DFPH.                          9.2000:   FLUID PH
FL  .                         11.0000:   FLUID LOSS
RM  .OHMM                       .3400:   RM
RMT .DEGF                     70.0000:   RM TEMP
RMF .OHMM                       .1600:   RMF
RMFT.DEGF                     70.0000:   RMF TEMP
FSC .                               M:   RMF CODE
RMC .OHMM                       .4200:   RMC
RMCT.DEGF                     70.0000:   RMC TEMP
CMC .                               C:   RMC CODE
TMAX.DEGF                    202.0000:   MAX REC TEMP
~PARAMETER INFORMATION (zones)
#MNEM.UNIT                       Value     Description
#=========                       =====     ===========
#ZONATION                          DIL:   ZONATION NAME
#ZONE                            RUN_1:   ZONE NAME
TOP .                       4002.0000:   TOP DEPTH
BOT .                       9336.5000:   BOTTOM DEPTH
RUN .                               1:   RUN NUMBER
LCCD.                              20:   LOGGING CONTRACTOR
SRVC.                          Baroil:   LOGGING CONT NAME
DICO.          QC Data Collectors Ltd:   DIG COMPANY NAME
LDAT.                      12/10/1986:   DATE LOGGED
ELD .F                       123.0000:   LOG DATUM ELEVATION
TDD .F                      9350.0000:   TOTAL DEPTH DRILLER
TDL .F                      9348.0000:   TOTAL DEPTH LOGGER
BOTL.F                      9346.0000:   BOTTOM DEPTH LOGGED
TOPL.F                      4002.0000:   TOP DEPTH LOGGED
CS1 .IN                       13.3750:   CASING SIZE 1
BS1 .IN                       12.2500:   BIT SIZE 1
DDB1.F                      9350.0000:   DEPTH DRILLED BIT 1
BHF .                              65:   FLUID CODE
DPT .                        INVERMUL:   DRILLING FLUID TYPE
MUDD.                         12.8000:   FLUID DENSITY
MUDV.                         40.0000:   FLUID VISCOSITY
DFPH.                          9.2000:   FLUID PH
FL  .                         11.0000:   FLUID LOSS
RM  .OHMM                       .3400:   RM
RMT .DEGF                     70.0000:   RM TEMP
RMF .OHMM                       .1600:   RMF
RMFT.DEGF                     70.0000:   RMF TEMP
FSC .                               M:   RMF CODE
RMC .OHMM                       .4200:   RMC
RMCT.DEGF                     70.0000:   RMC TEMP
CMC .                               C:   RMC CODE
TMAX.DEGF                    202.0000:   MAX REC TEMP
~PARAMETER INFORMATION (zones)
#MNEM.UNIT                       Value     Description
#=========                       =====     ===========
#ZONATION                          DIL:   ZONATION NAME
#ZONE                            RUN_3:   ZONE NAME
TOP .                       9336.0000:   TOP DEPTH
BOT .                      13285.5000:   BOTTOM DEPTH
RUN .                               3:   RUN NUMBER
LCCD.                              20:   LOGGING CONTRACTOR
SRVC.                          Baroil:   LOGGING CONT NAME
DICO.          QC Data Collectors Ltd:   DIG COMPANY NAME
LDAT.                      12/28/1986:   DATE LOGGED
ELD .F                       123.0000:   LOG DATUM ELEVATION
TDD .                            NULL:   TOTAL DEPTH DRILLER
TDL .                            NULL:   TOTAL DEPTH LOGGER
BOTL.F                     13291.0000:   BOTTOM DEPTH LOGGED
TOPL.F                     13285.0000:   TOP DEPTH LOGGED
CS1 .IN                        9.6250:   CASING SIZE 1
BS1 .IN                        8.5000:   BIT SIZE 1
DDB1.                            NULL:   DEPTH DRILLED BIT 1
BHF .                              35:   FLUID CODE
DPT .                       PETROFREE:   DRILLING FLUID TYPE
MUDD.                         14.9000:   FLUID DENSITY
MUDV.                         49.0000:   FLUID VISCOSITY
DFPH.                            NULL:   FLUID PH
FL  .                          6.0000:   FLUID LOSS
RM  .                            NULL:   RM
RMT .                            NULL:   RM TEMP
RMF .                            NULL:   RMF
RMFT.                            NULL:   RMF TEMP
FSC .                            NULL:   RMF CODE
RMC .                            NULL:   RMC
RMCT.                            NULL:   RMC TEMP
CMC .                            NULL:   RMC CODE
TMAX.DEGF                    274.0000:   MAX REC TEMP
~PARAMETER INFORMATION (zones)
#MNEM.UNIT                       Value     Description
#=========                       =====     ===========
#ZONATION                          FDC:   ZONATION NAME
#ZONE                            RUN_1:   ZONE NAME
TOP .                       3993.0000:   TOP DEPTH
BOT .                       9346.5000:   BOTTOM DEPTH
RUN .                               1:   RUN NUMBER
LCCD.                              20:   LOGGING CONTRACTOR
SRVC.                          Baroil:   LOGGING CONT NAME
DICO.          QC Data Collectors Ltd:   DIG COMPANY NAME
LDAT.                      12/10/1986:   DATE LOGGED
ELD .F                       123.0000:   LOG DATUM ELEVATION
TDD .F                      9350.0000:   TOTAL DEPTH DRILLER
TDL .F                      9348.0000:   TOTAL DEPTH LOGGER
BOTL.F                      9346.0000:   BOTTOM DEPTH LOGGED
TOPL.F                      4002.0000:   TOP DEPTH LOGGED
CS1 .IN                       13.3750:   CASING SIZE 1
BS1 .IN                       12.2500:   BIT SIZE 1
DDB1.F                      9350.0000:   DEPTH DRILLED BIT 1
BHF .                              65:   FLUID CODE
DPT .                        INVERMUL:   DRILLING FLUID TYPE
MUDD.                         12.8000:   FLUID DENSITY
MUDV.                         40.0000:   FLUID VISCOSITY
DFPH.                          9.2000:   FLUID PH
FL  .                         11.0000:   FLUID LOSS
RM  .OHMM                       .3400:   RM
RMT .DEGF                     70.0000:   RM TEMP
RMF .OHMM                       .1600:   RMF
RMFT.DEGF                     70.0000:   RMF TEMP
FSC .                               M:   RMF CODE
RMC .OHMM                       .4200:   RMC
RMCT.DEGF                     70.0000:   RMC TEMP
CMC .                               C:   RMC CODE
TMAX.DEGF                    202.0000:   MAX REC TEMP
~Curve Information Block
#MNEM.UNIT                    API CODE    No Description
#=========                    ========    == ===========
DEPT.F                   00 001 00 00:     1  DEPTH
NPHI.%                               :     2  Neutron Porosity
CILD.MMHO                            :     3  Deep Induction Conductivity
GR.GAPI                              :     4  Gamma Ray
ILD.OHMM                             :     5  Deep Induction Resistivity
ILM.OHMM                             :     6  Medium Induction Resistivity
RFOC.OHMM                            :     7  Medium Resistivity
SP.MV                                :     8  Spontaneous Potential
CALI.IN                              :     9  Caliper
DRHO.G/C3                            :    10  Bulk Density Correction
GRD.GAPI                             :    11  Gamma Ray
RHOB.G/C3                            :    12  Bulk Density
~ASCII
# ...
 8964.5000    31.4050  1249.5410  -999.2500      .8084      .8196     1.0348   -53.8281    13.2652      .1082    53.6171     2.5189
 8965.0000    34.5131  1271.6465  -999.2500      .7823      .8077      .9685   -54.0063    13.2544      .1132    54.1440     2.5190
 8965.5000    34.2543  1312.8809  -999.2500      .7515      .7960      .9335   -54.1846    13.2520      .1315    54.3733     2.5147
 8966.0000    31.4972  1353.5215  -999.2500      .7268      .7892      .9260   -54.2946    13.2536      .1448    54.5546     2.5007
 8966.5000    30.2673  1384.7949  -999.2500      .7214      .7826      .9185   -54.3933    13.2554      .1414    54.9032     2.4895
 8967.0000    29.7185  1410.5039  -999.2500      .7161      .7760      .9182   -54.4920    13.2584      .1236    55.5537     2.4898
 8967.5000    30.4097  1421.9785  -999.2500      .7130      .7695      .9205   -54.4543    13.2614      .1092    56.4402     2.4943
 8968.0000    30.6034  1423.7988  -999.2500      .7192      .7699      .9239   -54.2357    13.2616      .0968    57.1863     2.4997
 8968.5000    30.9677  1406.9238  -999.2500      .7256      .7791      .9356   -54.0168    13.2577      .0874    56.8128     2.5039
 8969.0000    32.0444  1387.9180  -999.2500      .7320      .7884      .9474   -53.7985    13.2513      .0849    54.4016     2.5044
 8969.5000    32.5202  1366.4570  -999.2500      .7407      .8059      .9574   -53.5845    13.2381      .0893    53.0392     2.5047
 8970.0000    30.7774  1344.9727  -999.2500      .7568      .8270      .9658   -53.3708    13.2222      .0967    52.0887     2.5049
 8970.5000    29.3735  1324.2051  -999.2500      .7731      .8486      .9833   -53.1568    13.1876      .1040    51.2157     2.5051
 8971.0000    28.7006  1303.5391  -999.2500      .7899      .8610     1.0075   -53.2752    13.1653      .1050    50.6956     2.5055
 8971.5000    28.8084  1286.8613  -999.2500      .7976      .8635     1.0149   -53.5290    13.1624      .1076    51.1309     2.5063
 8972.0000    30.3848  1273.4805  -999.2500      .8027      .8659     1.0143   -53.7831    13.1723      .1290    51.6239     2.5089
 8972.5000    31.4972  1262.2539  -999.2500      .8053      .8595     1.0222   -53.9408    13.1900      .1372    51.6796     2.5091
 8973.0000    32.0139  1253.8535  -999.2500      .8019      .8438     1.0126   -54.0732    13.1903      .1237    52.0764     2.5089
 8973.5000    31.9507  1252.9863  -999.2500      .7984      .8285      .9908   -54.2057    13.1820      .1145    53.7081     2.5026
 8974.0000    30.8726  1265.7480  -999.2500      .7773      .8293      .9832   -54.3131    13.1723      .1095    55.8943     2.4875
 8974.5000    29.2055  1292.8574  -999.2500      .7517      .8306      .9792   -54.1482    13.1593      .1234    57.4927     2.4816
 8975.0000    28.7383  1317.6387  -999.2500      .7304      .8319      .9786   -53.9832    13.1463      .1436    58.1088     2.4811
 8975.5000    28.7406  1331.3184  -999.2500      .7139      .8286      .9834   -53.8500    13.1401      .1516    57.2247     2.4854
 8976.0000    28.6690  1335.0723  -999.2500      .7203      .8242      .9883   -53.8871    13.1351      .1515    56.5893     2.4879
 8976.5000    28.7593  1325.9785  -999.2500      .7268      .8199      .9795   -53.9241    13.1383      .1396    57.2038     2.4754
 8977.0000    29.2568  1309.1152  -999.2500      .7353      .8257      .9702   -53.9564    13.1508      .1193    58.3535     2.4543
 8977.5000    29.0590  1296.9473  -999.2500      .7444      .8322      .9768   -53.9709    13.1632      .0927    58.9348     2.4426
 8978.0000    28.5760  1288.5840  -999.2500      .7537      .8387      .9950   -53.9854    13.1695      .0659    57.9919     2.4420
 8978.5000    29.2218  1280.5918  -999.2500      .7635      .8452     1.0135   -54.0692    13.1754      .0543    56.7845     2.4487
 8979.0000    29.6707  1260.8418  -999.2500      .7735      .8554     1.0271   -54.1872    13.1812      .0693    55.9902     2.4665
 8979.5000    29.1772  1236.4570  -999.2500      .7876      .8670     1.0379   -54.3051    13.1867      .0977    55.6813     2.4799
 8980.0000    27.9161  1190.3652  -999.2500      .8269      .8787     1.0356   -54.3571    13.1922      .1099    55.9164     2.4882
 8980.5000    26.5464  1131.2891  -999.2500      .8681      .9005     1.0011   -54.3256    13.1937      .1165    56.0165     2.4903
 8981.0000    25.5716  1075.6797  -999.2500      .9062      .9257      .9858   -54.2942    13.1801      .1228    54.3597     2.4884
 8981.5000    25.2006  1040.5176  -999.2500      .9316      .9483     1.0214   -54.1805    13.1665      .1340    49.9578     2.4878
 8982.0000    24.8600  1037.4941  -999.2500      .9313      .9418     1.1110   -54.0439    13.1274      .1335    45.8854     2.5150
 8982.5000    24.4168  1049.0156  -999.2500      .9282      .9354     1.2657   -53.9072    13.1018      .1097    44.5513     2.5501
 8983.0000    24.2302  1072.4590  -999.2500      .9044      .9163     1.2281   -53.9854    13.1141      .0900    44.5519     2.5601
 8983.5000    25.7359  1113.0488  -999.2500      .8812      .8893     1.1423   -54.2838    13.1257      .0827    46.2247     2.5523
 8984.0000    29.2932  1148.1387  -999.2500      .8586      .8631     1.0645   -54.5823    13.1350      .1189    49.9971     2.5374
 8984.5000    31.3172  1185.8066  -999.2500      .8295      .8416      .9989   -54.6523    13.1545      .1509    54.4188     2.5229
 8985.0000    31.5221  1230.9063  -999.2500      .7929      .8260      .9382   -54.5772    13.1776      .1623    58.1961     2.5131
 8985.5000    30.4547  1288.4961  -999.2500      .7580      .8142      .9417   -54.5020    13.1986      .1572    60.1282     2.5079
 8986.0000    29.4731  1339.3965  -999.2500      .7254      .8077      .9453   -54.3792    13.2098      .1505    59.5462     2.5107
 8986.5000    28.8879  1377.3848  -999.2500      .6945      .8012      .9530   -54.2520    13.2210      .1451    57.8616     2.5174
 8987.0000    28.8991  1400.1582  -999.2500      .6838      .7899      .9615   -54.1332    13.2322      .1401    56.7685     2.5228
 8987.5000    29.2932  1412.2031  -999.2500      .6787      .7758      .9693   -54.1438    13.2166      .1357    56.5863     2.5265
 8988.0000    29.6427  1422.9316  -999.2500      .6737      .7620      .9589   -54.1544    13.1982      .1317    57.0612     2.5257
 8988.5000    29.9944  1431.9531  -999.2500      .6724      .7467      .9487   -54.1556    13.1793      .1271    58.9781     2.5168
 8989.0000    30.3472  1441.1582  -999.2500      .6722      .7316      .9385   -54.1079    13.1597      .1251    60.7690     2.5018
 8989.5000    30.2732  1450.5508  -999.2500      .6719      .7187      .9261   -54.0603    13.1659      .1284    60.8741     2.4860
 8990.0000    29.4137  1459.0879  -999.2500      .6716      .7327      .9109   -53.9120    13.1958      .1337    59.2240     2.4603
 8990.5000    28.7496  1446.8945  -999.2500      .6747      .7469      .8959   -53.7014    13.1765      .1385    57.6594     2.4443
 8991.0000    29.3958  1434.7285  -999.2500      .6846      .7615      .8819   -53.4911    13.1424      .1418    57.6981     2.4457
 8991.5000    30.1520  1422.5352  -999.2500      .6947      .7720      .8980   -53.3375    13.1154      .1422    59.4773     2.4695
 8992.0000    30.4473  1410.3691  -999.2500      .7049      .7758      .9144   -53.1858    13.0998      .1391    62.1246     2.4869
 8992.5000    30.3844  1394.6074  -999.2500      .7155      .7797      .9312   -53.1348    13.1093      .1333    62.5002     2.4934
 8993.0000    30.1409  1361.9961  -999.2500      .7282      .7836      .9392   -53.1413    13.1554      .1281    59.9274     2.4952
 8993.5000    29.8152  1327.7988  -999.2500      .7410      .7878      .9467   -53.5154    13.2062      .1445    55.2844     2.5013
 8994.0000    29.5698  1293.1563  -999.2500      .7542      .7928      .9464   -53.9175    13.2362      .1585    52.8498     2.5089
 8994.5000    29.9944  1286.6875  -999.2500      .7637      .7977      .9379   -53.9628    13.2490      .1657    52.0724     2.5131
