~VERSION INFORMATION
VERS.                                                 2.0:   CWLS Log ASCII Standard-VERSION 2.0
WRAP.                                                  NO:   One line per depth step
~Well Information Block
STRT.F                                          1471.0000:   Top Depth
STOP.F                                         12100.0000:   Bottom Depth
STEP.F                                             .50000:   Depth Increment
NULL.                                            -999.250:   Null Value
FLD .                                        MU BLK A 175:   Field Name
WELL.                           OCSG03931   001 ST00 BP00:   NAME
API .                                        427124004600:   WELL API
EDF .F                                            85.0000:   ELEV DRILL FLOOR
COMP.                                GULF OIL CORPORATION:   OPERATOR
BN  .                                               A 175:   BLOCK
CTRY.                                                 USA:   COUNTRY NAME
CNTY.                                            M I E AD:   COUNTY NAME
EKB .F                                            86.0000:   ELEV KELLY BUSHING
TDD .F                                          12102.000:   FINAL TD DRILLER
STAT.                                               TEXAS:   STATE NAME
UWI .                                        427124004600:   WELL API
DICO.               IHS : Digitizing Company
~PARAMETER INFORMATION (zones)
#MNEM.UNIT                       Value     Description
#=========                       =====     ===========
#ZONATION                          CNL:   ZONATION NAME
#ZONE                            RUN_2:   ZONE NAME
TOP .                       3452.0000:   TOP DEPTH
BOT .                      12100.5000:   BOTTOM DEPTH
RUN .                               2:   RUN NUMBER
LCCD.                             440:   LOGGING CONTRACTOR
SRVC.                    Schlumberger:   LOGGING CONT NAME
DICO.          QC Data Collectors Ltd:   DIG COMPANY NAME
LDAT.                      06/16/1981:   DATE LOGGED
ELD .F                        86.0000:   LOG DATUM ELEVATION
TDD .F                      7546.0000:   TOTAL DEPTH DRILLER
TDL .F                      7545.0000:   TOTAL DEPTH LOGGER
BOTL.F                     12100.0000:   BOTTOM DEPTH LOGGED
TOPL.F                      3504.0000:   TOP DEPTH LOGGED
CS1 .IN                        9.6250:   CASING SIZE 1
BS1 .IN                       12.2500:   BIT SIZE 1
DDB1.F                      7546.0000:   DEPTH DRILLED BIT 1
BHF .                              99:   FLUID CODE
DPT .                   Miscellaneous:   DRILLING FLUID TYPE
MUDD.                         14.0000:   FLUID DENSITY
MUDV.                         42.0000:   FLUID VISCOSITY
DFPH.                         11.0000:   FLUID PH
FL  .                          4.8000:   FLUID LOSS
RM  .OHMM                       .7300:   RM
RMT .DEGF                     74.0000:   RM TEMP
RMF .OHMM                       .4600:   RMF
RMFT.DEGF                     74.0000:   RMF TEMP
FSC .                               M:   RMF CODE
RMC .OHMM                      1.1200:   RMC
RMCT.DEGF                     74.0000:   RMC TEMP
CMC .                               M:   RMC CODE
TMAX.DEGF                    168.0000:   MAX REC TEMP
TIMC.                          7.0000:   TIME SINCE CIRCLN
~PARAMETER INFORMATION (zones)
#MNEM.UNIT                       Value     Description
#=========                       =====     ===========
#ZONATION                          DIL:   ZONATION NAME
#ZONE                            RUN_1:   ZONE NAME
TOP .                       1471.0000:   TOP DEPTH
BOT .                      12095.5000:   BOTTOM DEPTH
RUN .                               1:   RUN NUMBER
LCCD.                             440:   LOGGING CONTRACTOR
SRVC.                    Schlumberger:   LOGGING CONT NAME
DICO.          QC Data Collectors Ltd:   DIG COMPANY NAME
LDAT.                      05/25/1981:   DATE LOGGED
ELD .F                        86.0000:   LOG DATUM ELEVATION
TDD .F                      4590.0000:   TOTAL DEPTH DRILLER
TDL .F                      3529.0000:   TOTAL DEPTH LOGGER
BOTL.F                     12095.0000:   BOTTOM DEPTH LOGGED
TOPL.F                      1471.0000:   TOP DEPTH LOGGED
CS1 .IN                       20.0000:   CASING SIZE 1
BS1 .IN                       12.2500:   BIT SIZE 1
DDB1.F                      4590.0000:   DEPTH DRILLED BIT 1
BHF .                              99:   FLUID CODE
DPT .                   Miscellaneous:   DRILLING FLUID TYPE
MUDD.                         11.4000:   FLUID DENSITY
MUDV.                         44.0000:   FLUID VISCOSITY
DFPH.                         11.0000:   FLUID PH
FL  .                         10.0000:   FLUID LOSS
RM  .OHMM                       .5200:   RM
RMT .DEGF                     75.0000:   RM TEMP
RMF .OHMM                       .3500:   RMF
RMFT.DEGF                     75.0000:   RMF TEMP
FSC .                               M:   RMF CODE
RMC .OHMM                       .8800:   RMC
RMCT.DEGF                     75.0000:   RMC TEMP
CMC .                               M:   RMC CODE
TMAX.DEGF                    125.0000:   MAX REC TEMP
TIMC.                         14.0000:   TIME SINCE CIRCLN
~PARAMETER INFORMATION (zones)
#MNEM.UNIT                       Value     Description
#=========                       =====     ===========
#ZONATION                          FDC:   ZONATION NAME
#ZONE                            RUN_4:   ZONE NAME
TOP .                      11080.0000:   TOP DEPTH
BOT .                      12095.0000:   BOTTOM DEPTH
RUN .                               4:   RUN NUMBER
LCCD.                             440:   LOGGING CONTRACTOR
SRVC.                    Schlumberger:   LOGGING CONT NAME
DICO.          QC Data Collectors Ltd:   DIG COMPANY NAME
LDAT.                      07/06/1981:   DATE LOGGED
ELD .F                        86.0000:   LOG DATUM ELEVATION
TDD .F                     12100.0000:   TOTAL DEPTH DRILLER
TDL .F                     12102.0000:   TOTAL DEPTH LOGGER
BOTL.F                     12095.0000:   BOTTOM DEPTH LOGGED
TOPL.F                     11080.0000:   TOP DEPTH LOGGED
CS1 .IN                        9.6250:   CASING SIZE 1
BS1 .IN                        8.5000:   BIT SIZE 1
DDB1.F                     12100.0000:   DEPTH DRILLED BIT 1
BHF .                              99:   FLUID CODE
DPT .                   Miscellaneous:   DRILLING FLUID TYPE
MUDD.                         15.7000:   FLUID DENSITY
MUDV.                         50.0000:   FLUID VISCOSITY
DFPH.                         11.0000:   FLUID PH
FL  .                          4.2000:   FLUID LOSS
RM  .OHMM                      1.2000:   RM
RMT .DEGF                     90.0000:   RM TEMP
RMF .OHMM                       .6600:   RMF
RMFT.DEGF                     78.0000:   RMF TEMP
FSC .                               M:   RMF CODE
RMC .OHMM                      1.4200:   RMC
RMCT.DEGF                     78.0000:   RMC TEMP
CMC .                               M:   RMC CODE
TMAX.DEGF                    277.0000:   MAX REC TEMP
TIMC.                         20.0000:   TIME SINCE CIRCLN
~PARAMETER INFORMATION (zones)
#MNEM.UNIT                       Value     Description
#=========                       =====     ===========
#ZONATION                          FDC:   ZONATION NAME
#ZONE                            RUN_2:   ZONE NAME
TOP .                       3504.0000:   TOP DEPTH
BOT .                      12100.5000:   BOTTOM DEPTH
RUN .                               2:   RUN NUMBER
LCCD.                             440:   LOGGING CONTRACTOR
SRVC.                    Schlumberger:   LOGGING CONT NAME
DICO.          QC Data Collectors Ltd:   DIG COMPANY NAME
LDAT.                      06/16/1981:   DATE LOGGED
ELD .F                        86.0000:   LOG DATUM ELEVATION
TDD .F                      7546.0000:   TOTAL DEPTH DRILLER
TDL .F                      7545.0000:   TOTAL DEPTH LOGGER
BOTL.F                     12100.0000:   BOTTOM DEPTH LOGGED
TOPL.F                      3504.0000:   TOP DEPTH LOGGED
CS1 .IN                        9.6250:   CASING SIZE 1
BS1 .IN                       12.2500:   BIT SIZE 1
DDB1.F                      7546.0000:   DEPTH DRILLED BIT 1
BHF .                              99:   FLUID CODE
DPT .                   Miscellaneous:   DRILLING FLUID TYPE
MUDD.                         14.0000:   FLUID DENSITY
MUDV.                         42.0000:   FLUID VISCOSITY
DFPH.                         11.0000:   FLUID PH
FL  .                          4.8000:   FLUID LOSS
RM  .OHMM                       .7300:   RM
RMT .DEGF                     74.0000:   RM TEMP
RMF .OHMM                       .4600:   RMF
RMFT.DEGF                     74.0000:   RMF TEMP
FSC .                               M:   RMF CODE
RMC .OHMM                      1.1200:   RMC
RMCT.DEGF                     74.0000:   RMC TEMP
CMC .                               M:   RMC CODE
TMAX.DEGF                    168.0000:   MAX REC TEMP
TIMC.                          7.0000:   TIME SINCE CIRCLN
~Curve Information Block
#MNEM.UNIT                                        API CODE    No Description
#=========                                        ========    == ===========
DEPT.F                                       00 001 00 00:     1  DEPTH
CALI.IN                                                  :     2  Caliper
NPHI.%                                                   :     3  Neutron Porosity
CILD.MMHO                                                :     4  Deep Induction Conductivity
DT.US/F                                                  :     5  Sonic Transit Time
GR.GAPI                                                  :     6  Gamma Ray
ILD.OHMM                                                 :     7  Deep Induction Resistivity
SFL.OHMM                                                 :     8  Medium Resistivity
SP.MV                                                    :     9  Spontaneous Potential
DPHI.%                                                   :    10  Porosity
~ASCII
# ...
 2164.5000  -999.2500  -999.2500  1367.4434   170.1106    54.9325      .7120      .7009   -91.8611  -999.2500
 2165.0000  -999.2500  -999.2500  1355.0918   170.1113    54.7257      .7229      .7099   -91.5272  -999.2500
 2165.5000  -999.2500  -999.2500  1346.7988   170.2854    54.6718      .7333      .7086   -91.2703  -999.2500
 2166.0000  -999.2500  -999.2500  1357.4863   170.9199    54.9863      .7341      .7073   -91.2327  -999.2500
 2166.5000  -999.2500  -999.2500  1368.1777   171.2358    55.3527      .7350      .7023   -91.2250  -999.2500
 2167.0000  -999.2500  -999.2500  1378.8672   171.2617    55.6606      .7358      .6929   -91.2631  -999.2500
 2167.5000  -999.2500  -999.2500  1389.5586   171.0049    56.6594      .7274      .6837   -91.2684  -999.2500
 2168.0000  -999.2500  -999.2500  1400.2461   171.0710    57.4142      .7185      .6707   -91.1508  -999.2500
 2168.5000  -999.2500  -999.2500  1408.6523   171.1743    57.2964      .7096      .6591   -91.0331  -999.2500
 2169.0000  -999.2500  -999.2500  1417.0371   171.6697    56.6667      .7013      .6554   -90.8984  -999.2500
 2169.5000  -999.2500  -999.2500  1425.4180   172.1387    55.8419      .6935      .6640   -90.7621  -999.2500
 2170.0000  -999.2500  -999.2500  1433.7988   172.5930    54.8895      .6858      .6695   -90.5820  -999.2500
 2170.5000  -999.2500  -999.2500  1442.1816   172.7947    54.2382      .6790      .6684   -90.3978  -999.2500
 2171.0000  -999.2500  -999.2500  1450.5625   173.1174    53.8707      .6723      .6651   -90.2981  -999.2500
 2171.5000  -999.2500  -999.2500  1458.9434   173.6470    54.4120      .6714      .6565   -90.3398  -999.2500
 2172.0000  -999.2500  -999.2500  1461.7168   174.4294    55.1592      .6719      .6517   -90.3817  -999.2500
 2172.5000  -999.2500  -999.2500  1461.0078   175.1875    56.2621      .6741      .6561   -90.4819  -999.2500
 2173.0000  -999.2500  -999.2500  1460.7324   175.5898    57.2766      .6781      .6604   -90.6674  -999.2500
 2173.5000  -999.2500  -999.2500  1461.0215   175.2078    58.0289      .6819      .6661   -90.8528  -999.2500
 2174.0000  -999.2500  -999.2500  1461.3125   174.7393    58.4720      .6830      .6683   -90.9761  -999.2500
 2174.5000  -999.2500  -999.2500  1461.6035   175.0498    58.6415      .6840      .6663   -91.0867  -999.2500
 2175.0000  -999.2500  -999.2500  1461.8926   175.8389    58.2667      .6828      .6641   -91.1959  -999.2500
 2175.5000  -999.2500  -999.2500  1462.1836   176.5364    57.6548      .6807      .6621   -91.3018  -999.2500
 2176.0000  -999.2500  -999.2500  1466.2090   176.6284    56.4468      .6807      .6567   -91.4075  -999.2500
 2176.5000  -999.2500  -999.2500  1472.0527   175.5168    55.2523      .6839      .6470   -91.5186  -999.2500
 2177.0000  -999.2500  -999.2500  1477.8965   174.1934    55.1052      .6890      .6484   -91.6327  -999.2500
 2177.5000  -999.2500  -999.2500  1469.8359   172.5935    54.8191      .6958      .6516   -91.7719  -999.2500
 2178.0000  -999.2500  -999.2500  1455.4355   171.3516    53.8409      .6968      .6619   -91.9332  -999.2500
 2178.5000  -999.2500  -999.2500  1441.0391   170.5190    52.7346      .6967      .6721   -92.0564  -999.2500
 2179.0000  -999.2500  -999.2500  1429.8340   170.0928    52.1242      .6964      .6818   -92.0931  -999.2500
 2179.5000  -999.2500  -999.2500  1419.8574   169.7300    53.2880      .6958      .6906   -92.1239  -999.2500
 2180.0000  -999.2500  -999.2500  1409.8789   169.5466    54.6967      .6990      .6974   -92.0138  -999.2500
 2180.5000  -999.2500  -999.2500  1399.9043   169.4827    55.0203      .7070      .7014   -91.9037  -999.2500
 2181.0000  -999.2500  -999.2500  1389.9258   169.4524    54.2532      .7149      .7022   -91.7955  -999.2500
 2181.5000  -999.2500  -999.2500  1388.5977   169.5762    53.6019      .7219      .7004   -91.6875  -999.2500
 2182.0000  -999.2500  -999.2500  1387.4746   169.7388    53.6895      .7288      .6961   -91.5199  -999.2500
 2182.5000  -999.2500  -999.2500  1386.3516   170.0090    54.7159      .7350      .6920   -91.3357  -999.2500
 2183.0000  -999.2500  -999.2500  1385.2305   170.0713    56.1807      .7385      .6886   -91.1897  -999.2500
 2183.5000  -999.2500  -999.2500  1380.8555   169.8057    57.3484      .7420      .6869   -91.1620  -999.2500
 2184.0000  -999.2500  -999.2500  1375.7090   169.2610    57.7712      .7440      .6907   -91.1343  -999.2500
 2184.5000  -999.2500  -999.2500  1370.5605   168.9829    56.4523      .7397      .6956   -91.2214  -999.2500
 2185.0000  -999.2500  -999.2500  1368.4512   169.0242    54.8222      .7355      .6975   -91.3884  -999.2500
 2185.5000  -999.2500  -999.2500  1370.2363   168.9116    53.6658      .7312      .6929   -91.5240  -999.2500
 2186.0000  -999.2500  -999.2500  1375.5371   168.3713    53.7311      .7232      .6854   -91.6199  -999.2500
 2186.5000  -999.2500  -999.2500  1382.7383   168.1895    54.7460      .7153      .6757   -91.5544  -999.2500
 2187.0000  -999.2500  -999.2500  1389.9375   168.3503    55.5475      .7074      .6642   -91.4758  -999.2500
 2187.5000  -999.2500  -999.2500  1397.1387   169.0581    54.8369      .6991      .6555   -91.7952  -999.2500
 2188.0000  -999.2500  -999.2500  1404.1602   169.8086    52.7454      .6935      .6501   -92.2269  -999.2500
 2188.5000  -999.2500  -999.2500  1410.9844   170.0786    51.8904      .6947      .6453   -92.7030  -999.2500
 2189.0000  -999.2500  -999.2500  1417.8047   170.2053    53.8053      .6992      .6544   -92.9294  -999.2500
 2189.5000  -999.2500  -999.2500  1391.2227   170.5710    56.6489      .7065      .6650   -93.0964  -999.2500
 2190.0000  -999.2500  -999.2500  1351.6953   171.7991    58.3484      .7169      .6717   -93.2133  -999.2500
 2190.5000  -999.2500  -999.2500  1327.5859   172.8254    56.3454      .7310      .6768   -93.3042  -999.2500
 2191.0000  -999.2500  -999.2500  1317.2559   173.0974    53.3678      .7458      .6882   -93.3943  -999.2500
 2191.5000  -999.2500  -999.2500  1306.9238   172.8872    49.3696      .7582      .7063   -93.3256  -999.2500
 2192.0000  -999.2500  -999.2500  1296.6758   172.0413    47.5257      .7702      .7308   -93.2567  -999.2500
 2192.5000  -999.2500  -999.2500  1286.8535   171.3364    46.8888      .7772      .7370   -92.9556  -999.2500
 2193.0000  -999.2500  -999.2500  1277.0293   170.4138    48.3104      .7832      .7347   -92.6041  -999.2500
 2193.5000  -999.2500  -999.2500  1266.2598   168.9236    50.9026      .7844      .7207   -92.3239  -999.2500
 2194.0000  -999.2500  -999.2500  1260.5703   166.5852    50.6901      .7856      .7118   -92.0734  -999.2500
 2194.5000  -999.2500  -999.2500  1274.7090   164.8560    49.2708      .7848      .7110   -91.9259  -999.2500
 2195.0000  -999.2500  -999.2500  1282.4785   163.7722    48.0732      .7830      .7157   -91.8140  -999.2500
 2195.5000  -999.2500  -999.2500  1290.2500   163.1584    47.9936      .7793      .7202   -91.9752  -999.2500
 2196.0000  -999.2500  -999.2500  1298.0195   163.4102    48.9684      .7720      .7210   -92.1366  -999.2500
 2196.5000  -999.2500  -999.2500  1305.7891   163.6946    49.9325      .7645      .7197   -92.2025  -999.2500
 2197.0000  -999.2500  -999.2500  1313.5586   164.5442    50.8467      .7570      .7104   -92.2566  -999.2500
 2197.5000  -999.2500  -999.2500  1321.3281   165.3940    51.5215      .7524      .7007   -92.2939  -999.2500
 2198.0000  -999.2500  -999.2500  1329.0996   166.2817    51.6965      .7487      .6904   -92.3079  -999.2500
 2198.5000  -999.2500  -999.2500  1336.8691   167.2056    51.7977      .7463      .6950   -92.1265  -999.2500
 2199.0000  -999.2500  -999.2500  1347.4688   168.1289    51.5718      .7450      .7003   -92.0488  -999.2500
 2199.5000  -999.2500  -999.2500  1359.6270   168.9387    50.3945      .7410      .7053   -92.1681  -999.2500
 2200.0000  -999.2500  -999.2500  1371.7871   169.6658    49.5740      .7344      .7044   -92.3445  -999.2500
 2200.5000  -999.2500  -999.2500  1388.8145   170.3926    49.1921      .7267      .6956   -92.5497  -999.2500
