~VERSION INFORMATION
VERS.                             2.0:   CWLS Log ASCII Standard-VERSION 2.0
WRAP.                              NO:   One line per depth step
~Well Information Block
STRT.F                      3993.0000:   Top Depth
STOP.F                     13285.0000:   Bottom Depth
STEP.F                         .50000:   Depth Increment
NULL.                        -999.250:   Null Value
FLD .                     MU BLK A 85:   Field Name
WELL.       OCSG03061  B004 ST00 BP00:   NAME
API .                    427124009200:   WELL API
EDF .F                       122.0000:   ELEV DRILL FLOOR
COMP.             TRANSCO EXPLORATION:   OPERATOR
BN  .                           A 859:   BLOCK
CTRY.                             USA:   COUNTRY NAME
CNTY.                        M I E AD:   COUNTY NAME
EKB .F                       123.0000:   ELEV KELLY BUSHING
TDD .F                          0.000:   FINAL TD DRILLER
STAT.                           TEXAS:   STATE NAME
UWI .                    427124009200:   WELL API
DICO.               IHS : Digitizing Company
~PARAMETER INFORMATION (zones)
#MNEM.UNIT                       Value     Description
#=========                       =====     ===========
#ZONATION                          CNL:   ZONATION NAME
#ZONE                            RUN_1:   ZONE NAME
TOP .                       3993.0000:   TOP DEPTH
BOT .                       9346.5000:   BOTTOM DEPTH
RUN .                               1:   RUN NUMBER
LCCD.                              20:   LOGGING CONTRACTOR
SRVC.                          Baroil:   LOGGING CONT NAME
DICO.          QC Data Collectors Ltd:   DIG COMPANY NAME
LDAT.                      12/10/1986:   DATE LOGGED
ELD .F                       123.0000:   LOG DATUM ELEVATION
TDD .F                      9350.0000:   TOTAL DEPTH DRILLER
TDL .F                      9348.0000:   TOTAL DEPTH LOGGER
BOTL.F                      9346.0000:   BOTTOM DEPTH LOGGED
TOPL.F                      4002.0000:   TOP DEPTH LOGGED
CS1 .IN                       13.3750:   CASING SIZE 1
BS1 .IN                       12.2500:   BIT SIZE 1
DDB1.F                      9350.0000:   DEPTH DRILLED BIT 1
BHF .                              65:   FLUID CODE
DPT .                        INVERMUL:   DRILLING FLUID TYPE
MUDD.                         12.8000:   FLUID DENSITY
MUDV.                         40.0000:   FLUID VISCOSITY
DFPH.                          9.2000:   FLUID PH
FL  .                         11.0000:   FLUID LOSS
RM  .OHMM                       .3400:   RM
RMT .DEGF                     70.0000:   RM TEMP
RMF .OHMM                       .1600:   RMF
RMFT.DEGF                     70.0000:   RMF TEMP
FSC .                               M:   RMF CODE
RMC .OHMM                       .4200:   RMC
RMCT.DEGF                     70.0000:   RMC TEMP
CMC .                               C:   RMC CODE
TMAX.DEGF                    202.0000:   MAX REC TEMP
~PARAMETER INFORMATION (zones)
#MNEM.UNIT                       Value     Description
#=========                       =====     ===========
#ZONATION                          DIL:   ZONATION NAME
#ZONE                            RUN_1:   ZONE NAME
TOP .                       4002.0000:   TOP DEPTH
BOT .                       9336.5000:   BOTTOM DEPTH
RUN .                               1:   RUN NUMBER
LCCD.                              20:   LOGGING CONTRACTOR
SRVC.                          Baroil:   LOGGING CONT NAME
DICO.          QC Data Collectors Ltd:   DIG COMPANY NAME
LDAT.                      12/10/1986:   DATE LOGGED
ELD .F                       123.0000:   LOG DATUM ELEVATION
TDD .F                      9350.0000:   TOTAL DEPTH DRILLER
TDL .F                      9348.0000:   TOTAL DEPTH LOGGER
BOTL.F                      9346.0000:   BOTTOM DEPTH LOGGED
TOPL.F                      4002.0000:   TOP DEPTH LOGGED
CS1 .IN                       13.3750:   CASING SIZE 1
BS1 .IN                       12.2500:   BIT SIZE 1
DDB1.F                      9350.0000:   DEPTH DRILLED BIT 1
BHF .                              65:   FLUID CODE
DPT .                        INVERMUL:   DRILLING FLUID TYPE
MUDD.                         12.8000:   FLUID DENSITY
MUDV.                         40.0000:   FLUID VISCOSITY
DFPH.                          9.2000:   FLUID PH
FL  .                         11.0000:   FLUID LOSS
RM  .OHMM                       .3400:   RM
RMT .DEGF                     70.0000:   RM TEMP
RMF .OHMM                       .1600:   RMF
RMFT.DEGF                     70.0000:   RMF TEMP
FSC .                               M:   RMF CODE
RMC .OHMM                       .4200:   RMC
RMCT.DEGF                     70.0000:   RMC TEMP
CMC .                               C:   RMC CODE
TMAX.DEGF                    202.0000:   MAX REC TEMP
~PARAMETER INFORMATION (zones)
#MNEM.UNIT                       Value     Description
#=========                       =====     ===========
#ZONATION                          DIL:   ZONATION NAME
#ZONE                            RUN_3:   ZONE NAME
TOP .                       9336.0000:   TOP DEPTH
BOT .                      13285.5000:   BOTTOM DEPTH
RUN .                               3:   RUN NUMBER
LCCD.                              20:   LOGGING CONTRACTOR
SRVC.                          Baroil:   LOGGING CONT NAME
DICO.          QC Data Collectors Ltd:   DIG COMPANY NAME
LDAT.                      12/28/1986:   DATE LOGGED
ELD .F                       123.0000:   LOG DATUM ELEVATION
TDD .                            NULL:   TOTAL DEPTH DRILLER
TDL .                            NULL:   TOTAL DEPTH LOGGER
BOTL.F                     13291.0000:   BOTTOM DEPTH LOGGED
TOPL.F                     13285.0000:   TOP DEPTH LOGGED
CS1 .IN                        9.6250:   CASING SIZE 1
BS1 .IN                        8.5000:   BIT SIZE 1
DDB1.                            NULL:   DEPTH DRILLED BIT 1
BHF .                              35:   FLUID CODE
DPT .                       PETROFREE:   DRILLING FLUID TYPE
MUDD.                         14.9000:   FLUID DENSITY
MUDV.                         49.0000:   FLUID VISCOSITY
DFPH.                            NULL:   FLUID PH
FL  .                          6.0000:   FLUID LOSS
RM  .                            NULL:   RM
RMT .                            NULL:   RM TEMP
RMF .                            NULL:   RMF
RMFT.                            NULL:   RMF TEMP
FSC .                            NULL:   RMF CODE
RMC .                            NULL:   RMC
RMCT.                            NULL:   RMC TEMP
CMC .                            NULL:   RMC CODE
TMAX.DEGF                    274.0000:   MAX REC TEMP
~PARAMETER INFORMATION (zones)
#MNEM.UNIT                       Value     Description
#=========                       =====     ===========
#ZONATION                          FDC:   ZONATION NAME
#ZONE                            RUN_1:   ZONE NAME
TOP .                       3993.0000:   TOP DEPTH
BOT .                       9346.5000:   BOTTOM DEPTH
RUN .                               1:   RUN NUMBER
LCCD.                              20:   LOGGING CONTRACTOR
SRVC.                          Baroil:   LOGGING CONT NAME
DICO.          QC Data Collectors Ltd:   DIG COMPANY NAME
LDAT.                      12/10/1986:   DATE LOGGED
ELD .F                       123.0000:   LOG DATUM ELEVATION
TDD .F                      9350.0000:   TOTAL DEPTH DRILLER
TDL .F                      9348.0000:   TOTAL DEPTH LOGGER
BOTL.F                      9346.0000:   BOTTOM DEPTH LOGGED
TOPL.F                      4002.0000:   TOP DEPTH LOGGED
CS1 .IN                       13.3750:   CASING SIZE 1
BS1 .IN                       12.2500:   BIT SIZE 1
DDB1.F                      9350.0000:   DEPTH DRILLED BIT 1
BHF .                              65:   FLUID CODE
DPT .                        INVERMUL:   DRILLING FLUID TYPE
MUDD.                         12.8000:   FLUID DENSITY
MUDV.                         40.0000:   FLUID VISCOSITY
DFPH.                          9.2000:   FLUID PH
FL  .                         11.0000:   FLUID LOSS
RM  .OHMM                       .3400:   RM
RMT .DEGF                     70.0000:   RM TEMP
RMF .OHMM                       .1600:   RMF
RMFT.DEGF                     70.0000:   RMF TEMP
FSC .                               M:   RMF CODE
RMC .OHMM                       .4200:   RMC
RMCT.DEGF                     70.0000:   RMC TEMP
CMC .                               C:   RMC CODE
TMAX.DEGF                    202.0000:   MAX REC TEMP
~Curve Information Block
#MNEM.UNIT                    API CODE    No Description
#=========                    ========    == ===========
DEPT.F                   00 001 00 00:     1  DEPTH
NPHI.%                               :     2  Neutron Porosity
CILD.MMHO                            :     3  Deep Induction Conductivity
GR.GAPI                              :     4  Gamma Ray
ILD.OHMM                             :     5  Deep Induction Resistivity
ILM.OHMM                             :     6  Medium Induction Resistivity
RFOC.OHMM                            :     7  Medium Resistivity
SP.MV                                :     8  Spontaneous Potential
CALI.IN                              :     9  Caliper
DRHO.G/C3                            :    10  Bulk Density Correction
GRD.GAPI                             :    11  Gamma Ray
RHOB.G/C3                            :    12  Bulk Density
~ASCII
# ...
 5426.5000    39.4015  1156.8652  -999.2500      .8508      .9091      .9704   -69.1711    14.1939     -.0091    46.0416     2.2364
 5427.0000    39.6385  1156.2773  -999.2500      .8505      .9009      .9620   -69.1135    14.2094     -.0093    48.5531     2.2352
 5427.5000    39.3112  1165.2520  -999.2500      .8435      .8959      .9492   -69.2499    14.2250     -.0186    51.7108     2.2357
 5428.0000    38.6118  1176.9629  -999.2500      .8337      .8963      .9359   -69.5032    14.2408     -.0458    52.2451     2.2392
 5428.5000    38.2364  1189.9063  -999.2500      .8216      .9023      .9256   -69.7561    14.2465     -.0752    51.1379     2.2386
 5429.0000    38.1479  1201.3711  -999.2500      .8127      .9121      .9219   -69.7877    14.2425     -.0864    50.5110     2.2292
 5429.5000    37.9258  1203.2930  -999.2500      .8136      .9203      .9258   -69.6771    14.2418     -.0848    51.2562     2.2205
 5430.0000    36.8400  1201.0781  -999.2500      .8267      .9281      .9358   -69.5200    14.2423     -.0707    52.9686     2.2210
 5430.5000    34.6683  1191.0078  -999.2500      .8427      .9349      .9519   -69.2511    14.2495     -.0479    53.6339     2.2270
 5431.0000    32.6780  1175.8223  -999.2500      .8626      .9418      .9654   -68.9824    14.2616     -.0264    51.6134     2.2376
 5431.5000    31.5580  1150.6797  -999.2500      .8812      .9495      .9706   -68.7753    14.2749     -.0084    49.6176     2.2440
 5432.0000    32.9470  1125.4102  -999.2500      .8978      .9569      .9756   -69.0209    14.2892      .0033    48.7318     2.2527
 5432.5000    35.3848  1103.4375  -999.2500      .9079      .9658      .9857   -69.2667    14.2845      .0034    47.6845     2.2747
 5433.0000    35.8904  1085.0625  -999.2500      .9152      .9736      .9967   -69.5127    14.2498     -.0052    46.6725     2.2864
 5433.5000    35.6761  1079.1055  -999.2500      .9193      .9798      .9923   -69.7583    14.2008     -.0138    46.5344     2.2915
 5434.0000    34.6415  1078.9727  -999.2500      .9188      .9810      .9828   -69.8137    14.1756     -.0189    45.9874     2.2856
 5434.5000    34.1052  1086.7031  -999.2500      .9121      .9797      .9830   -69.8146    14.1944     -.0176    45.4590     2.2809
 5435.0000    34.3636  1097.9141  -999.2500      .8967      .9837      .9827   -69.8156    14.2206     -.0098    46.7285     2.2848
 5435.5000    35.4584  1117.7813  -999.2500      .8792      .9776      .9786   -69.8165    14.2274      .0018    49.4254     2.2903
 5436.0000    35.6196  1136.9805  -999.2500      .8621      .9711      .9674   -69.8900    14.1700      .0103    51.5814     2.2882
 5436.5000    34.4276  1160.7363  -999.2500      .8436      .9630      .9529   -70.0359    13.8870      .0168    53.3173     2.2962
 5437.0000    32.7746  1178.7578  -999.2500      .8363      .9607      .9412   -70.1819    13.3376      .0229    54.4834     2.3154
 5437.5000    32.3190  1188.1484  -999.2500      .8280      .9634      .9430   -70.3280    13.0670     -.0023    53.7633     2.3268
 5438.0000    32.4872  1198.7754  -999.2500      .8160      .9617      .9530   -70.4740    12.9525     -.0490    51.2488     2.3221
 5438.5000    31.8174  1213.6504  -999.2500      .7986      .9676      .9705   -70.7247    12.8953     -.1070    50.0131     2.2823
 5439.0000    29.8865  1234.1875  -999.2500      .7787      .9332      .9983   -71.0321    12.8881     -.1205    48.6788     2.2763
 5439.5000    28.9872  1260.1484  -999.2500      .7624      .9020     1.0160   -71.3606    12.8981     -.0936    45.2759     2.2796
 5440.0000    29.1299  1286.8789  -999.2500      .7507      .8645     1.0174   -71.8087    12.9246     -.0725    41.2152     2.2915
 5440.5000    29.7230  1313.3613  -999.2500      .7403      .8229      .9817   -72.2565    12.9891     -.0672    40.0981     2.2914
 5441.0000    31.1455  1337.7617  -999.2500      .7297      .7944      .9090   -72.1626    13.1754     -.0747    42.6370     2.2637
 5441.5000    34.2878  1360.5781  -999.2500      .7183      .7747      .8722   -71.7727    13.6392     -.0774    45.0086     2.2392
 5442.0000    37.2072  1381.4355  -999.2500      .7112      .7695      .8810   -71.3827    14.2596     -.0749    45.8738     2.2371
 5442.5000    38.7575  1395.5625  -999.2500      .7077      .7781      .8796   -71.0325    14.4530     -.0652    44.6218     2.2633
 5443.0000    38.5256  1388.2734  -999.2500      .7128      .7996      .8711   -70.8076    14.5646     -.0686    43.0756     2.2784
 5443.5000    37.1120  1364.9863  -999.2500      .7260      .8208      .8606   -70.5830    14.6624     -.0979    42.0265     2.2889
 5444.0000    36.5995  1340.1152  -999.2500      .7452      .8381      .8605   -70.3583    14.8645     -.1398    41.9272     2.2962
 5444.5000    37.1953  1317.7695  -999.2500      .7691      .8486      .8771   -70.1851    15.0270     -.1571    42.0491     2.3018
 5445.0000    38.9255  1307.2227  -999.2500      .7702      .8507      .8931   -70.0262    14.9223     -.1515    42.0453     2.3010
 5445.5000    39.6296  1299.9082  -999.2500      .7656      .8414      .8895   -69.8672    14.7334     -.1035    42.1467     2.2761
 5446.0000    39.1224  1288.6133  -999.2500      .7690      .8306      .8854   -69.7301    14.4585     -.0616    43.6891     2.2551
 5446.5000    37.8816  1275.5957  -999.2500      .7787      .8258      .8823   -69.7550    14.2006     -.0344    45.8476     2.2389
 5447.0000    38.6906  1264.7051  -999.2500      .7836      .8257      .8804   -69.7799    14.0802     -.0261    47.1991     2.2331
 5447.5000    40.4030  1259.8184  -999.2500      .7832      .8296      .8830   -69.8049    14.0217     -.0503    47.9747     2.2332
 5448.0000    39.4145  1264.9355  -999.2500      .7829      .8307      .8856   -69.7653    14.0176     -.1012    48.4067     2.2419
 5448.5000    36.2380  1271.3711  -999.2500      .7819      .8295      .8856   -69.6747    14.0179     -.1440    48.5186     2.2460
 5449.0000    34.9879  1277.4570  -999.2500      .7805      .8254      .8852   -69.5841    14.0248     -.1643    48.8180     2.2296
 5449.5000    34.7471  1277.6621  -999.2500      .7790      .8224      .8839   -69.4935    14.0293     -.1364    49.7444     2.2134
 5450.0000    35.5702  1275.0898  -999.2500      .7785      .8201      .8764   -69.5259    14.0320     -.0546    50.6703     2.2152
 5450.5000    36.0775  1270.4727  -999.2500      .7811      .8200      .8631   -69.6039    14.0337     -.0153    51.3116     2.2212
 5451.0000    37.4866  1266.2930  -999.2500      .7851      .8237      .8880   -69.6819    14.0346     -.0442    51.8007     2.2251
 5451.5000    38.7783  1260.3965  -999.2500      .7903      .8390      .9103   -69.7611    14.0355     -.0658    51.9360     2.2272
 5452.0000    39.6090  1248.1953  -999.2500      .7965      .8592      .9067   -69.8428    14.0364     -.0710    51.0652     2.2307
 5452.5000    39.2019  1224.5762  -999.2500      .8083      .8796      .8927   -69.9244    14.0365     -.0744    50.1368     2.2365
 5453.0000    38.6081  1203.6426  -999.2500      .8213      .8965      .8883   -70.0061    14.0354     -.0832    49.7551     2.2420
 5453.5000    39.3572  1193.8574  -999.2500      .8283      .9081      .9023   -69.9331    14.0325     -.0971    49.5412     2.2365
 5454.0000    40.1716  1184.8027  -999.2500      .8325      .9148      .9305   -69.7898    14.0267     -.1010    48.9079     2.2281
 5454.5000    40.2617  1171.5625  -999.2500      .8435      .9148      .9629   -69.6466    14.0210     -.0923    47.8619     2.2352
 5455.0000    39.3380  1147.9785  -999.2500      .8619      .9173      .9747   -69.5609    14.0177     -.0857    46.7950     2.2561
 5455.5000    38.3710  1110.0527  -999.2500      .8869      .9220      .9633   -69.6206    14.0162     -.1197    45.6813     2.2676
 5456.0000    37.5825  1088.6719  -999.2500      .9108      .9301      .9512   -69.6803    14.0222     -.1393    44.4271     2.2712
 5456.5000    37.0585  1090.2715  -999.2500      .9113      .9385      .9445   -69.7400    14.0282     -.1506    43.3959     2.2942
