~VERSION INFORMATION
VERS.                             2.0:   CWLS Log ASCII Standard-VERSION 2.0
WRAP.                              NO:   One line per depth step
~Well Information Block
STRT.F                      3993.0000:   Top Depth
STOP.F                     13285.0000:   Bottom Depth
STEP.F                         .50000:   Depth Increment
NULL.                        -999.250:   Null Value
FLD .                     MU BLK A 85:   Field Name
WELL.       OCSG03061  B004 ST00 BP00:   NAME
API .                    427124009200:   WELL API
EDF .F                       122.0000:   ELEV DRILL FLOOR
COMP.             TRANSCO EXPLORATION:   OPERATOR
BN  .                           A 859:   BLOCK
CTRY.                             USA:   COUNTRY NAME
CNTY.                        M I E AD:   COUNTY NAME
EKB .F                       123.0000:   ELEV KELLY BUSHING
TDD .F                          0.000:   FINAL TD DRILLER
STAT.                           TEXAS:   STATE NAME
UWI .                    427124009200:   WELL API
DICO.               IHS : Digitizing Company
~PARAMETER INFORMATION (zones)
#MNEM.UNIT                       Value     Description
#=========                       =====     ===========
#ZONATION                          CNL:   ZONATION NAME
#ZONE                            RUN_1:   ZONE NAME
TOP .                       3993.0000:   TOP DEPTH
BOT .                       9346.5000:   BOTTOM DEPTH
RUN .                               1:   RUN NUMBER
LCCD.                              20:   LOGGING CONTRACTOR
SRVC.                          Baroil:   LOGGING CONT NAME
DICO.          QC Data Collectors Ltd:   DIG COMPANY NAME
LDAT.                      12/10/1986:   DATE LOGGED
ELD .F                       123.0000:   LOG DATUM ELEVATION
TDD .F                      9350.0000:   TOTAL DEPTH DRILLER
TDL .F                      9348.0000:   TOTAL DEPTH LOGGER
BOTL.F                      9346.0000:   BOTTOM DEPTH LOGGED
TOPL.F                      4002.0000:   TOP DEPTH LOGGED
CS1 .IN                       13.3750:   CASING SIZE 1
BS1 .IN                       12.2500:   BIT SIZE 1
DDB1.F                      9350.0000:   DEPTH DRILLED BIT 1
BHF .                              65:   FLUID CODE
DPT .                        INVERMUL:   DRILLING FLUID TYPE
MUDD.                         12.8000:   FLUID DENSITY
MUDV.                         40.0000:   FLUID VISCOSITY
DFPH.                          9.2000:   FLUID PH
FL  .                         11.0000:   FLUID LOSS
RM  .OHMM                       .3400:   RM
RMT .DEGF                     70.0000:   RM TEMP
RMF .OHMM                       .1600:   RMF
RMFT.DEGF                     70.0000:   RMF TEMP
FSC .                               M:   RMF CODE
RMC .OHMM                       .4200:   RMC
RMCT.DEGF                     70.0000:   RMC TEMP
CMC .                               C:   RMC CODE
TMAX.DEGF                    202.0000:   MAX REC TEMP
~PARAMETER INFORMATION (zones)
#MNEM.UNIT                       Value     Description
#=========                       =====     ===========
#ZONATION                          DIL:   ZONATION NAME
#ZONE                            RUN_1:   ZONE NAME
TOP .                       4002.0000:   TOP DEPTH
BOT .                       9336.5000:   BOTTOM DEPTH
RUN .                               1:   RUN NUMBER
LCCD.                              20:   LOGGING CONTRACTOR
SRVC.                          Baroil:   LOGGING CONT NAME
DICO.          QC Data Collectors Ltd:   DIG COMPANY NAME
LDAT.                      12/10/1986:   DATE LOGGED
ELD .F                       123.0000:   LOG DATUM ELEVATION
TDD .F                      9350.0000:   TOTAL DEPTH DRILLER
TDL .F                      9348.0000:   TOTAL DEPTH LOGGER
BOTL.F                      9346.0000:   BOTTOM DEPTH LOGGED
TOPL.F                      4002.0000:   TOP DEPTH LOGGED
CS1 .IN                       13.3750:   CASING SIZE 1
BS1 .IN                       12.2500:   BIT SIZE 1
DDB1.F                      9350.0000:   DEPTH DRILLED BIT 1
BHF .                              65:   FLUID CODE
DPT .                        INVERMUL:   DRILLING FLUID TYPE
MUDD.                         12.8000:   FLUID DENSITY
MUDV.                         40.0000:   FLUID VISCOSITY
DFPH.                          9.2000:   FLUID PH
FL  .                         11.0000:   FLUID LOSS
RM  .OHMM                       .3400:   RM
RMT .DEGF                     70.0000:   RM TEMP
RMF .OHMM                       .1600:   RMF
RMFT.DEGF                     70.0000:   RMF TEMP
FSC .                               M:   RMF CODE
RMC .OHMM                       .4200:   RMC
RMCT.DEGF                     70.0000:   RMC TEMP
CMC .                               C:   RMC CODE
TMAX.DEGF                    202.0000:   MAX REC TEMP
~PARAMETER INFORMATION (zones)
#MNEM.UNIT                       Value     Description
#=========                       =====     ===========
#ZONATION                          DIL:   ZONATION NAME
#ZONE                            RUN_3:   ZONE NAME
TOP .                       9336.0000:   TOP DEPTH
BOT .                      13285.5000:   BOTTOM DEPTH
RUN .                               3:   RUN NUMBER
LCCD.                              20:   LOGGING CONTRACTOR
SRVC.                          Baroil:   LOGGING CONT NAME
DICO.          QC Data Collectors Ltd:   DIG COMPANY NAME
LDAT.                      12/28/1986:   DATE LOGGED
ELD .F                       123.0000:   LOG DATUM ELEVATION
TDD .                            NULL:   TOTAL DEPTH DRILLER
TDL .                            NULL:   TOTAL DEPTH LOGGER
BOTL.F                     13291.0000:   BOTTOM DEPTH LOGGED
TOPL.F                     13285.0000:   TOP DEPTH LOGGED
CS1 .IN                        9.6250:   CASING SIZE 1
BS1 .IN                        8.5000:   BIT SIZE 1
DDB1.                            NULL:   DEPTH DRILLED BIT 1
BHF .                              35:   FLUID CODE
DPT .                       PETROFREE:   DRILLING FLUID TYPE
MUDD.                         14.9000:   FLUID DENSITY
MUDV.                         49.0000:   FLUID VISCOSITY
DFPH.                            NULL:   FLUID PH
FL  .                          6.0000:   FLUID LOSS
RM  .                            NULL:   RM
RMT .                            NULL:   RM TEMP
RMF .                            NULL:   RMF
RMFT.                            NULL:   RMF TEMP
FSC .                            NULL:   RMF CODE
RMC .                            NULL:   RMC
RMCT.                            NULL:   RMC TEMP
CMC .                            NULL:   RMC CODE
TMAX.DEGF                    274.0000:   MAX REC TEMP
~PARAMETER INFORMATION (zones)
#MNEM.UNIT                       Value     Description
#=========                       =====     ===========
#ZONATION                          FDC:   ZONATION NAME
#ZONE                            RUN_1:   ZONE NAME
TOP .                       3993.0000:   TOP DEPTH
BOT .                       9346.5000:   BOTTOM DEPTH
RUN .                               1:   RUN NUMBER
LCCD.                              20:   LOGGING CONTRACTOR
SRVC.                          Baroil:   LOGGING CONT NAME
DICO.          QC Data Collectors Ltd:   DIG COMPANY NAME
LDAT.                      12/10/1986:   DATE LOGGED
ELD .F                       123.0000:   LOG DATUM ELEVATION
TDD .F                      9350.0000:   TOTAL DEPTH DRILLER
TDL .F                      9348.0000:   TOTAL DEPTH LOGGER
BOTL.F                      9346.0000:   BOTTOM DEPTH LOGGED
TOPL.F                      4002.0000:   TOP DEPTH LOGGED
CS1 .IN                       13.3750:   CASING SIZE 1
BS1 .IN                       12.2500:   BIT SIZE 1
DDB1.F                      9350.0000:   DEPTH DRILLED BIT 1
BHF .                              65:   FLUID CODE
DPT .                        INVERMUL:   DRILLING FLUID TYPE
MUDD.                         12.8000:   FLUID DENSITY
MUDV.                         40.0000:   FLUID VISCOSITY
DFPH.                          9.2000:   FLUID PH
FL  .                         11.0000:   FLUID LOSS
RM  .OHMM                       .3400:   RM
RMT .DEGF                     70.0000:   RM TEMP
RMF .OHMM                       .1600:   RMF
RMFT.DEGF                     70.0000:   RMF TEMP
FSC .                               M:   RMF CODE
RMC .OHMM                       .4200:   RMC
RMCT.DEGF                     70.0000:   RMC TEMP
CMC .                               C:   RMC CODE
TMAX.DEGF                    202.0000:   MAX REC TEMP
~Curve Information Block
#MNEM.UNIT                    API CODE    No Description
#=========                    ========    == ===========
DEPT.F                   00 001 00 00:     1  DEPTH
NPHI.%                               :     2  Neutron Porosity
CILD.MMHO                            :     3  Deep Induction Conductivity
GR.GAPI                              :     4  Gamma Ray
ILD.OHMM                             :     5  Deep Induction Resistivity
ILM.OHMM                             :     6  Medium Induction Resistivity
RFOC.OHMM                            :     7  Medium Resistivity
SP.MV                                :     8  Spontaneous Potential
CALI.IN                              :     9  Caliper
DRHO.G/C3                            :    10  Bulk Density Correction
GRD.GAPI                             :    11  Gamma Ray
RHOB.G/C3                            :    12  Bulk Density
~ASCII
# ...
 4694.5000    28.3191  1436.8379  -999.2500      .6919      .7425      .8886   -65.1530    13.1049     -.1028    34.0514     2.1940
 4695.0000    32.4989  1495.2988  -999.2500      .6595      .7197      .7850   -65.5024    13.1184     -.0927    34.6448     2.1585
 4695.5000    34.1627  1551.9707  -999.2500      .6309      .7046      .7993   -65.9592    13.1129     -.0967    41.7365     2.1561
 4696.0000    34.7604  1617.1855  -999.2500      .6071      .6958      .8272   -66.2438    13.1022     -.1034    45.9253     2.1768
 4696.5000    32.0847  1668.3945  -999.2500      .5893      .6893      .8341   -66.3154    13.1043     -.1072    48.7985     2.1914
 4697.0000    30.8738  1694.2715  -999.2500      .5827      .6870      .8333   -66.2927    13.1065     -.1037    47.8950     2.1888
 4697.5000    30.8641  1697.2871  -999.2500      .5799      .6877      .8392   -65.9032    13.1100     -.0965    44.7158     2.1707
 4698.0000    32.5420  1691.6621  -999.2500      .5790      .6884      .8453   -65.5729    13.1136     -.0947    41.6698     2.1549
 4698.5000    33.3427  1684.1270  -999.2500      .5781      .6886      .8344   -65.4436    13.1249     -.1003    38.0894     2.1454
 4699.0000    33.5002  1679.4199  -999.2500      .5782      .6853      .8085   -66.0496    13.1381     -.1055    36.4893     2.1416
 4699.5000    33.6605  1675.4570  -999.2500      .5805      .6815      .7952   -66.8118    13.1534     -.1107    37.1712     2.1400
 4700.0000    34.1679  1671.9199  -999.2500      .5828      .6797      .7963   -67.1689    13.1721     -.1175    38.9484     2.1381
 4700.5000    35.5667  1671.8066  -999.2500      .5851      .6784      .7993   -67.3691    13.1908     -.1292    39.9734     2.1397
 4701.0000    33.6036  1650.9355  -999.2500      .5874      .6856      .8020   -67.1831    13.2095     -.1339    40.4051     2.1530
 4701.5000    31.5204  1611.7715  -999.2500      .5964      .7012      .8014   -66.9404    13.2310     -.1174    41.0058     2.1742
 4702.0000    30.3400  1563.6426  -999.2500      .6131      .7201      .7998   -66.8370    13.2524     -.1028    40.7948     2.1883
 4702.5000    30.4498  1506.5742  -999.2500      .6349      .7413      .8069   -66.9276    13.2791     -.1306    39.0743     2.1943
 4703.0000    31.9287  1459.9336  -999.2500      .6620      .7651      .8397   -67.2065    13.3087     -.1712    38.3315     2.1963
 4703.5000    32.6103  1412.8477  -999.2500      .6916      .7912      .8799   -67.4188    13.3486     -.2203    38.7899     2.1944
 4704.0000    31.2910  1362.5840  -999.2500      .7231      .8149      .8963   -67.4370    13.4054     -.2768    39.7463     2.1895
 4704.5000    31.1455  1308.3945  -999.2500      .7541      .8379      .9015   -67.5375    13.4629     -.2865    40.2856     2.1912
 4705.0000    32.5955  1256.9883  -999.2500      .7814      .8607      .9127   -67.7632    13.5216     -.2633    40.2505     2.1860
 4705.5000    34.8153  1213.9238  -999.2500      .8081      .8829      .9198   -68.0723    13.5634     -.2007    40.0347     2.1869
 4706.0000    35.5834  1183.6504  -999.2500      .8287      .9024      .9217   -68.3901    13.5915     -.1637    39.9321     2.2101
 4706.5000    35.4898  1158.0723  -999.2500      .8498      .9184      .9209   -68.7664    13.6088     -.1416    41.4205     2.2335
 4707.0000    35.1735  1134.7266  -999.2500      .8708      .9334      .9316   -68.9016    13.6221     -.1294    43.7753     2.2493
 4707.5000    35.4297  1113.0840  -999.2500      .8918      .9488      .9458   -68.9438    13.6137     -.1275    45.4761     2.2539
 4708.0000    37.0827  1090.4219  -999.2500      .9132      .9722      .9669   -68.8527    13.5939     -.0947    46.2274     2.2529
 4708.5000    39.9648  1060.6465  -999.2500      .9390      .9963      .9940   -68.3978    13.5750     -.0129    46.6217     2.2920
 4709.0000    42.1869  1027.3184  -999.2500      .9674     1.0216     1.0343   -67.9546    13.5567      .0257    46.7344     2.3365
 4709.5000    38.4993   990.9863  -999.2500      .9937     1.0558     1.0793   -67.5977    13.5464      .0384    46.4483     2.3482
 4710.0000    34.7871   953.6357  -999.2500     1.0180     1.0983     1.1097   -67.4541    13.5444      .0108    45.8648     2.3570
 4710.5000    33.1166   924.4053  -999.2500     1.0429     1.1337     1.1133   -67.4985    13.5468     -.0015    45.5535     2.3633
 4711.0000    33.2131   906.4746  -999.2500     1.0652     1.1548     1.1059   -67.7324    13.5552      .0323    45.8574     2.3672
 4711.5000    35.0811   893.7344  -999.2500     1.0876     1.1680     1.0937   -67.7550    13.5588      .0503    46.2872     2.3678
 4712.0000    35.5654   881.2559  -999.2500     1.1088     1.1774     1.1033   -67.7538    13.5612      .0553    46.1373     2.3628
 4712.5000    34.3877   861.1895  -999.2500     1.1267     1.1831     1.0998   -67.5487    13.5587      .0518    44.6923     2.3523
 4713.0000    32.8315   837.8076  -999.2500     1.1620     1.1937     1.0949   -67.2260    13.5510      .0436    43.3804     2.3454
 4713.5000    32.1021   812.5264  -999.2500     1.2069     1.2097     1.1020   -67.0350    13.5178      .0367    42.5782     2.3428
 4714.0000    32.1478   794.9062  -999.2500     1.2470     1.2658     1.0849   -66.8558    13.4799      .0322    42.0511     2.3403
 4714.5000    32.9414   788.6543  -999.2500     1.2546     1.3077     1.0352   -67.2263    13.4150      .0340    42.0050     2.3318
 4715.0000    33.1627   797.4893  -999.2500     1.2355     1.3412     1.0683   -67.4038    13.2231      .0526    42.7189     2.3264
 4715.5000    31.0289   822.7080  -999.2500     1.1930     1.3397     1.1723   -67.4299    13.0740      .0648    44.9441     2.3492
 4716.0000    30.1080   859.8359  -999.2500     1.1384     1.2672     1.2258   -67.3668    12.9933      .0328    45.0083     2.3738
 4716.5000    31.4135   914.6201  -999.2500     1.0702     1.1818     1.1715   -67.0627    12.9312     -.0542    44.1580     2.3725
 4717.0000    33.3082   972.7822  -999.2500      .9901     1.1115     1.0590   -66.9589    12.8820     -.0702    43.8790     2.3460
 4717.5000    35.1078  1036.2090  -999.2500      .9198     1.0203      .9952   -67.2200    12.8524     -.0648    44.3900     2.3034
 4718.0000    35.0328  1101.2266  -999.2500      .8670      .9526      .9596   -67.5164    12.8470     -.0537    44.5551     2.2428
 4718.5000    31.2279  1167.0859  -999.2500      .8216      .9046      .9315   -67.5806    12.8623     -.0410    43.5433     2.2174
 4719.0000    30.2854  1238.5605  -999.2500      .7836      .8710      .9143   -67.4764    12.8889     -.0306    42.3085     2.2074
 4719.5000    30.0025  1303.4277  -999.2500      .7484      .8652      .9105   -67.0016    12.9038     -.0250    41.4551     2.2004
 4720.0000    30.4940  1362.8320  -999.2500      .7156      .8558      .9268   -66.6749    12.8951     -.0254    40.7022     2.1949
 4720.5000    30.6143  1403.3125  -999.2500      .6942      .8188      .9624   -66.4515    12.8764     -.0305    40.0358     2.1898
 4721.0000    30.5544  1417.0391  -999.2500      .6852      .7868      .9563   -66.5383    12.8632     -.0385    39.4285     2.1849
 4721.5000    30.4347  1422.6152  -999.2500      .6822      .7864      .8511   -66.5476    12.8552     -.0506    38.7831     2.1811
 4722.0000    30.5423  1434.0820  -999.2500      .6806      .7894      .8039   -66.4088    12.8613     -.0726    38.2968     2.1816
 4722.5000    31.4172  1469.0234  -999.2500      .6671      .7853      .7979   -66.4642    12.8761     -.0943    38.0416     2.1913
 4723.0000    32.8390  1521.3750  -999.2500      .6496      .7704      .8418   -66.7332    12.8783     -.1035    38.8806     2.1988
 4723.5000    34.1813  1566.1504  -999.2500      .6327      .7513      .8907   -66.8519    12.8714     -.0990    39.8241     2.2024
 4724.0000    35.7764  1578.4688  -999.2500      .6293      .7268      .8857   -66.7902    12.8572     -.0874    39.4730     2.2034
 4724.5000    36.3280  1553.0996  -999.2500      .6352      .7222      .8383   -66.6000    12.8459     -.0797    38.3986     2.2049
