~VERSION INFORMATION
VERS.                                                 2.0:   CWLS Log ASCII Standard-VERSION 2.0
WRAP.                                                  NO:   One line per depth step
~Well Information Block
STRT.F                                          1471.0000:   Top Depth
STOP.F                                         12100.0000:   Bottom Depth
STEP.F                                             .50000:   Depth Increment
NULL.                                            -999.250:   Null Value
FLD .                                        MU BLK A 175:   Field Name
WELL.                           OCSG03931   001 ST00 BP00:   NAME
API .                                        427124004600:   WELL API
EDF .F                                            85.0000:   ELEV DRILL FLOOR
COMP.                                GULF OIL CORPORATION:   OPERATOR
BN  .                                               A 175:   BLOCK
CTRY.                                                 USA:   COUNTRY NAME
CNTY.                                            M I E AD:   COUNTY NAME
EKB .F                                            86.0000:   ELEV KELLY BUSHING
TDD .F                                          12102.000:   FINAL TD DRILLER
STAT.                                               TEXAS:   STATE NAME
UWI .                                        427124004600:   WELL API
DICO.               IHS : Digitizing Company
~PARAMETER INFORMATION (zones)
#MNEM.UNIT                       Value     Description
#=========                       =====     ===========
#ZONATION                          CNL:   ZONATION NAME
#ZONE                            RUN_2:   ZONE NAME
TOP .                       3452.0000:   TOP DEPTH
BOT .                      12100.5000:   BOTTOM DEPTH
RUN .                               2:   RUN NUMBER
LCCD.                             440:   LOGGING CONTRACTOR
SRVC.                    Schlumberger:   LOGGING CONT NAME
DICO.          QC Data Collectors Ltd:   DIG COMPANY NAME
LDAT.                      06/16/1981:   DATE LOGGED
ELD .F                        86.0000:   LOG DATUM ELEVATION
TDD .F                      7546.0000:   TOTAL DEPTH DRILLER
TDL .F                      7545.0000:   TOTAL DEPTH LOGGER
BOTL.F                     12100.0000:   BOTTOM DEPTH LOGGED
TOPL.F                      3504.0000:   TOP DEPTH LOGGED
CS1 .IN                        9.6250:   CASING SIZE 1
BS1 .IN                       12.2500:   BIT SIZE 1
DDB1.F                      7546.0000:   DEPTH DRILLED BIT 1
BHF .                              99:   FLUID CODE
DPT .                   Miscellaneous:   DRILLING FLUID TYPE
MUDD.                         14.0000:   FLUID DENSITY
MUDV.                         42.0000:   FLUID VISCOSITY
DFPH.                         11.0000:   FLUID PH
FL  .                          4.8000:   FLUID LOSS
RM  .OHMM                       .7300:   RM
RMT .DEGF                     74.0000:   RM TEMP
RMF .OHMM                       .4600:   RMF
RMFT.DEGF                     74.0000:   RMF TEMP
FSC .                               M:   RMF CODE
RMC .OHMM                      1.1200:   RMC
RMCT.DEGF                     74.0000:   RMC TEMP
CMC .                               M:   RMC CODE
TMAX.DEGF                    168.0000:   MAX REC TEMP
TIMC.                          7.0000:   TIME SINCE CIRCLN
~PARAMETER INFORMATION (zones)
#MNEM.UNIT                       Value     Description
#=========                       =====     ===========
#ZONATION                          DIL:   ZONATION NAME
#ZONE                            RUN_1:   ZONE NAME
TOP .                       1471.0000:   TOP DEPTH
BOT .                      12095.5000:   BOTTOM DEPTH
RUN .                               1:   RUN NUMBER
LCCD.                             440:   LOGGING CONTRACTOR
SRVC.                    Schlumberger:   LOGGING CONT NAME
DICO.          QC Data Collectors Ltd:   DIG COMPANY NAME
LDAT.                      05/25/1981:   DATE LOGGED
ELD .F                        86.0000:   LOG DATUM ELEVATION
TDD .F                      4590.0000:   TOTAL DEPTH DRILLER
TDL .F                      3529.0000:   TOTAL DEPTH LOGGER
BOTL.F                     12095.0000:   BOTTOM DEPTH LOGGED
TOPL.F                      1471.0000:   TOP DEPTH LOGGED
CS1 .IN                       20.0000:   CASING SIZE 1
BS1 .IN                       12.2500:   BIT SIZE 1
DDB1.F                      4590.0000:   DEPTH DRILLED BIT 1
BHF .                              99:   FLUID CODE
DPT .                   Miscellaneous:   DRILLING FLUID TYPE
MUDD.                         11.4000:   FLUID DENSITY
MUDV.                         44.0000:   FLUID VISCOSITY
DFPH.                         11.0000:   FLUID PH
FL  .                         10.0000:   FLUID LOSS
RM  .OHMM                       .5200:   RM
RMT .DEGF                     75.0000:   RM TEMP
RMF .OHMM                       .3500:   RMF
RMFT.DEGF                     75.0000:   RMF TEMP
FSC .                               M:   RMF CODE
RMC .OHMM                       .8800:   RMC
RMCT.DEGF                     75.0000:   RMC TEMP
CMC .                               M:   RMC CODE
TMAX.DEGF                    125.0000:   MAX REC TEMP
TIMC.                         14.0000:   TIME SINCE CIRCLN
~PARAMETER INFORMATION (zones)
#MNEM.UNIT                       Value     Description
#=========                       =====     ===========
#ZONATION                          FDC:   ZONATION NAME
#ZONE                            RUN_4:   ZONE NAME
TOP .                      11080.0000:   TOP DEPTH
BOT .                      12095.0000:   BOTTOM DEPTH
RUN .                               4:   RUN NUMBER
LCCD.                             440:   LOGGING CONTRACTOR
SRVC.                    Schlumberger:   LOGGING CONT NAME
DICO.          QC Data Collectors Ltd:   DIG COMPANY NAME
LDAT.                      07/06/1981:   DATE LOGGED
ELD .F                        86.0000:   LOG DATUM ELEVATION
TDD .F                     12100.0000:   TOTAL DEPTH DRILLER
TDL .F                     12102.0000:   TOTAL DEPTH LOGGER
BOTL.F                     12095.0000:   BOTTOM DEPTH LOGGED
TOPL.F                     11080.0000:   TOP DEPTH LOGGED
CS1 .IN                        9.6250:   CASING SIZE 1
BS1 .IN                        8.5000:   BIT SIZE 1
DDB1.F                     12100.0000:   DEPTH DRILLED BIT 1
BHF .                              99:   FLUID CODE
DPT .                   Miscellaneous:   DRILLING FLUID TYPE
MUDD.                         15.7000:   FLUID DENSITY
MUDV.                         50.0000:   FLUID VISCOSITY
DFPH.                         11.0000:   FLUID PH
FL  .                          4.2000:   FLUID LOSS
RM  .OHMM                      1.2000:   RM
RMT .DEGF                     90.0000:   RM TEMP
RMF .OHMM                       .6600:   RMF
RMFT.DEGF                     78.0000:   RMF TEMP
FSC .                               M:   RMF CODE
RMC .OHMM                      1.4200:   RMC
RMCT.DEGF                     78.0000:   RMC TEMP
CMC .                               M:   RMC CODE
TMAX.DEGF                    277.0000:   MAX REC TEMP
TIMC.                         20.0000:   TIME SINCE CIRCLN
~PARAMETER INFORMATION (zones)
#MNEM.UNIT                       Value     Description
#=========                       =====     ===========
#ZONATION                          FDC:   ZONATION NAME
#ZONE                            RUN_2:   ZONE NAME
TOP .                       3504.0000:   TOP DEPTH
BOT .                      12100.5000:   BOTTOM DEPTH
RUN .                               2:   RUN NUMBER
LCCD.                             440:   LOGGING CONTRACTOR
SRVC.                    Schlumberger:   LOGGING CONT NAME
DICO.          QC Data Collectors Ltd:   DIG COMPANY NAME
LDAT.                      06/16/1981:   DATE LOGGED
ELD .F                        86.0000:   LOG DATUM ELEVATION
TDD .F                      7546.0000:   TOTAL DEPTH DRILLER
TDL .F                      7545.0000:   TOTAL DEPTH LOGGER
BOTL.F                     12100.0000:   BOTTOM DEPTH LOGGED
TOPL.F                      3504.0000:   TOP DEPTH LOGGED
CS1 .IN                        9.6250:   CASING SIZE 1
BS1 .IN                       12.2500:   BIT SIZE 1
DDB1.F                      7546.0000:   DEPTH DRILLED BIT 1
BHF .                              99:   FLUID CODE
DPT .                   Miscellaneous:   DRILLING FLUID TYPE
MUDD.                         14.0000:   FLUID DENSITY
MUDV.                         42.0000:   FLUID VISCOSITY
DFPH.                         11.0000:   FLUID PH
FL  .                          4.8000:   FLUID LOSS
RM  .OHMM                       .7300:   RM
RMT .DEGF                     74.0000:   RM TEMP
RMF .OHMM                       .4600:   RMF
RMFT.DEGF                     74.0000:   RMF TEMP
FSC .                               M:   RMF CODE
RMC .OHMM                      1.1200:   RMC
RMCT.DEGF                     74.0000:   RMC TEMP
CMC .                               M:   RMC CODE
TMAX.DEGF                    168.0000:   MAX REC TEMP
TIMC.                          7.0000:   TIME SINCE CIRCLN
~Curve Information Block
#MNEM.UNIT                                        API CODE    No Description
#=========                                        ========    == ===========
DEPT.F                                       00 001 00 00:     1  DEPTH
CALI.IN                                                  :     2  Caliper
NPHI.%                                                   :     3  Neutron Porosity
CILD.MMHO                                                :     4  Deep Induction Conductivity
DT.US/F                                                  :     5  Sonic Transit Time
GR.GAPI                                                  :     6  Gamma Ray
ILD.OHMM                                                 :     7  Deep Induction Resistivity
SFL.OHMM                                                 :     8  Medium Resistivity
SP.MV                                                    :     9  Spontaneous Potential
DPHI.%                                                   :    10  Porosity
~ASCII
# ...
12056.0000     8.5272    37.6675  1694.3047   126.7582    52.6692      .5890      .6905   -39.8917    11.9880
12056.5000     8.5253    37.0536  1688.3066   126.1146    52.7420      .5871      .6923   -39.9014    12.3379
12057.0000     8.5251    35.8176  1681.2734   125.4258    52.7949      .5872      .6986   -39.9109    12.3081
12057.5000     8.5263    35.2397  1672.9609   125.1416    52.7217      .5892      .7126   -39.9650    11.9004
12058.0000     8.5276    35.0869  1664.6602   125.3750    52.4650      .5951      .7377   -40.0717    11.4402
12058.5000     8.5320    34.7687  1661.4297   125.7904    52.0359      .5994      .7558   -40.3768    11.7708
12059.0000     8.5380    34.4490  1659.9473   126.2651    51.4735      .6004      .7628   -40.5712    12.3718
12059.5000     8.5430    34.5621  1660.0156   126.8597    52.9028      .5998      .7544   -40.8514    13.0185
12060.0000     8.5410    35.3240  1662.5293   127.5248    53.7746      .5966      .7318   -41.1707    13.4321
12060.5000     8.5391    36.3641  1674.2051   127.8455    54.3542      .5926      .7081   -41.3478    13.5395
12061.0000     8.5389    37.0271  1691.8906   127.8807    55.0541      .5867      .6912   -41.2870    13.6535
12061.5000     8.5388    37.4756  1710.2676   127.7460    55.9075      .5781      .6828   -41.1354    13.8439
12062.0000     8.5447    37.8572  1733.4707   127.8475    56.5484      .5673      .6837   -40.9835    13.9964
12062.5000     8.5499    38.2263  1756.6270   128.0630    56.8276      .5600      .6858   -40.8354    13.9837
12063.0000     8.5435    38.6771  1768.0801   128.3469    56.8051      .5569      .6852   -40.7225    13.9306
12063.5000     8.5400    39.5005  1777.0469   128.5725    56.5951      .5552      .6841   -40.6093    13.9512
12064.0000     8.5536    40.1399  1784.1035   128.8467    56.2801      .5549      .6825   -40.5087    14.0297
12064.5000     8.5642    39.9801  1788.4023   128.9348    56.0622      .5546      .6799   -40.4232    13.9326
12065.0000     8.5562    39.5263  1792.6895   129.0425    56.4686      .5543      .6782   -40.3379    13.6122
12065.5000     8.5467    39.0523  1796.9746   129.1338    57.5148      .5535      .6782   -40.3065    13.3298
12066.0000     8.5283    38.9733  1801.2734   129.2227    56.7510      .5521      .6802   -40.2799    13.1113
12066.5000     8.5098    38.9859  1805.7207   129.3137    54.8944      .5519      .6876   -40.3069    12.9906
12067.0000     8.4984    38.8516  1810.4004   129.4072    53.4455      .5526      .6847   -40.3504    13.0933
12067.5000     8.4871    38.6859  1815.0684   129.4851    52.4521      .5522      .6782   -40.4407    13.2948
12068.0000     8.4855    38.5017  1819.7363   129.5383    52.2127      .5480      .6717   -40.5804    13.3183
12068.5000     8.4930    38.3353  1824.4043   129.5322    52.7235      .5457      .6670   -40.7072    13.2476
12069.0000     8.5004    38.1887  1828.3691   129.4893    53.2183      .5445      .6686   -40.7148    13.2616
12069.5000     8.5044    38.1586  1832.1875   129.4370    53.5886      .5436      .6708   -40.7224    13.4877
12070.0000     8.5081    38.3124  1835.4883   129.2437    54.0386      .5437      .6744   -40.6473    13.7669
12070.5000     8.5118    38.6409  1829.9336   129.0847    54.5801      .5435      .6770   -40.5233    14.0608
12071.0000     8.5039    38.6544  1824.3906   129.1309    55.0455      .5435      .6796   -40.3934    14.3448
12071.5000     8.4943    38.5795  1818.8359   129.1870    55.6299      .5460      .6827   -40.2599    14.3768
12072.0000     8.4887    38.3824  1810.4492   129.2485    56.2304      .5494      .6854   -40.1545    13.7448
12072.5000     8.4902    37.8933  1799.8086   129.2954    56.5239      .5535      .6927   -40.0609    12.6709
12073.0000     8.4916    37.4580  1789.1660   129.3130    56.3753      .5561      .7107   -39.9201    12.2643
12073.5000     8.4930    37.4097  1778.5254   129.3992    56.0615      .5547      .7263   -39.8369    13.1113
12074.0000     8.4945    37.8292  1767.8594   129.5125    55.8986      .5587      .7287   -39.8105    13.8848
12074.5000     8.4971    38.1047  1758.5723   129.5850    55.8140      .5625      .7182   -39.7393    14.1625
12075.0000     8.5008    37.6031  1749.7051   129.6003    55.7541      .5658      .7046   -39.6076    13.6903
12075.5000     8.5043    37.0477  1740.8359   129.5789    55.6809      .5689      .6936   -39.4893    13.3423
12076.0000     8.5078    36.7427  1731.9941   129.5542    55.6652      .5726      .6986   -39.4810    13.1972
12076.5000     8.5113    36.5994  1723.1250   129.4724    55.8141      .5781      .7022   -39.5692    12.9883
12077.0000     8.5152    36.6860  1714.2578   129.3909    56.0864      .5830      .7053   -39.7086    12.6149
12077.5000     8.5179    36.9218  1704.9707   129.2847    56.2328      .5839      .7105   -39.8433    12.4476
12078.0000     8.5178    36.9999  1695.6602   129.1499    55.9750      .5844      .7257   -39.9503    12.8079
12078.5000     8.5107    36.9085  1686.3242   129.0203    55.5948      .5852      .7413   -40.1165    13.6594
12079.0000     8.4994    36.6021  1677.0117   129.0615    55.9283      .5874      .7428   -40.3136    14.2251
12079.5000     8.4860    36.1608  1667.7012   129.0850    56.9788      .5894      .7383   -40.4370    14.2737
12080.0000     8.4712    35.6577  1658.3906   129.0881    56.7437      .5913      .7371   -40.6814    13.8236
12080.5000     8.4546    35.2342  1647.0098   129.1211    54.5825      .5961      .7402   -40.7872    13.0480
12081.0000     8.4343    35.1940  1634.3242   129.1741    53.3583      .6019      .7468   -40.8076    12.6713
12081.5000     8.4151    35.3311  1621.6387   129.2922    53.1484      .6067      .7616   -40.9183    12.8860
12082.0000     8.3867    35.5804  1608.9512   129.2817    53.6444      .6112      .7755   -41.0083    13.5621
12082.5000     8.3387    36.0828  1596.2656   129.2195    54.5923      .6162      .7836   -40.9269    14.4019
12083.0000     8.3568    36.2796  1584.8105   129.1692    54.2178      .6215      .7850   -40.6034    14.4825
12083.5000     8.3987    35.9457  1573.5547   129.1711    53.4258      .6274      .7850   -40.3278    14.0918
12084.0000     8.4288    35.1075  1562.2969   129.1841    52.4951      .6314      .7743   -40.1432    13.7008
12084.5000     8.4500    34.9440  1551.8027   129.1140    52.8291      .6340      .7504   -40.0094    13.7132
12085.0000     8.4534    35.1569  1541.9258   129.1890    54.2633      .6407      .7333   -39.9020    13.8122
12085.5000     8.4559    35.0563  1532.0469   129.3176    55.2088      .6498      .7309   -39.8412    13.7559
12086.0000     8.4519    34.7017  1522.6387   129.2449    55.8452      .6555      .7474   -39.9713    13.2631
12086.5000     8.4476    34.2074  1513.6953   129.2241    55.7214      .6619      .7688   -39.8731    12.3114
12087.0000     8.4371    34.4844  1504.7539   129.3010    55.9296      .6701      .7759   -39.8486    11.9055
12087.5000     8.4252    35.0007  1498.4609   129.3779    56.7952      .6801      .7748   -39.9296    11.8474
12088.0000     8.4038    35.1099  1492.2285   129.4451    57.4951      .6862      .7742   -40.0923    12.1125
12088.5000     8.3824    34.8165  1485.9961   129.5122    57.7419      .6894      .7777   -40.1652    12.6738
12089.0000     8.3618    34.3827  1484.0195   129.5522    57.5222      .6863      .7770   -40.2084    13.5113
12089.5000     8.3402    34.6390  1482.6426   129.5322    56.6135      .6853      .7724   -40.2001    13.4800
12090.0000     8.3149    35.7071  1481.2676   129.5125    54.2878      .6842      .7637   -40.1313    12.5044
12090.5000     8.2889    36.7928  1479.8926   129.4910    51.9990      .6831      .7610   -39.9913    10.9104
12091.0000     8.2711    37.1202  1478.5176   129.4680    51.2046      .6834      .7720   -39.7822    10.3771
12091.5000     8.2637    36.8363  1481.5625   129.4424    52.0334      .6808      .7850   -39.6484    10.8279
12092.0000     8.2607    36.4474  1485.9473   129.4031    52.8660      .6771      .8069   -39.6000    11.7531
