~VERSION INFORMATION
VERS.                                                 2.0:   CWLS Log ASCII Standard-VERSION 2.0
WRAP.                                                  NO:   One line per depth step
~Well Information Block
STRT.F                                          1471.0000:   Top Depth
STOP.F                                         12100.0000:   Bottom Depth
STEP.F                                             .50000:   Depth Increment
NULL.                                            -999.250:   Null Value
FLD .                                        MU BLK A 175:   Field Name
WELL.                           OCSG03931   001 ST00 BP00:   NAME
API .                                        427124004600:   WELL API
EDF .F                                            85.0000:   ELEV DRILL FLOOR
COMP.                                GULF OIL CORPORATION:   OPERATOR
BN  .                                               A 175:   BLOCK
CTRY.                                                 USA:   COUNTRY NAME
CNTY.                                            M I E AD:   COUNTY NAME
EKB .F                                            86.0000:   ELEV KELLY BUSHING
TDD .F                                          12102.000:   FINAL TD DRILLER
STAT.                                               TEXAS:   STATE NAME
UWI .                                        427124004600:   WELL API
DICO.               IHS : Digitizing Company
~PARAMETER INFORMATION (zones)
#MNEM.UNIT                       Value     Description
#=========                       =====     ===========
#ZONATION                          CNL:   ZONATION NAME
#ZONE                            RUN_2:   ZONE NAME
TOP .                       3452.0000:   TOP DEPTH
BOT .                      12100.5000:   BOTTOM DEPTH
RUN .                               2:   RUN NUMBER
LCCD.                             440:   LOGGING CONTRACTOR
SRVC.                    Schlumberger:   LOGGING CONT NAME
DICO.          QC Data Collectors Ltd:   DIG COMPANY NAME
LDAT.                      06/16/1981:   DATE LOGGED
ELD .F                        86.0000:   LOG DATUM ELEVATION
TDD .F                      7546.0000:   TOTAL DEPTH DRILLER
TDL .F                      7545.0000:   TOTAL DEPTH LOGGER
BOTL.F                     12100.0000:   BOTTOM DEPTH LOGGED
TOPL.F                      3504.0000:   TOP DEPTH LOGGED
CS1 .IN                        9.6250:   CASING SIZE 1
BS1 .IN                       12.2500:   BIT SIZE 1
DDB1.F                      7546.0000:   DEPTH DRILLED BIT 1
BHF .                              99:   FLUID CODE
DPT .                   Miscellaneous:   DRILLING FLUID TYPE
MUDD.                         14.0000:   FLUID DENSITY
MUDV.                         42.0000:   FLUID VISCOSITY
DFPH.                         11.0000:   FLUID PH
FL  .                          4.8000:   FLUID LOSS
RM  .OHMM                       .7300:   RM
RMT .DEGF                     74.0000:   RM TEMP
RMF .OHMM                       .4600:   RMF
RMFT.DEGF                     74.0000:   RMF TEMP
FSC .                               M:   RMF CODE
RMC .OHMM                      1.1200:   RMC
RMCT.DEGF                     74.0000:   RMC TEMP
CMC .                               M:   RMC CODE
TMAX.DEGF                    168.0000:   MAX REC TEMP
TIMC.                          7.0000:   TIME SINCE CIRCLN
~PARAMETER INFORMATION (zones)
#MNEM.UNIT                       Value     Description
#=========                       =====     ===========
#ZONATION                          DIL:   ZONATION NAME
#ZONE                            RUN_1:   ZONE NAME
TOP .                       1471.0000:   TOP DEPTH
BOT .                      12095.5000:   BOTTOM DEPTH
RUN .                               1:   RUN NUMBER
LCCD.                             440:   LOGGING CONTRACTOR
SRVC.                    Schlumberger:   LOGGING CONT NAME
DICO.          QC Data Collectors Ltd:   DIG COMPANY NAME
LDAT.                      05/25/1981:   DATE LOGGED
ELD .F                        86.0000:   LOG DATUM ELEVATION
TDD .F                      4590.0000:   TOTAL DEPTH DRILLER
TDL .F                      3529.0000:   TOTAL DEPTH LOGGER
BOTL.F                     12095.0000:   BOTTOM DEPTH LOGGED
TOPL.F                      1471.0000:   TOP DEPTH LOGGED
CS1 .IN                       20.0000:   CASING SIZE 1
BS1 .IN                       12.2500:   BIT SIZE 1
DDB1.F                      4590.0000:   DEPTH DRILLED BIT 1
BHF .                              99:   FLUID CODE
DPT .                   Miscellaneous:   DRILLING FLUID TYPE
MUDD.                         11.4000:   FLUID DENSITY
MUDV.                         44.0000:   FLUID VISCOSITY
DFPH.                         11.0000:   FLUID PH
FL  .                         10.0000:   FLUID LOSS
RM  .OHMM                       .5200:   RM
RMT .DEGF                     75.0000:   RM TEMP
RMF .OHMM                       .3500:   RMF
RMFT.DEGF                     75.0000:   RMF TEMP
FSC .                               M:   RMF CODE
RMC .OHMM                       .8800:   RMC
RMCT.DEGF                     75.0000:   RMC TEMP
CMC .                               M:   RMC CODE
TMAX.DEGF                    125.0000:   MAX REC TEMP
TIMC.                         14.0000:   TIME SINCE CIRCLN
~PARAMETER INFORMATION (zones)
#MNEM.UNIT                       Value     Description
#=========                       =====     ===========
#ZONATION                          FDC:   ZONATION NAME
#ZONE                            RUN_4:   ZONE NAME
TOP .                      11080.0000:   TOP DEPTH
BOT .                      12095.0000:   BOTTOM DEPTH
RUN .                               4:   RUN NUMBER
LCCD.                             440:   LOGGING CONTRACTOR
SRVC.                    Schlumberger:   LOGGING CONT NAME
DICO.          QC Data Collectors Ltd:   DIG COMPANY NAME
LDAT.                      07/06/1981:   DATE LOGGED
ELD .F                        86.0000:   LOG DATUM ELEVATION
TDD .F                     12100.0000:   TOTAL DEPTH DRILLER
TDL .F                     12102.0000:   TOTAL DEPTH LOGGER
BOTL.F                     12095.0000:   BOTTOM DEPTH LOGGED
TOPL.F                     11080.0000:   TOP DEPTH LOGGED
CS1 .IN                        9.6250:   CASING SIZE 1
BS1 .IN                        8.5000:   BIT SIZE 1
DDB1.F                     12100.0000:   DEPTH DRILLED BIT 1
BHF .                              99:   FLUID CODE
DPT .                   Miscellaneous:   DRILLING FLUID TYPE
MUDD.                         15.7000:   FLUID DENSITY
MUDV.                         50.0000:   FLUID VISCOSITY
DFPH.                         11.0000:   FLUID PH
FL  .                          4.2000:   FLUID LOSS
RM  .OHMM                      1.2000:   RM
RMT .DEGF                     90.0000:   RM TEMP
RMF .OHMM                       .6600:   RMF
RMFT.DEGF                     78.0000:   RMF TEMP
FSC .                               M:   RMF CODE
RMC .OHMM                      1.4200:   RMC
RMCT.DEGF                     78.0000:   RMC TEMP
CMC .                               M:   RMC CODE
TMAX.DEGF                    277.0000:   MAX REC TEMP
TIMC.                         20.0000:   TIME SINCE CIRCLN
~PARAMETER INFORMATION (zones)
#MNEM.UNIT                       Value     Description
#=========                       =====     ===========
#ZONATION                          FDC:   ZONATION NAME
#ZONE                            RUN_2:   ZONE NAME
TOP .                       3504.0000:   TOP DEPTH
BOT .                      12100.5000:   BOTTOM DEPTH
RUN .                               2:   RUN NUMBER
LCCD.                             440:   LOGGING CONTRACTOR
SRVC.                    Schlumberger:   LOGGING CONT NAME
DICO.          QC Data Collectors Ltd:   DIG COMPANY NAME
LDAT.                      06/16/1981:   DATE LOGGED
ELD .F                        86.0000:   LOG DATUM ELEVATION
TDD .F                      7546.0000:   TOTAL DEPTH DRILLER
TDL .F                      7545.0000:   TOTAL DEPTH LOGGER
BOTL.F                     12100.0000:   BOTTOM DEPTH LOGGED
TOPL.F                      3504.0000:   TOP DEPTH LOGGED
CS1 .IN                        9.6250:   CASING SIZE 1
BS1 .IN                       12.2500:   BIT SIZE 1
DDB1.F                      7546.0000:   DEPTH DRILLED BIT 1
BHF .                              99:   FLUID CODE
DPT .                   Miscellaneous:   DRILLING FLUID TYPE
MUDD.                         14.0000:   FLUID DENSITY
MUDV.                         42.0000:   FLUID VISCOSITY
DFPH.                         11.0000:   FLUID PH
FL  .                          4.8000:   FLUID LOSS
RM  .OHMM                       .7300:   RM
RMT .DEGF                     74.0000:   RM TEMP
RMF .OHMM                       .4600:   RMF
RMFT.DEGF                     74.0000:   RMF TEMP
FSC .                               M:   RMF CODE
RMC .OHMM                      1.1200:   RMC
RMCT.DEGF                     74.0000:   RMC TEMP
CMC .                               M:   RMC CODE
TMAX.DEGF                    168.0000:   MAX REC TEMP
TIMC.                          7.0000:   TIME SINCE CIRCLN
~Curve Information Block
#MNEM.UNIT                                        API CODE    No Description
#=========                                        ========    == ===========
DEPT.F                                       00 001 00 00:     1  DEPTH
CALI.IN                                                  :     2  Caliper
NPHI.%                                                   :     3  Neutron Porosity
CILD.MMHO                                                :     4  Deep Induction Conductivity
DT.US/F                                                  :     5  Sonic Transit Time
GR.GAPI                                                  :     6  Gamma Ray
ILD.OHMM                                                 :     7  Deep Induction Resistivity
SFL.OHMM                                                 :     8  Medium Resistivity
SP.MV                                                    :     9  Spontaneous Potential
DPHI.%                                                   :    10  Porosity
~ASCII
# ...
 6398.5000    11.9350    46.9376  2059.4023   138.6946    50.3945      .4915      .5248   -84.6071    26.7978
 6399.0000    11.9028    47.3085  2047.4023   138.3594    49.4439      .4939      .5284   -85.9374    26.5518
 6399.5000    11.8948    46.6282  2035.3887   138.0659    48.4841      .4955      .5315   -86.9664    26.2369
 6400.0000    11.9100    45.1487  2029.1660   137.9675    48.4899      .4968      .5332   -87.6876    25.9146
 6400.5000    11.9254    44.4045  2023.3945   137.8816    50.1152      .4981      .5362   -87.6505    26.1383
 6401.0000    11.9706    44.8873  2017.6211   137.9353    50.9109      .4994      .5404   -87.7798    26.5632
 6401.5000    12.0407    46.3801  2011.9473   138.0007    50.4546      .5007      .5441   -87.9231    27.0139
 6402.0000    12.0693    47.4448  2006.3047   138.6914    50.1128      .5020      .5455   -88.1577    27.1753
 6402.5000    12.1017    47.6902  2000.6680   139.2729    51.9969      .5033      .5441   -88.5042    26.7803
 6403.0000    12.1215    47.0682  2007.4316   139.5449    54.0181      .4998      .5400   -87.9379    26.2841
 6403.5000    12.1379    46.2200  2019.2598   139.8203    55.1219      .4943      .5353   -87.0552    25.7958
 6404.0000    12.1441    45.8161  2065.1562   140.0994    55.7800      .4889      .5386   -86.2737    25.1413
 6404.5000    12.1470    46.7117  2112.4688   140.7529    55.8602      .4804      .5384   -85.6654    24.6173
 6405.0000    12.1634    46.9985  2159.8320   141.6648    55.1990      .4713      .5358   -85.2817    24.9456
 6405.5000    12.1858    45.9372  2201.1836   142.5769    54.0402      .4625      .5210   -84.8661    25.5171
 6406.0000    12.1868    43.8434  2236.2734   143.5405    52.4256      .4540      .5067   -84.3566    25.7526
 6406.5000    12.1878    44.1225  2271.3164   144.5068    51.1884      .4460      .5018   -84.1577    25.7602
 6407.0000    12.1847    46.6046  2306.4062   145.4690    50.6282      .4382      .5046   -84.6334    25.8781
 6407.5000    12.1837    48.3868  2337.1602   145.8914    51.1026      .4325      .4998   -85.3757    26.4938
 6408.0000    12.1905    50.0347  2360.8672   146.3330    52.3791      .4286      .4938   -86.1187    27.1575
 6408.5000    12.2009    50.6155  2384.5977   146.6738    53.5392      .4248      .4873   -86.8611    27.6780
 6409.0000    12.2068    49.4854  2408.3047   146.6826    54.5761      .4242      .4860   -87.4670    27.7693
 6409.5000    12.2032    48.2510  2409.2656   146.4990    55.0202      .4237      .4878   -87.5148    27.6902
 6410.0000    12.1981    48.0398  2283.9844   145.9241    55.3077      .4252      .4948   -88.0150    27.6985
 6410.5000    12.1855    49.7305  2210.5469   145.2976    55.2553      .4289      .5017   -88.6453    27.9021
 6411.0000    12.1685    50.9368  2142.6328   144.4231    55.2322      .4392      .5084   -88.3127    28.0691
 6411.5000    12.1493    50.7508  2074.6211   143.4250    56.0639      .4552      .5157   -87.7461    28.1439
 6412.0000    12.1270    49.3289  2012.2246   142.2041    57.3330      .4767      .5239   -87.1796    28.0612
 6412.5000    12.0891    47.8250  1965.0098   140.9338    58.5611      .4996      .5441   -86.6086    27.8942
 6413.0000    12.0533    47.7034  1917.7949   140.0378    58.6536      .5186      .5636   -85.8866    27.7258
 6413.5000    12.0226    48.1520  1875.6563   139.6785    56.2036      .5335      .5793   -85.5166    28.0649
 6414.0000    12.0250    48.2229  1840.2188   139.9536    54.5032      .5420      .5904   -86.8770    28.3560
 6414.5000    12.0265    47.3709  1818.0723   139.6211    53.5949      .5453      .6020   -87.9336    28.3986
 6415.0000    12.0285    46.3152  1825.8594   139.1394    56.1583      .5486      .6128   -88.5430    28.0760
 6415.5000    12.0325    45.0483  1833.6406   138.5725    57.1150      .5502      .6137   -89.0287    27.5857
 6416.0000    12.0335    44.4459  1841.4199   138.5210    56.3555      .5507      .6133   -89.1947    27.1424
 6416.5000    12.0353    46.1158  1849.2148   138.6958    53.7021      .5512      .6019   -88.9077    26.9817
 6417.0000    12.0429    47.8257  1857.0449   139.1326    51.7703      .5475      .5857   -88.5325    27.4156
 6417.5000    12.0525    49.1487  1864.8750   139.6785    52.8176      .5432      .5671   -88.6477    27.7526
 6418.0000    12.0558    50.1373  1872.7051   139.7507    54.6907      .5400      .5601   -89.1757    27.8457
 6418.5000    12.0583    48.6659  1880.5352   139.4456    55.1459      .5374      .5671   -89.8042    27.9403
 6419.0000    12.0615    45.5474  1896.2070   138.9326    54.6864      .5346      .5806   -89.3466    28.1837
 6419.5000    12.0789    42.7065  1920.1348   138.5361    55.0827      .5306      .5898   -88.2208    28.3485
 6420.0000    12.1098    41.0114  1944.0879   138.8809    56.4033      .5266      .5971   -87.2260    28.4124
 6420.5000    12.1455    41.6005  1987.1875   140.0933    57.0751      .5170      .5951   -87.1774    28.4671
 6421.0000    12.1996    43.1568  2054.5117   141.3054    57.3392      .5041      .5810   -87.1288    28.5892
 6421.5000    12.2181    44.3240  2120.5547   142.3542    56.3101      .4910      .5673   -87.3375    28.7004
 6422.0000    12.2302    45.1768  2178.3633   143.3892    55.7376      .4773      .5525   -88.0175    28.6500
 6422.5000    12.2632    45.2990  2236.1758   144.1965    55.5707      .4599      .5380   -88.1554    28.3964
 6423.0000    12.2299    45.1284  2287.7773   145.0569    55.4131      .4445      .5247   -87.5544    28.0520
 6423.5000    12.2066    45.1140  2335.5859   146.1968    55.2225      .4316      .5140   -87.1189    27.6898
 6424.0000    12.2021    45.9269  2383.3906   147.2822    55.6523      .4214      .5035   -87.2384    27.3705
 6424.5000    12.2071    46.9036  2428.7344   148.2964    56.4743      .4130      .4949   -88.2355    27.1939
 6425.0000    12.2094    48.1183  2460.6719   148.2644    56.8154      .4056      .4880   -88.9120    27.5747
 6425.5000    12.2224    48.1960  2492.5820   148.4604    55.5396      .4002      .4850   -89.1298    28.1852
 6426.0000    12.2378    48.5315  2518.4102   149.1665    54.2681      .3952      .4847   -89.8917    28.8600
 6426.5000    12.2516    49.3806  2538.7891   150.0737    54.0371      .3929      .4825   -88.7867    29.4167
 6427.0000    12.2625    50.5500  2559.1680   150.5376    54.9050      .3912      .4793   -87.7540    29.8024
 6427.5000    12.2789    51.5134  2545.7852   150.9888    55.0551      .3913      .4759   -87.2709    30.0985
 6428.0000    12.3095    51.8700  2494.2344   150.8591    54.0684      .3921      .4721   -86.9766    30.5115
 6428.5000    12.3506    50.8290  2443.0742   150.4429    53.2495      .3950      .4810   -86.7545    30.8859
 6429.0000    12.4003    49.5267  2393.1992   149.2700    54.8291      .3997      .4897   -86.0734    31.0199
 6429.5000    12.5123    48.3514  2343.3242   148.0281    58.1391      .4085      .4978   -85.4498    30.7663
 6430.0000    12.6106    48.7438  2293.4961   146.7014    60.0526      .4173      .5027   -86.6871    30.5770
 6430.5000    12.7100    49.0459  2264.1563   145.7537    57.6393      .4249      .5032   -87.6487    30.8102
 6431.0000    12.7859    48.4872  2252.3281   145.1677    53.6849      .4326      .5033   -88.1296    31.1520
 6431.5000    12.8084    47.4913  2240.5117   144.7683    50.8796      .4401      .5026   -88.1915    30.8275
 6432.0000    12.6655    46.7844  2235.7187   144.4077    49.6724      .4435      .5040   -88.2455    29.9726
 6432.5000    12.5388    47.4639  2231.7109   143.8281    49.3141      .4470      .5114   -88.2954    28.5241
 6433.0000    12.4363    49.4233  2227.7031   143.4590    50.9997      .4505      .5177   -88.3452    27.7280
 6433.5000    12.4167    50.1192  2223.6953   143.3352    51.4821      .4520      .5202   -88.4362    27.7867
 6434.0000    12.4492    49.4780  2218.9648   143.4041    52.6179      .4533      .5227   -88.7037    28.0008
 6434.5000    12.5057    48.0989  2213.9180   143.5188    53.8834      .4546      .5182   -89.4391    28.0622
