~VERSION INFORMATION
VERS.                             2.0:   CWLS Log ASCII Standard-VERSION 2.0
WRAP.                              NO:   One line per depth step
~Well Information Block
STRT.F                      3993.0000:   Top Depth
STOP.F                     13285.0000:   Bottom Depth
STEP.F                         .50000:   Depth Increment
NULL.                        -999.250:   Null Value
FLD .                     MU BLK A 85:   Field Name
WELL.       OCSG03061  B004 ST00 BP00:   NAME
API .                    427124009200:   WELL API
EDF .F                       122.0000:   ELEV DRILL FLOOR
COMP.             TRANSCO EXPLORATION:   OPERATOR
BN  .                           A 859:   BLOCK
CTRY.                             USA:   COUNTRY NAME
CNTY.                        M I E AD:   COUNTY NAME
EKB .F                       123.0000:   ELEV KELLY BUSHING
TDD .F                          0.000:   FINAL TD DRILLER
STAT.                           TEXAS:   STATE NAME
UWI .                    427124009200:   WELL API
DICO.               IHS : Digitizing Company
~PARAMETER INFORMATION (zones)
#MNEM.UNIT                       Value     Description
#=========                       =====     ===========
#ZONATION                          CNL:   ZONATION NAME
#ZONE                            RUN_1:   ZONE NAME
TOP .                       3993.0000:   TOP DEPTH
BOT .                       9346.5000:   BOTTOM DEPTH
RUN .                               1:   RUN NUMBER
LCCD.                              20:   LOGGING CONTRACTOR
SRVC.                          Baroil:   LOGGING CONT NAME
DICO.          QC Data Collectors Ltd:   DIG COMPANY NAME
LDAT.                      12/10/1986:   DATE LOGGED
ELD .F                       123.0000:   LOG DATUM ELEVATION
TDD .F                      9350.0000:   TOTAL DEPTH DRILLER
TDL .F                      9348.0000:   TOTAL DEPTH LOGGER
BOTL.F                      9346.0000:   BOTTOM DEPTH LOGGED
TOPL.F                      4002.0000:   TOP DEPTH LOGGED
CS1 .IN                       13.3750:   CASING SIZE 1
BS1 .IN                       12.2500:   BIT SIZE 1
DDB1.F                      9350.0000:   DEPTH DRILLED BIT 1
BHF .                              65:   FLUID CODE
DPT .                        INVERMUL:   DRILLING FLUID TYPE
MUDD.                         12.8000:   FLUID DENSITY
MUDV.                         40.0000:   FLUID VISCOSITY
DFPH.                          9.2000:   FLUID PH
FL  .                         11.0000:   FLUID LOSS
RM  .OHMM                       .3400:   RM
RMT .DEGF                     70.0000:   RM TEMP
RMF .OHMM                       .1600:   RMF
RMFT.DEGF                     70.0000:   RMF TEMP
FSC .                               M:   RMF CODE
RMC .OHMM                       .4200:   RMC
RMCT.DEGF                     70.0000:   RMC TEMP
CMC .                               C:   RMC CODE
TMAX.DEGF                    202.0000:   MAX REC TEMP
~PARAMETER INFORMATION (zones)
#MNEM.UNIT                       Value     Description
#=========                       =====     ===========
#ZONATION                          DIL:   ZONATION NAME
#ZONE                            RUN_1:   ZONE NAME
TOP .                       4002.0000:   TOP DEPTH
BOT .                       9336.5000:   BOTTOM DEPTH
RUN .                               1:   RUN NUMBER
LCCD.                              20:   LOGGING CONTRACTOR
SRVC.                          Baroil:   LOGGING CONT NAME
DICO.          QC Data Collectors Ltd:   DIG COMPANY NAME
LDAT.                      12/10/1986:   DATE LOGGED
ELD .F                       123.0000:   LOG DATUM ELEVATION
TDD .F                      9350.0000:   TOTAL DEPTH DRILLER
TDL .F                      9348.0000:   TOTAL DEPTH LOGGER
BOTL.F                      9346.0000:   BOTTOM DEPTH LOGGED
TOPL.F                      4002.0000:   TOP DEPTH LOGGED
CS1 .IN                       13.3750:   CASING SIZE 1
BS1 .IN                       12.2500:   BIT SIZE 1
DDB1.F                      9350.0000:   DEPTH DRILLED BIT 1
BHF .                              65:   FLUID CODE
DPT .                        INVERMUL:   DRILLING FLUID TYPE
MUDD.                         12.8000:   FLUID DENSITY
MUDV.                         40.0000:   FLUID VISCOSITY
DFPH.                          9.2000:   FLUID PH
FL  .                         11.0000:   FLUID LOSS
RM  .OHMM                       .3400:   RM
RMT .DEGF                     70.0000:   RM TEMP
RMF .OHMM                       .1600:   RMF
RMFT.DEGF                     70.0000:   RMF TEMP
FSC .                               M:   RMF CODE
RMC .OHMM                       .4200:   RMC
RMCT.DEGF                     70.0000:   RMC TEMP
CMC .                               C:   RMC CODE
TMAX.DEGF                    202.0000:   MAX REC TEMP
~PARAMETER INFORMATION (zones)
#MNEM.UNIT                       Value     Description
#=========                       =====     ===========
#ZONATION                          DIL:   ZONATION NAME
#ZONE                            RUN_3:   ZONE NAME
TOP .                       9336.0000:   TOP DEPTH
BOT .                      13285.5000:   BOTTOM DEPTH
RUN .                               3:   RUN NUMBER
LCCD.                              20:   LOGGING CONTRACTOR
SRVC.                          Baroil:   LOGGING CONT NAME
DICO.          QC Data Collectors Ltd:   DIG COMPANY NAME
LDAT.                      12/28/1986:   DATE LOGGED
ELD .F                       123.0000:   LOG DATUM ELEVATION
TDD .                            NULL:   TOTAL DEPTH DRILLER
TDL .                            NULL:   TOTAL DEPTH LOGGER
BOTL.F                     13291.0000:   BOTTOM DEPTH LOGGED
TOPL.F                     13285.0000:   TOP DEPTH LOGGED
CS1 .IN                        9.6250:   CASING SIZE 1
BS1 .IN                        8.5000:   BIT SIZE 1
DDB1.                            NULL:   DEPTH DRILLED BIT 1
BHF .                              35:   FLUID CODE
DPT .                       PETROFREE:   DRILLING FLUID TYPE
MUDD.                         14.9000:   FLUID DENSITY
MUDV.                         49.0000:   FLUID VISCOSITY
DFPH.                            NULL:   FLUID PH
FL  .                          6.0000:   FLUID LOSS
RM  .                            NULL:   RM
RMT .                            NULL:   RM TEMP
RMF .                            NULL:   RMF
RMFT.                            NULL:   RMF TEMP
FSC .                            NULL:   RMF CODE
RMC .                            NULL:   RMC
RMCT.                            NULL:   RMC TEMP
CMC .                            NULL:   RMC CODE
TMAX.DEGF                    274.0000:   MAX REC TEMP
~PARAMETER INFORMATION (zones)
#MNEM.UNIT                       Value     Description
#=========                       =====     ===========
#ZONATION                          FDC:   ZONATION NAME
#ZONE                            RUN_1:   ZONE NAME
TOP .                       3993.0000:   TOP DEPTH
BOT .                       9346.5000:   BOTTOM DEPTH
RUN .                               1:   RUN NUMBER
LCCD.                              20:   LOGGING CONTRACTOR
SRVC.                          Baroil:   LOGGING CONT NAME
DICO.          QC Data Collectors Ltd:   DIG COMPANY NAME
LDAT.                      12/10/1986:   DATE LOGGED
ELD .F                       123.0000:   LOG DATUM ELEVATION
TDD .F                      9350.0000:   TOTAL DEPTH DRILLER
TDL .F                      9348.0000:   TOTAL DEPTH LOGGER
BOTL.F                      9346.0000:   BOTTOM DEPTH LOGGED
TOPL.F                      4002.0000:   TOP DEPTH LOGGED
CS1 .IN                       13.3750:   CASING SIZE 1
BS1 .IN                       12.2500:   BIT SIZE 1
DDB1.F                      9350.0000:   DEPTH DRILLED BIT 1
BHF .                              65:   FLUID CODE
DPT .                        INVERMUL:   DRILLING FLUID TYPE
MUDD.                         12.8000:   FLUID DENSITY
MUDV.                         40.0000:   FLUID VISCOSITY
DFPH.                          9.2000:   FLUID PH
FL  .                         11.0000:   FLUID LOSS
RM  .OHMM                       .3400:   RM
RMT .DEGF                     70.0000:   RM TEMP
RMF .OHMM                       .1600:   RMF
RMFT.DEGF                     70.0000:   RMF TEMP
FSC .                               M:   RMF CODE
RMC .OHMM                       .4200:   RMC
RMCT.DEGF                     70.0000:   RMC TEMP
CMC .                               C:   RMC CODE
TMAX.DEGF                    202.0000:   MAX REC TEMP
~Curve Information Block
#MNEM.UNIT                    API CODE    No Description
#=========                    ========    == ===========
DEPT.F                   00 001 00 00:     1  DEPTH
NPHI.%                               :     2  Neutron Porosity
CILD.MMHO                            :     3  Deep Induction Conductivity
GR.GAPI                              :     4  Gamma Ray
ILD.OHMM                             :     5  Deep Induction Resistivity
ILM.OHMM                             :     6  Medium Induction Resistivity
RFOC.OHMM                            :     7  Medium Resistivity
SP.MV                                :     8  Spontaneous Potential
CALI.IN                              :     9  Caliper
DRHO.G/C3                            :    10  Bulk Density Correction
GRD.GAPI                             :    11  Gamma Ray
RHOB.G/C3                            :    12  Bulk Density
~ASCII
# ...
 6494.0000    37.1245  1258.3535  -999.2500      .7602      .8406     1.0401   -75.0204    13.2358     -.0937    39.5673     2.3160
 6494.5000    33.7748  1316.3965  -999.2500      .7261      .7736     1.0095   -75.2563    13.3108     -.0739    39.2823     2.3522
 6495.0000    32.0229  1377.3770  -999.2500      .6936      .7217      .9509   -75.5055    13.3125     -.0546    39.3795     2.3496
 6495.5000    32.4987  1418.5449  -999.2500      .6785      .6931      .9172   -75.8021    13.3091     -.0596    39.7712     2.3183
 6496.0000    33.0670  1439.4512  -999.2500      .6709      .6773      .8738   -76.0985    13.3156     -.1146    39.5473     2.2859
 6496.5000    32.5847  1436.3848  -999.2500      .6684      .6795      .8196   -76.2256    13.3741     -.1337    37.7641     2.2547
 6497.0000    31.8132  1434.1895  -999.2500      .6689      .6885      .7501   -76.1609    13.4468     -.1287    37.6555     2.2409
 6497.5000    31.0417  1433.4336  -999.2500      .6694      .6977      .8339   -76.0962    13.6085     -.0920    39.5029     2.2491
 6498.0000    30.3555  1429.5332  -999.2500      .6755      .7105      .9252   -75.2521    13.8005     -.0352    43.1803     2.3316
 6498.5000    31.0536  1420.6230  -999.2500      .6875      .7356      .9936   -74.3142    14.0527     -.0039    45.1030     2.3841
 6499.0000    33.3524  1401.2715  -999.2500      .6998      .7616      .9854   -74.0985    14.3460     -.0077    45.4028     2.4093
 6499.5000    33.9171  1385.6895  -999.2500      .7084      .7707      .9360   -73.9182    14.4072     -.0569    44.1108     2.3974
 6500.0000    33.3124  1397.9277  -999.2500      .6916      .7480      .8884   -73.6250    14.2408     -.0903    42.0795     2.3495
 6500.5000    32.2737  1497.7168  -999.2500      .6820      .6903      .8570   -73.8812    13.2172     -.0974    41.1373     2.3192
 6501.0000    32.1489  1614.8008  -999.2500      .6196      .6341      .8268   -74.3617    13.1826     -.0592    41.8673     2.2954
 6501.5000    33.5228  1750.9668  -999.2500      .5616      .5815      .7871   -74.8423    13.1582     -.0378    41.5958     2.2794
 6502.0000    35.4585  1902.6387  -999.2500      .5106      .5408      .7429   -75.3235    13.1461     -.0453    38.8019     2.2714
 6502.5000    35.8546  2044.7676  -999.2500      .4720      .5072      .7457   -75.6204    13.1462     -.0522    36.5955     2.2774
 6503.0000    33.4606  2148.5313  -999.2500      .4552      .5008      .7512   -75.9115    13.1463     -.0460    36.1863     2.2892
 6503.5000    31.4271  2182.1758  -999.2500      .4390      .4991      .7294   -76.2029    13.1464     -.0347    35.6638     2.2873
 6504.0000    30.5652  2193.6797  -999.2500      .4431      .5079      .6918   -76.3605    13.1465     -.0103    34.7370     2.2780
 6504.5000    30.3674  2192.8633  -999.2500      .4477      .5169      .6966   -76.4783    13.1467      .0239    34.3964     2.2817
 6505.0000    30.3981  2173.0586  -999.2500      .4524      .5262      .7269   -76.5961    13.1484      .0424    36.0722     2.3201
 6505.5000    30.0439  2129.1523  -999.2500      .4624      .5415      .7505   -76.7048    13.1501      .0394    37.6296     2.3529
 6506.0000    29.9220  2056.5937  -999.2500      .4774      .5573      .7600   -76.7817    13.1517      .0310    37.8159     2.3684
 6506.5000    29.3276  1991.1973  -999.2500      .4930      .5735      .7168   -76.8588    13.1533      .0341    36.6719     2.3522
 6507.0000    29.8249  1966.6523  -999.2500      .4975      .5731      .6984   -76.9014    13.1549      .0393    36.8755     2.3456
 6507.5000    32.8766  1987.9668  -999.2500      .4872      .5598      .7437   -76.8661    13.1595      .0176    38.2256     2.3580
 6508.0000    34.7219  2028.3691  -999.2500      .4772      .5468      .7773   -76.8308    13.1646     -.0255    38.7853     2.3667
 6508.5000    35.0569  2067.6289  -999.2500      .4680      .5282      .7756   -76.6139    13.1512     -.0706    38.0146     2.3263
 6509.0000    33.1212  2104.0039  -999.2500      .4626      .5095      .7230   -76.3391    13.1393     -.1017    36.5066     2.2747
 6509.5000    32.3964  2132.1328  -999.2500      .4573      .4915      .6722   -76.0643    13.1419     -.1136    34.8900     2.2219
 6510.0000    33.5955  2148.8047  -999.2500      .4591      .4967      .6765   -75.7902    13.1436     -.1031    34.5642     2.2057
 6510.5000    34.6133  2140.9219  -999.2500      .4599      .5071      .6807   -75.5206    13.1383     -.0831    34.9313     2.2156
 6511.0000    34.4336  2118.6172  -999.2500      .4648      .5176      .6876   -75.2511    13.1363     -.0769    35.0085     2.2271
 6511.5000    32.5128  2088.4492  -999.2500      .4748      .5416      .6945   -75.0167    13.1689     -.0738    36.7830     2.2339
 6512.0000    31.6583  2052.0234  -999.2500      .4849      .5688      .7131   -74.9996    13.3031     -.0560    40.4901     2.2576
 6512.5000    31.2718  2008.7891  -999.2500      .4947      .5906      .7513   -74.9827    13.3105     -.0415    43.7825     2.2910
 6513.0000    30.9639  1966.7949  -999.2500      .5031      .5811      .7916   -74.9669    13.3106     -.0365    45.1051     2.3070
 6513.5000    30.6249  1910.6895  -999.2500      .5134      .5717      .7800   -74.9873    13.3140     -.0342    43.6196     2.3046
 6514.0000    31.2307  1843.8984  -999.2500      .5272      .5897      .7236   -75.0077    13.3268     -.0372    38.3676     2.2721
 6514.5000    31.7338  1800.1660  -999.2500      .5428      .6091      .6558   -75.0281    13.3480     -.0482    32.6860     2.2331
 6515.0000    30.5585  1800.6387  -999.2500      .5394      .6290      .6952   -74.8630    13.3725     -.0606    30.3499     2.2146
 6515.5000    28.1930  1826.8027  -999.2500      .5250      .6278      .7718   -74.6644    13.3845     -.0430    29.9587     2.2506
 6516.0000    27.1162  1857.1914  -999.2500      .5220      .6253      .9534   -74.4661    13.3928     -.0060    30.4993     2.3205
 6516.5000    27.8847  1871.9395  -999.2500      .5260      .6154      .9976   -74.2410    13.3995      .0015    32.8143     2.3420
 6517.0000    32.1785  1852.9180  -999.2500      .5294      .6058      .8724   -73.9742    13.4031     -.0343    36.2055     2.3407
 6517.5000    33.7711  1828.1934  -999.2500      .5328      .5962      .8075   -73.7074    13.4082     -.0733    38.6736     2.3126
 6518.0000    33.7719  1821.4551  -999.2500      .5328      .5959      .7757   -73.4410    13.4245     -.0986    39.8595     2.2956
 6518.5000    31.8473  1832.5801  -999.2500      .5329      .5983      .7484   -73.1083    13.4460     -.1155    40.0259     2.2814
 6519.0000    31.1581  1838.2441  -999.2500      .5341      .6007      .7236   -72.7577    13.4931     -.1251    40.2408     2.2693
 6519.5000    31.6079  1836.4434  -999.2500      .5393      .6098      .7047   -72.4072    13.6265     -.1314    41.5662     2.2638
 6520.0000    33.9853  1800.1660  -999.2500      .5527      .6314      .7338   -72.0570    13.8257     -.1344    42.8755     2.2611
 6520.5000    36.0417  1714.7891  -999.2500      .5771      .6536      .7640   -71.6312    14.1268     -.1241    43.5882     2.2696
 6521.0000    36.7172  1599.5938  -999.2500      .6341      .6948      .8005   -70.6406    14.2696     -.0668    43.7098     2.3044
 6521.5000    36.4130  1480.0254  -999.2500      .7057      .7731      .8397   -69.7845    14.2747     -.0151    43.7845     2.3536
 6522.0000    34.7619  1343.4609  -999.2500      .7737      .8486      .8696   -69.4738    14.2826      .0019    43.9612     2.3852
 6522.5000    33.4294  1190.0996  -999.2500      .8269      .8945      .8988   -69.1628    14.2917      .0028    44.3681     2.3986
 6523.0000    32.3253  1092.1992  -999.2500      .8797      .9310      .9332   -68.8466    14.3049      .0124    43.9208     2.4076
 6523.5000    31.3011  1059.1270  -999.2500      .8925      .9657      .9852   -68.5265    14.3213      .0120    40.9146     2.4158
 6524.0000    30.2769  1074.2598  -999.2500      .8919      .8761     1.0402   -68.2064    14.3537     -.0127    37.8159     2.4142
