~VERSION INFORMATION
VERS.                                                 2.0:   CWLS Log ASCII Standard-VERSION 2.0
WRAP.                                                  NO:   One line per depth step
~Well Information Block
STRT.F                                          1471.0000:   Top Depth
STOP.F                                         12100.0000:   Bottom Depth
STEP.F                                             .50000:   Depth Increment
NULL.                                            -999.250:   Null Value
FLD .                                        MU BLK A 175:   Field Name
WELL.                           OCSG03931   001 ST00 BP00:   NAME
API .                                        427124004600:   WELL API
EDF .F                                            85.0000:   ELEV DRILL FLOOR
COMP.                                GULF OIL CORPORATION:   OPERATOR
BN  .                                               A 175:   BLOCK
CTRY.                                                 USA:   COUNTRY NAME
CNTY.                                            M I E AD:   COUNTY NAME
EKB .F                                            86.0000:   ELEV KELLY BUSHING
TDD .F                                          12102.000:   FINAL TD DRILLER
STAT.                                               TEXAS:   STATE NAME
UWI .                                        427124004600:   WELL API
DICO.               IHS : Digitizing Company
~PARAMETER INFORMATION (zones)
#MNEM.UNIT                       Value     Description
#=========                       =====     ===========
#ZONATION                          CNL:   ZONATION NAME
#ZONE                            RUN_2:   ZONE NAME
TOP .                       3452.0000:   TOP DEPTH
BOT .                      12100.5000:   BOTTOM DEPTH
RUN .                               2:   RUN NUMBER
LCCD.                             440:   LOGGING CONTRACTOR
SRVC.                    Schlumberger:   LOGGING CONT NAME
DICO.          QC Data Collectors Ltd:   DIG COMPANY NAME
LDAT.                      06/16/1981:   DATE LOGGED
ELD .F                        86.0000:   LOG DATUM ELEVATION
TDD .F                      7546.0000:   TOTAL DEPTH DRILLER
TDL .F                      7545.0000:   TOTAL DEPTH LOGGER
BOTL.F                     12100.0000:   BOTTOM DEPTH LOGGED
TOPL.F                      3504.0000:   TOP DEPTH LOGGED
CS1 .IN                        9.6250:   CASING SIZE 1
BS1 .IN                       12.2500:   BIT SIZE 1
DDB1.F                      7546.0000:   DEPTH DRILLED BIT 1
BHF .                              99:   FLUID CODE
DPT .                   Miscellaneous:   DRILLING FLUID TYPE
MUDD.                         14.0000:   FLUID DENSITY
MUDV.                         42.0000:   FLUID VISCOSITY
DFPH.                         11.0000:   FLUID PH
FL  .                          4.8000:   FLUID LOSS
RM  .OHMM                       .7300:   RM
RMT .DEGF                     74.0000:   RM TEMP
RMF .OHMM                       .4600:   RMF
RMFT.DEGF                     74.0000:   RMF TEMP
FSC .                               M:   RMF CODE
RMC .OHMM                      1.1200:   RMC
RMCT.DEGF                     74.0000:   RMC TEMP
CMC .                               M:   RMC CODE
TMAX.DEGF                    168.0000:   MAX REC TEMP
TIMC.                          7.0000:   TIME SINCE CIRCLN
~PARAMETER INFORMATION (zones)
#MNEM.UNIT                       Value     Description
#=========                       =====     ===========
#ZONATION                          DIL:   ZONATION NAME
#ZONE                            RUN_1:   ZONE NAME
TOP .                       1471.0000:   TOP DEPTH
BOT .                      12095.5000:   BOTTOM DEPTH
RUN .                               1:   RUN NUMBER
LCCD.                             440:   LOGGING CONTRACTOR
SRVC.                    Schlumberger:   LOGGING CONT NAME
DICO.          QC Data Collectors Ltd:   DIG COMPANY NAME
LDAT.                      05/25/1981:   DATE LOGGED
ELD .F                        86.0000:   LOG DATUM ELEVATION
TDD .F                      4590.0000:   TOTAL DEPTH DRILLER
TDL .F                      3529.0000:   TOTAL DEPTH LOGGER
BOTL.F                     12095.0000:   BOTTOM DEPTH LOGGED
TOPL.F                      1471.0000:   TOP DEPTH LOGGED
CS1 .IN                       20.0000:   CASING SIZE 1
BS1 .IN                       12.2500:   BIT SIZE 1
DDB1.F                      4590.0000:   DEPTH DRILLED BIT 1
BHF .                              99:   FLUID CODE
DPT .                   Miscellaneous:   DRILLING FLUID TYPE
MUDD.                         11.4000:   FLUID DENSITY
MUDV.                         44.0000:   FLUID VISCOSITY
DFPH.                         11.0000:   FLUID PH
FL  .                         10.0000:   FLUID LOSS
RM  .OHMM                       .5200:   RM
RMT .DEGF                     75.0000:   RM TEMP
RMF .OHMM                       .3500:   RMF
RMFT.DEGF                     75.0000:   RMF TEMP
FSC .                               M:   RMF CODE
RMC .OHMM                       .8800:   RMC
RMCT.DEGF                     75.0000:   RMC TEMP
CMC .                               M:   RMC CODE
TMAX.DEGF                    125.0000:   MAX REC TEMP
TIMC.                         14.0000:   TIME SINCE CIRCLN
~PARAMETER INFORMATION (zones)
#MNEM.UNIT                       Value     Description
#=========                       =====     ===========
#ZONATION                          FDC:   ZONATION NAME
#ZONE                            RUN_4:   ZONE NAME
TOP .                      11080.0000:   TOP DEPTH
BOT .                      12095.0000:   BOTTOM DEPTH
RUN .                               4:   RUN NUMBER
LCCD.                             440:   LOGGING CONTRACTOR
SRVC.                    Schlumberger:   LOGGING CONT NAME
DICO.          QC Data Collectors Ltd:   DIG COMPANY NAME
LDAT.                      07/06/1981:   DATE LOGGED
ELD .F                        86.0000:   LOG DATUM ELEVATION
TDD .F                     12100.0000:   TOTAL DEPTH DRILLER
TDL .F                     12102.0000:   TOTAL DEPTH LOGGER
BOTL.F                     12095.0000:   BOTTOM DEPTH LOGGED
TOPL.F                     11080.0000:   TOP DEPTH LOGGED
CS1 .IN                        9.6250:   CASING SIZE 1
BS1 .IN                        8.5000:   BIT SIZE 1
DDB1.F                     12100.0000:   DEPTH DRILLED BIT 1
BHF .                              99:   FLUID CODE
DPT .                   Miscellaneous:   DRILLING FLUID TYPE
MUDD.                         15.7000:   FLUID DENSITY
MUDV.                         50.0000:   FLUID VISCOSITY
DFPH.                         11.0000:   FLUID PH
FL  .                          4.2000:   FLUID LOSS
RM  .OHMM                      1.2000:   RM
RMT .DEGF                     90.0000:   RM TEMP
RMF .OHMM                       .6600:   RMF
RMFT.DEGF                     78.0000:   RMF TEMP
FSC .                               M:   RMF CODE
RMC .OHMM                      1.4200:   RMC
RMCT.DEGF                     78.0000:   RMC TEMP
CMC .                               M:   RMC CODE
TMAX.DEGF                    277.0000:   MAX REC TEMP
TIMC.                         20.0000:   TIME SINCE CIRCLN
~PARAMETER INFORMATION (zones)
#MNEM.UNIT                       Value     Description
#=========                       =====     ===========
#ZONATION                          FDC:   ZONATION NAME
#ZONE                            RUN_2:   ZONE NAME
TOP .                       3504.0000:   TOP DEPTH
BOT .                      12100.5000:   BOTTOM DEPTH
RUN .                               2:   RUN NUMBER
LCCD.                             440:   LOGGING CONTRACTOR
SRVC.                    Schlumberger:   LOGGING CONT NAME
DICO.          QC Data Collectors Ltd:   DIG COMPANY NAME
LDAT.                      06/16/1981:   DATE LOGGED
ELD .F                        86.0000:   LOG DATUM ELEVATION
TDD .F                      7546.0000:   TOTAL DEPTH DRILLER
TDL .F                      7545.0000:   TOTAL DEPTH LOGGER
BOTL.F                     12100.0000:   BOTTOM DEPTH LOGGED
TOPL.F                      3504.0000:   TOP DEPTH LOGGED
CS1 .IN                        9.6250:   CASING SIZE 1
BS1 .IN                       12.2500:   BIT SIZE 1
DDB1.F                      7546.0000:   DEPTH DRILLED BIT 1
BHF .                              99:   FLUID CODE
DPT .                   Miscellaneous:   DRILLING FLUID TYPE
MUDD.                         14.0000:   FLUID DENSITY
MUDV.                         42.0000:   FLUID VISCOSITY
DFPH.                         11.0000:   FLUID PH
FL  .                          4.8000:   FLUID LOSS
RM  .OHMM                       .7300:   RM
RMT .DEGF                     74.0000:   RM TEMP
RMF .OHMM                       .4600:   RMF
RMFT.DEGF                     74.0000:   RMF TEMP
FSC .                               M:   RMF CODE
RMC .OHMM                      1.1200:   RMC
RMCT.DEGF                     74.0000:   RMC TEMP
CMC .                               M:   RMC CODE
TMAX.DEGF                    168.0000:   MAX REC TEMP
TIMC.                          7.0000:   TIME SINCE CIRCLN
~Curve Information Block
#MNEM.UNIT                                        API CODE    No Description
#=========                                        ========    == ===========
DEPT.F                                       00 001 00 00:     1  DEPTH
CALI.IN                                                  :     2  Caliper
NPHI.%                                                   :     3  Neutron Porosity
CILD.MMHO                                                :     4  Deep Induction Conductivity
DT.US/F                                                  :     5  Sonic Transit Time
GR.GAPI                                                  :     6  Gamma Ray
ILD.OHMM                                                 :     7  Deep Induction Resistivity
SFL.OHMM                                                 :     8  Medium Resistivity
SP.MV                                                    :     9  Spontaneous Potential
DPHI.%                                                   :    10  Porosity
~ASCII
# ...
 9939.0000    10.0447    32.3703  1517.9707   122.5275    55.4118      .6640      .8705   -65.6786    14.8193
 9939.5000    10.0447    32.5678  1511.8320   122.3748    55.4606      .6674      .8503   -66.1227    14.5188
 9940.0000    10.0464    33.2731  1515.3828   122.5275    54.7233      .6671      .8158   -65.5927    14.0456
 9940.5000    10.0581    33.6277  1522.5625   123.0907    53.9822      .6637      .8015   -65.1737    13.8068
 9941.0000    10.0828    33.6984  1529.7266   123.6552    53.2290      .6597      .7965   -64.8223    13.9417
 9941.5000    10.1174    33.7176  1536.9043   124.4557    52.4561      .6543      .7874   -65.2333    14.2258
 9942.0000    10.1767    33.8517  1543.8105   125.3214    51.3839      .6437      .7697   -65.0806    14.4329
 9942.5000    10.1848    34.2166  1550.1719   125.3534    50.2870      .6334      .7473   -64.8514    14.5532
 9943.0000    10.1057    34.7907  1556.5449   124.7712    49.4332      .6278      .7376   -64.9131    14.6721
 9943.5000    10.1401    35.2779  1562.9063   124.6943    49.3400      .6222      .7479   -65.0934    15.1489
 9944.0000    10.3926    35.6119  1569.2793   125.4763    50.3729      .6195      .7665   -66.3165    15.5720
 9944.5000    10.5838    35.4765  1572.9688   126.2770    51.8034      .6182      .7821   -68.0684    15.8583
 9945.0000    10.7391    35.1025  1563.4395   126.7184    51.0035      .6180      .7926   -68.7701    16.3577
 9945.5000    10.8154    34.6735  1553.9102   125.8822    49.7939      .6218      .8005   -68.4855    17.1625
 9946.0000    10.8586    34.4957  1544.3809   125.4014    48.5892      .6256      .8272   -68.2325    17.3143
 9946.5000    10.7638    34.5714  1534.8633   125.3749    47.4065      .6316      .8378   -68.5063    16.0805
 9947.0000    10.7658    34.7759  1531.1973   124.9882    46.4042      .6382      .8332   -68.9443    14.8527
 9947.5000    10.8174    34.9643  1528.8105   124.0216    46.2257      .6444      .8177   -68.7067    14.1547
 9948.0000    10.7372    34.9897  1526.4258   123.4509    46.6569      .6499      .7977   -68.6929    14.7377
 9948.5000    10.6416    33.8827  1524.0371   123.1644    47.2225      .6554      .7818   -68.8768    16.4564
 9949.0000    10.7749    33.0469  1522.1523   124.2170    47.3869      .6564      .7685   -69.3584    17.4868
 9949.5000    10.9896    32.9997  1527.7852   124.7219    46.9618      .6564      .7716   -69.7274    17.9120
 9950.0000    11.1919    33.5628  1533.4160   124.5479    46.1871      .6564      .7753   -69.8755    17.4588
 9950.5000    10.9965    34.0588  1539.0332   123.9921    44.8842      .6526      .7752   -69.7056    16.5522
 9951.0000    10.7340    34.0795  1544.6641   123.8381    43.2280      .6488      .7644   -69.4989    15.9634
 9951.5000    10.6752    33.4286  1550.2949   124.2048    41.8748      .6450      .7494   -69.2765    16.4734
 9952.0000    10.7974    33.4677  1557.8066   125.0398    43.3359      .6413      .7421   -69.0039    16.9525
 9952.5000    10.8736    34.1642  1567.2871   125.1886    46.7612      .6375      .7461   -67.8206    16.0009
 9953.0000    10.8916    35.1150  1576.7676   125.1406    51.2513      .6338      .7533   -65.5142    14.8335
 9953.5000    10.8498    36.1594  1586.2344   124.8817    53.0425      .6296      .7649   -63.1342    14.7288
 9954.0000    10.8045    36.4663  1595.7148   124.6881    53.0547      .6238      .7638   -61.2866    15.4570
 9954.5000    10.7025    36.3185  1590.9004   125.4038    51.5777      .6182      .7570   -60.4501    15.7349
 9955.0000    10.6649    35.7946  1571.9414   126.4135    50.2819      .6132      .7539   -60.3671    15.5587
 9955.5000    10.7335    36.4652  1552.9570   127.8497    51.0771      .6086      .7636   -60.3163    15.7540
 9956.0000    11.0538    37.3600  1533.9727   128.3772    52.1862      .6111      .7866   -60.3250    16.4829
 9956.5000    11.2959    37.5781  1514.6406   128.0391    52.6904      .6186      .8210   -60.3621    16.8515
 9957.0000    11.1650    35.0884  1495.1367   125.7592    51.8807      .6304      .8556   -60.5113    15.6575
 9957.5000    10.7991    32.7211  1475.6074   123.1227    51.0735      .6446      .8912   -61.6154    14.8158
 9958.0000    10.4895    31.6628  1456.0801   120.8353    50.2675      .6571      .9094   -63.4850    14.2343
 9958.5000    10.2890    31.5602  1436.5508   119.5269    49.9287      .6672      .9205   -63.4520    14.4281
 9959.0000    10.2033    31.5537  1426.1426   118.9440    49.8726      .6775      .8964   -62.7097    14.8283
 9959.5000    10.1738    31.4922  1417.3438   118.9205    49.5878      .6835      .8716   -62.3868    14.9674
 9960.0000    10.2138    31.5839  1422.4922   119.8073    48.7769      .6888      .8307   -62.3730    15.1202
 9960.5000    10.3823    32.5059  1436.1055   122.2618    47.9917      .6827      .7842   -62.4095    15.5108
 9961.0000    10.7153    33.7235  1471.0547   124.0228    48.1156      .6735      .7393   -62.5696    16.0459
 9961.5000    11.0871    35.2955  1506.0527   125.5427    49.0823      .6540      .7111   -62.6927    16.5670
 9962.0000    11.2999    35.4231  1540.2832   126.4651    50.1141      .6312      .6933   -62.3552    16.4734
 9962.5000    11.2574    34.9757  1559.1191   126.8927    50.7410      .6187      .6939   -61.7325    16.0267
 9963.0000    11.1292    34.4734  1577.9297   126.5708    50.2073      .6156      .7159   -61.3345    15.5720
 9963.5000    10.9260    34.2867  1596.7656   125.3730    50.7704      .6143      .7552   -61.0590    15.1991
 9964.0000    10.7354    34.2040  1596.3457   123.9269    51.5519      .6202      .8178   -61.0015    14.9901
 9964.5000    10.5437    33.2842  1571.5938   122.8423    50.4392      .6262      .8537   -60.9440    14.8615
 9965.0000    10.4908    32.0593  1546.8418   123.0547    49.6368      .6364      .8764   -61.1685    15.3885
 9965.5000    10.6304    31.0289  1522.2402   123.3999    50.8465      .6471      .8778   -61.3976    15.9051
 9966.0000    10.7393    30.8963  1498.8242   123.2948    51.7666      .6534      .8696   -61.8699    15.6560
 9966.5000    10.6463    31.3539  1486.5117   122.2987    50.2723      .6576      .8445   -62.3079    14.6846
 9967.0000    10.4680    31.6635  1495.4844   120.9803    47.2863      .6618      .8202   -62.4751    14.0423
 9967.5000    10.2731    31.9915  1504.4570   121.8634    45.1774      .6582      .7888   -62.6693    14.1687
 9968.0000    10.1136    33.2429  1513.4277   123.5653    44.9161      .6544      .7597   -62.9496    15.1828
 9968.5000    10.2236    34.5386  1522.4004   125.2943    45.5148      .6505      .7386   -63.2593    15.7703
 9969.0000    10.5248    35.0148  1530.9648   126.5610    46.7465      .6446      .7339   -63.5820    16.1408
 9969.5000    10.7619    35.0383  1539.5156   127.5989    47.9340      .6381      .7461   -63.8820    16.2060
 9970.0000    10.9855    34.6595  1548.0684   126.6447    48.9523      .6318      .7694   -64.3683    15.8078
 9970.5000    11.0070    34.2460  1556.6191   124.6254    50.4736      .6321      .7891   -64.5725    15.1902
 9971.0000    10.9483    34.6506  1562.3496   124.0437    51.6059      .6324      .8080   -63.7255    14.6964
 9971.5000    10.7482    34.9101  1554.2813   123.4215    52.3156      .6343      .8108   -62.6423    14.2431
 9972.0000    10.6115    34.7841  1546.2109   122.7119    52.4586      .6386      .8099   -62.0190    14.4208
 9972.5000    10.5410    34.3573  1538.1543   121.8892    50.0049      .6429      .8123   -62.1472    14.9448
 9973.0000    10.5117    33.7854  1529.5918   121.6420    47.5414      .6440      .8262   -62.3497    15.2949
 9973.5000    10.4934    33.1317  1521.0156   122.2594    45.7663      .6443      .8197   -62.6619    15.3398
 9974.0000    10.4742    32.8464  1512.4512   123.2849    45.1075      .6453      .8058   -62.9649    14.7436
 9974.5000    10.6446    33.2275  1503.8867   124.6537    46.2239      .6472      .8012   -63.2324    14.0876
 9975.0000    10.8405    32.6519  1495.3105   124.7238    46.8741      .6490      .8141   -63.8531    13.4914
