~VERSION INFORMATION
VERS.                             2.0:   CWLS Log ASCII Standard-VERSION 2.0
WRAP.                              NO:   One line per depth step
~Well Information Block
STRT.F                      3993.0000:   Top Depth
STOP.F                     13285.0000:   Bottom Depth
STEP.F                         .50000:   Depth Increment
NULL.                        -999.250:   Null Value
FLD .                     MU BLK A 85:   Field Name
WELL.       OCSG03061  B004 ST00 BP00:   NAME
API .                    427124009200:   WELL API
EDF .F                       122.0000:   ELEV DRILL FLOOR
COMP.             TRANSCO EXPLORATION:   OPERATOR
BN  .                           A 859:   BLOCK
CTRY.                             USA:   COUNTRY NAME
CNTY.                        M I E AD:   COUNTY NAME
EKB .F                       123.0000:   ELEV KELLY BUSHING
TDD .F                          0.000:   FINAL TD DRILLER
STAT.                           TEXAS:   STATE NAME
UWI .                    427124009200:   WELL API
DICO.               IHS : Digitizing Company
~PARAMETER INFORMATION (zones)
#MNEM.UNIT                       Value     Description
#=========                       =====     ===========
#ZONATION                          CNL:   ZONATION NAME
#ZONE                            RUN_1:   ZONE NAME
TOP .                       3993.0000:   TOP DEPTH
BOT .                       9346.5000:   BOTTOM DEPTH
RUN .                               1:   RUN NUMBER
LCCD.                              20:   LOGGING CONTRACTOR
SRVC.                          Baroil:   LOGGING CONT NAME
DICO.          QC Data Collectors Ltd:   DIG COMPANY NAME
LDAT.                      12/10/1986:   DATE LOGGED
ELD .F                       123.0000:   LOG DATUM ELEVATION
TDD .F                      9350.0000:   TOTAL DEPTH DRILLER
TDL .F                      9348.0000:   TOTAL DEPTH LOGGER
BOTL.F                      9346.0000:   BOTTOM DEPTH LOGGED
TOPL.F                      4002.0000:   TOP DEPTH LOGGED
CS1 .IN                       13.3750:   CASING SIZE 1
BS1 .IN                       12.2500:   BIT SIZE 1
DDB1.F                      9350.0000:   DEPTH DRILLED BIT 1
BHF .                              65:   FLUID CODE
DPT .                        INVERMUL:   DRILLING FLUID TYPE
MUDD.                         12.8000:   FLUID DENSITY
MUDV.                         40.0000:   FLUID VISCOSITY
DFPH.                          9.2000:   FLUID PH
FL  .                         11.0000:   FLUID LOSS
RM  .OHMM                       .3400:   RM
RMT .DEGF                     70.0000:   RM TEMP
RMF .OHMM                       .1600:   RMF
RMFT.DEGF                     70.0000:   RMF TEMP
FSC .                               M:   RMF CODE
RMC .OHMM                       .4200:   RMC
RMCT.DEGF                     70.0000:   RMC TEMP
CMC .                               C:   RMC CODE
TMAX.DEGF                    202.0000:   MAX REC TEMP
~PARAMETER INFORMATION (zones)
#MNEM.UNIT                       Value     Description
#=========                       =====     ===========
#ZONATION                          DIL:   ZONATION NAME
#ZONE                            RUN_1:   ZONE NAME
TOP .                       4002.0000:   TOP DEPTH
BOT .                       9336.5000:   BOTTOM DEPTH
RUN .                               1:   RUN NUMBER
LCCD.                              20:   LOGGING CONTRACTOR
SRVC.                          Baroil:   LOGGING CONT NAME
DICO.          QC Data Collectors Ltd:   DIG COMPANY NAME
LDAT.                      12/10/1986:   DATE LOGGED
ELD .F                       123.0000:   LOG DATUM ELEVATION
TDD .F                      9350.0000:   TOTAL DEPTH DRILLER
TDL .F                      9348.0000:   TOTAL DEPTH LOGGER
BOTL.F                      9346.0000:   BOTTOM DEPTH LOGGED
TOPL.F                      4002.0000:   TOP DEPTH LOGGED
CS1 .IN                       13.3750:   CASING SIZE 1
BS1 .IN                       12.2500:   BIT SIZE 1
DDB1.F                      9350.0000:   DEPTH DRILLED BIT 1
BHF .                              65:   FLUID CODE
DPT .                        INVERMUL:   DRILLING FLUID TYPE
MUDD.                         12.8000:   FLUID DENSITY
MUDV.                         40.0000:   FLUID VISCOSITY
DFPH.                          9.2000:   FLUID PH
FL  .                         11.0000:   FLUID LOSS
RM  .OHMM                       .3400:   RM
RMT .DEGF                     70.0000:   RM TEMP
RMF .OHMM                       .1600:   RMF
RMFT.DEGF                     70.0000:   RMF TEMP
FSC .                               M:   RMF CODE
RMC .OHMM                       .4200:   RMC
RMCT.DEGF                     70.0000:   RMC TEMP
CMC .                               C:   RMC CODE
TMAX.DEGF                    202.0000:   MAX REC TEMP
~PARAMETER INFORMATION (zones)
#MNEM.UNIT                       Value     Description
#=========                       =====     ===========
#ZONATION                          DIL:   ZONATION NAME
#ZONE                            RUN_3:   ZONE NAME
TOP .                       9336.0000:   TOP DEPTH
BOT .                      13285.5000:   BOTTOM DEPTH
RUN .                               3:   RUN NUMBER
LCCD.                              20:   LOGGING CONTRACTOR
SRVC.                          Baroil:   LOGGING CONT NAME
DICO.          QC Data Collectors Ltd:   DIG COMPANY NAME
LDAT.                      12/28/1986:   DATE LOGGED
ELD .F                       123.0000:   LOG DATUM ELEVATION
TDD .                            NULL:   TOTAL DEPTH DRILLER
TDL .                            NULL:   TOTAL DEPTH LOGGER
BOTL.F                     13291.0000:   BOTTOM DEPTH LOGGED
TOPL.F                     13285.0000:   TOP DEPTH LOGGED
CS1 .IN                        9.6250:   CASING SIZE 1
BS1 .IN                        8.5000:   BIT SIZE 1
DDB1.                            NULL:   DEPTH DRILLED BIT 1
BHF .                              35:   FLUID CODE
DPT .                       PETROFREE:   DRILLING FLUID TYPE
MUDD.                         14.9000:   FLUID DENSITY
MUDV.                         49.0000:   FLUID VISCOSITY
DFPH.                            NULL:   FLUID PH
FL  .                          6.0000:   FLUID LOSS
RM  .                            NULL:   RM
RMT .                            NULL:   RM TEMP
RMF .                            NULL:   RMF
RMFT.                            NULL:   RMF TEMP
FSC .                            NULL:   RMF CODE
RMC .                            NULL:   RMC
RMCT.                            NULL:   RMC TEMP
CMC .                            NULL:   RMC CODE
TMAX.DEGF                    274.0000:   MAX REC TEMP
~PARAMETER INFORMATION (zones)
#MNEM.UNIT                       Value     Description
#=========                       =====     ===========
#ZONATION                          FDC:   ZONATION NAME
#ZONE                            RUN_1:   ZONE NAME
TOP .                       3993.0000:   TOP DEPTH
BOT .                       9346.5000:   BOTTOM DEPTH
RUN .                               1:   RUN NUMBER
LCCD.                              20:   LOGGING CONTRACTOR
SRVC.                          Baroil:   LOGGING CONT NAME
DICO.          QC Data Collectors Ltd:   DIG COMPANY NAME
LDAT.                      12/10/1986:   DATE LOGGED
ELD .F                       123.0000:   LOG DATUM ELEVATION
TDD .F                      9350.0000:   TOTAL DEPTH DRILLER
TDL .F                      9348.0000:   TOTAL DEPTH LOGGER
BOTL.F                      9346.0000:   BOTTOM DEPTH LOGGED
TOPL.F                      4002.0000:   TOP DEPTH LOGGED
CS1 .IN                       13.3750:   CASING SIZE 1
BS1 .IN                       12.2500:   BIT SIZE 1
DDB1.F                      9350.0000:   DEPTH DRILLED BIT 1
BHF .                              65:   FLUID CODE
DPT .                        INVERMUL:   DRILLING FLUID TYPE
MUDD.                         12.8000:   FLUID DENSITY
MUDV.                         40.0000:   FLUID VISCOSITY
DFPH.                          9.2000:   FLUID PH
FL  .                         11.0000:   FLUID LOSS
RM  .OHMM                       .3400:   RM
RMT .DEGF                     70.0000:   RM TEMP
RMF .OHMM                       .1600:   RMF
RMFT.DEGF                     70.0000:   RMF TEMP
FSC .                               M:   RMF CODE
RMC .OHMM                       .4200:   RMC
RMCT.DEGF                     70.0000:   RMC TEMP
CMC .                               C:   RMC CODE
TMAX.DEGF                    202.0000:   MAX REC TEMP
~Curve Information Block
#MNEM.UNIT                    API CODE    No Description
#=========                    ========    == ===========
DEPT.F                   00 001 00 00:     1  DEPTH
NPHI.%                               :     2  Neutron Porosity
CILD.MMHO                            :     3  Deep Induction Conductivity
GR.GAPI                              :     4  Gamma Ray
ILD.OHMM                             :     5  Deep Induction Resistivity
ILM.OHMM                             :     6  Medium Induction Resistivity
RFOC.OHMM                            :     7  Medium Resistivity
SP.MV                                :     8  Spontaneous Potential
CALI.IN                              :     9  Caliper
DRHO.G/C3                            :    10  Bulk Density Correction
GRD.GAPI                             :    11  Gamma Ray
RHOB.G/C3                            :    12  Bulk Density
~ASCII
# ...
 8263.0000    40.1487  1257.1973  -999.2500      .8035      .7725      .8367   -61.8770    17.2328      .0171    41.6589     2.3200
 8263.5000    41.5380  1263.8223  -999.2500      .8013      .7616      .8307   -61.8936    17.2460      .0179    41.7011     2.2979
 8264.0000    41.6904  1272.6211  -999.2500      .7926      .7488      .8249   -61.8619    17.2852      .0115    41.3013     2.2871
 8264.5000    41.7614  1280.4863  -999.2500      .7850      .7326      .8210   -61.8304    17.3625      .0046    40.3999     2.2947
 8265.0000    42.0029  1284.4160  -999.2500      .7791      .7453      .8161   -61.7667    17.4465     -.0013    38.5996     2.3156
 8265.5000    41.5424  1283.4883  -999.2500      .7740      .7546      .8068   -61.4202    17.4583      .0164    36.4639     2.3301
 8266.0000    40.4100  1287.0762  -999.2500      .7698      .7635      .8002   -61.1466    17.3800      .0303    34.7068     2.3442
 8266.5000    39.6531  1300.3320  -999.2500      .7657      .7652      .8081   -60.9473    17.4680      .0225    35.0139     2.3551
 8267.0000    39.4905  1316.2480  -999.2500      .7597      .7552      .8160   -60.9330    17.7358      .0088    36.9991     2.3510
 8267.5000    38.2030  1329.8867  -999.2500      .7534      .7452      .8146   -60.9606    17.3857     -.0008    37.6773     2.3405
 8268.0000    37.2375  1326.3223  -999.2500      .7521      .7484      .8065   -61.0136    16.7829     -.0019    35.7944     2.3318
 8268.5000    37.1054  1306.0000  -999.2500      .7659      .7586      .7820   -61.1077    16.9857      .0048    35.2361     2.3314
 8269.0000    37.5981  1294.1074  -999.2500      .7798      .7665      .7689   -61.1108    17.3556      .0112    35.2032     2.3398
 8269.5000    38.0790  1292.4863  -999.2500      .7941      .7646      .7599   -61.0523    17.7462      .0122    35.2611     2.3356
 8270.0000    38.1978  1307.4844  -999.2500      .8031      .7584      .7551   -60.8621    17.7528      .0119    35.3488     2.2984
 8270.5000    37.5900  1317.1758  -999.2500      .8116      .7309      .7506   -61.0355    17.5420      .0141    35.7895     2.2736
 8271.0000    36.6000  1313.6914  -999.2500      .8032      .7043      .7467   -60.9686    17.3770      .0121    36.5151     2.2683
 8271.5000    35.9017  1292.8809  -999.2500      .7940      .7149      .7522   -60.9151    17.2786      .0009    36.9202     2.2714
 8272.0000    36.4219  1258.8711  -999.2500      .7952      .7323      .7783   -60.8615    17.2669     -.0141    36.7321     2.2813
 8272.5000    38.8071  1226.3965  -999.2500      .8033      .7500      .7967   -60.8079    17.2954     -.0288    36.3986     2.3048
 8273.0000    39.3696  1214.2676  -999.2500      .8118      .7592      .8134   -60.7499    17.3091     -.0299    35.6403     2.3298
 8273.5000    38.2178  1213.9238  -999.2500      .8240      .7671      .8285   -60.6842    17.2091     -.0189    34.1483     2.3498
 8274.0000    38.9777  1213.6855  -999.2500      .8364      .7751      .8389   -60.6184    17.0381      .0037    32.9867     2.3602
 8274.5000    40.0634  1211.9492  -999.2500      .8458      .7749      .8454   -60.5527    16.9042      .0214    32.8706     2.3601
 8275.0000    38.0947  1211.2715  -999.2500      .8432      .7646      .8444   -60.4901    16.8134      .0169    33.1569     2.3503
 8275.5000    37.4409  1211.6875  -999.2500      .8322      .7544      .8358   -60.4287    16.7449      .0066    34.2148     2.3435
 8276.0000    38.5057  1214.5527  -999.2500      .8141      .7442      .8218   -60.3673    16.7167     -.0020    37.2334     2.3490
 8276.5000    40.9738  1235.4551  -999.2500      .7943      .7340      .8111   -60.3060    16.7442      .0117    38.9720     2.3616
 8277.0000    40.9502  1270.7031  -999.2500      .7736      .7239      .8051   -60.2400    16.8589      .0331    38.5466     2.3662
 8277.5000    40.9318  1304.1680  -999.2500      .7482      .7140      .7991   -60.1724    16.9292      .0305    37.3641     2.3677
 8278.0000    39.4764  1325.2090  -999.2500      .7419      .7101      .7916   -60.1048    16.8911      .0131    36.3986     2.3675
 8278.5000    37.0453  1341.2598  -999.2500      .7357      .7075      .7828   -60.2827    16.9008     -.0013    37.5540     2.3642
 8279.0000    35.1507  1351.0859  -999.2500      .7317      .7048      .7740   -60.4939    17.0298     -.0029    40.0053     2.3576
 8279.5000    36.5645  1356.4824  -999.2500      .7280      .7057      .7795   -60.7054    17.2051      .0023    41.9166     2.3487
 8280.0000    38.1229  1357.7969  -999.2500      .7249      .7095      .7887   -60.3213    17.3736      .0155    41.0707     2.3528
 8280.5000    38.7106  1357.7578  -999.2500      .7271      .7132      .7922   -59.8483    17.4697      .0285    39.0139     2.3620
 8281.0000    39.2560  1354.3730  -999.2500      .7293      .7173      .7879   -59.3752    17.4977      .0320    36.9523     2.3622
 8281.5000    39.2167  1350.9883  -999.2500      .7315      .7220      .7827   -58.9979    17.4202      .0276    36.4208     2.3494
 8282.0000    38.8319  1339.5156  -999.2500      .7373      .7268      .7721   -58.6465    17.2480      .0154    37.9683     2.3142
 8282.5000    39.1818  1327.4609  -999.2500      .7435      .7314      .7672   -58.2957    17.0130      .0033    41.2433     2.2979
 8283.0000    39.5648  1316.4590  -999.2500      .7497      .7355      .7758   -57.9643    17.0862      .0072    42.9474     2.2872
 8283.5000    38.4523  1305.5176  -999.2500      .7526      .7397      .7842   -57.9684    17.6357      .0239    42.5541     2.2837
 8284.0000    37.4193  1295.2461  -999.2500      .7546      .7431      .7917   -57.9725    17.7001      .0279    40.8438     2.2900
 8284.5000    37.6827  1292.5078  -999.2500      .7512      .7432      .7993   -58.0515    17.6587      .0210    39.0657     2.3171
 8285.0000    38.0794  1299.1680  -999.2500      .7437      .7229      .7957   -58.1850    17.6390      .0214    38.1896     2.3456
 8285.5000    37.4193  1312.7090  -999.2500      .7300      .7031      .7884   -58.3185    17.6120      .0260    38.6453     2.3596
 8286.0000    36.8416  1333.5742  -999.2500      .7185      .6960      .7666   -58.4521    17.6364      .0273    42.0276     2.3550
 8286.5000    37.3088  1356.9902  -999.2500      .7073      .6957      .7498   -58.5535    17.6653      .0232    43.2508     2.3444
 8287.0000    36.9407  1381.8906  -999.2500      .6964      .6954      .7469   -58.6455    17.6732      .0157    41.4529     2.3342
 8287.5000    36.8925  1406.6680  -999.2500      .6851      .6863      .7440   -58.7377    17.6432      .0169    40.0984     2.3293
 8288.0000    37.4527  1430.1328  -999.2500      .6740      .6721      .7419   -59.0312    17.6477      .0259    40.9943     2.3342
 8288.5000    37.8097  1451.3457  -999.2500      .6630      .6581      .7404   -59.3993    17.6369      .0303    43.3026     2.3451
 8289.0000    37.3518  1471.4707  -999.2500      .6523      .6447      .7429   -59.7667    17.5018      .0318    44.5221     2.3569
 8289.5000    37.7822  1496.2969  -999.2500      .6417      .6344      .7462   -60.0912    17.4749      .0320    45.4050     2.3587
 8290.0000    38.3403  1520.6289  -999.2500      .6313      .6242      .7385   -60.3976    17.4730      .0274    46.6590     2.3490
 8290.5000    37.5143  1543.6719  -999.2500      .6226      .6142      .7265   -60.7042    17.4797      .0138    47.8341     2.3335
 8291.0000    38.1674  1558.3750  -999.2500      .6146      .6094      .7160   -60.6525    17.4803      .0074    47.4198     2.3214
 8291.5000    38.6705  1573.2266  -999.2500      .6068      .6050      .7066   -60.5399    17.4772      .0036    46.6029     2.3217
 8292.0000    37.8557  1591.1484  -999.2500      .5991      .6008      .7065   -60.4338    17.4711     -.0060    46.6331     2.3233
 8292.5000    35.7333  1612.1621  -999.2500      .5915      .5968      .7080   -60.3818    17.4653     -.0294    47.2343     2.3205
 8293.0000    34.2387  1635.6523  -999.2500      .5841      .5928      .7092   -60.3298    17.4595     -.0460    47.6655     2.3188
