~VERSION INFORMATION
VERS.                             2.0:   CWLS Log ASCII Standard-VERSION 2.0
WRAP.                              NO:   One line per depth step
~Well Information Block
STRT.F                      3993.0000:   Top Depth
STOP.F                     13285.0000:   Bottom Depth
STEP.F                         .50000:   Depth Increment
NULL.                        -999.250:   Null Value
FLD .                     MU BLK A 85:   Field Name
WELL.       OCSG03061  B004 ST00 BP00:   NAME
API .                    427124009200:   WELL API
EDF .F                       122.0000:   ELEV DRILL FLOOR
COMP.             TRANSCO EXPLORATION:   OPERATOR
BN  .                           A 859:   BLOCK
CTRY.                             USA:   COUNTRY NAME
CNTY.                        M I E AD:   COUNTY NAME
EKB .F                       123.0000:   ELEV KELLY BUSHING
TDD .F                          0.000:   FINAL TD DRILLER
STAT.                           TEXAS:   STATE NAME
UWI .                    427124009200:   WELL API
DICO.               IHS : Digitizing Company
~PARAMETER INFORMATION (zones)
#MNEM.UNIT                       Value     Description
#=========                       =====     ===========
#ZONATION                          CNL:   ZONATION NAME
#ZONE                            RUN_1:   ZONE NAME
TOP .                       3993.0000:   TOP DEPTH
BOT .                       9346.5000:   BOTTOM DEPTH
RUN .                               1:   RUN NUMBER
LCCD.                              20:   LOGGING CONTRACTOR
SRVC.                          Baroil:   LOGGING CONT NAME
DICO.          QC Data Collectors Ltd:   DIG COMPANY NAME
LDAT.                      12/10/1986:   DATE LOGGED
ELD .F                       123.0000:   LOG DATUM ELEVATION
TDD .F                      9350.0000:   TOTAL DEPTH DRILLER
TDL .F                      9348.0000:   TOTAL DEPTH LOGGER
BOTL.F                      9346.0000:   BOTTOM DEPTH LOGGED
TOPL.F                      4002.0000:   TOP DEPTH LOGGED
CS1 .IN                       13.3750:   CASING SIZE 1
BS1 .IN                       12.2500:   BIT SIZE 1
DDB1.F                      9350.0000:   DEPTH DRILLED BIT 1
BHF .                              65:   FLUID CODE
DPT .                        INVERMUL:   DRILLING FLUID TYPE
MUDD.                         12.8000:   FLUID DENSITY
MUDV.                         40.0000:   FLUID VISCOSITY
DFPH.                          9.2000:   FLUID PH
FL  .                         11.0000:   FLUID LOSS
RM  .OHMM                       .3400:   RM
RMT .DEGF                     70.0000:   RM TEMP
RMF .OHMM                       .1600:   RMF
RMFT.DEGF                     70.0000:   RMF TEMP
FSC .                               M:   RMF CODE
RMC .OHMM                       .4200:   RMC
RMCT.DEGF                     70.0000:   RMC TEMP
CMC .                               C:   RMC CODE
TMAX.DEGF                    202.0000:   MAX REC TEMP
~PARAMETER INFORMATION (zones)
#MNEM.UNIT                       Value     Description
#=========                       =====     ===========
#ZONATION                          DIL:   ZONATION NAME
#ZONE                            RUN_1:   ZONE NAME
TOP .                       4002.0000:   TOP DEPTH
BOT .                       9336.5000:   BOTTOM DEPTH
RUN .                               1:   RUN NUMBER
LCCD.                              20:   LOGGING CONTRACTOR
SRVC.                          Baroil:   LOGGING CONT NAME
DICO.          QC Data Collectors Ltd:   DIG COMPANY NAME
LDAT.                      12/10/1986:   DATE LOGGED
ELD .F                       123.0000:   LOG DATUM ELEVATION
TDD .F                      9350.0000:   TOTAL DEPTH DRILLER
TDL .F                      9348.0000:   TOTAL DEPTH LOGGER
BOTL.F                      9346.0000:   BOTTOM DEPTH LOGGED
TOPL.F                      4002.0000:   TOP DEPTH LOGGED
CS1 .IN                       13.3750:   CASING SIZE 1
BS1 .IN                       12.2500:   BIT SIZE 1
DDB1.F                      9350.0000:   DEPTH DRILLED BIT 1
BHF .                              65:   FLUID CODE
DPT .                        INVERMUL:   DRILLING FLUID TYPE
MUDD.                         12.8000:   FLUID DENSITY
MUDV.                         40.0000:   FLUID VISCOSITY
DFPH.                          9.2000:   FLUID PH
FL  .                         11.0000:   FLUID LOSS
RM  .OHMM                       .3400:   RM
RMT .DEGF                     70.0000:   RM TEMP
RMF .OHMM                       .1600:   RMF
RMFT.DEGF                     70.0000:   RMF TEMP
FSC .                               M:   RMF CODE
RMC .OHMM                       .4200:   RMC
RMCT.DEGF                     70.0000:   RMC TEMP
CMC .                               C:   RMC CODE
TMAX.DEGF                    202.0000:   MAX REC TEMP
~PARAMETER INFORMATION (zones)
#MNEM.UNIT                       Value     Description
#=========                       =====     ===========
#ZONATION                          DIL:   ZONATION NAME
#ZONE                            RUN_3:   ZONE NAME
TOP .                       9336.0000:   TOP DEPTH
BOT .                      13285.5000:   BOTTOM DEPTH
RUN .                               3:   RUN NUMBER
LCCD.                              20:   LOGGING CONTRACTOR
SRVC.                          Baroil:   LOGGING CONT NAME
DICO.          QC Data Collectors Ltd:   DIG COMPANY NAME
LDAT.                      12/28/1986:   DATE LOGGED
ELD .F                       123.0000:   LOG DATUM ELEVATION
TDD .                            NULL:   TOTAL DEPTH DRILLER
TDL .                            NULL:   TOTAL DEPTH LOGGER
BOTL.F                     13291.0000:   BOTTOM DEPTH LOGGED
TOPL.F                     13285.0000:   TOP DEPTH LOGGED
CS1 .IN                        9.6250:   CASING SIZE 1
BS1 .IN                        8.5000:   BIT SIZE 1
DDB1.                            NULL:   DEPTH DRILLED BIT 1
BHF .                              35:   FLUID CODE
DPT .                       PETROFREE:   DRILLING FLUID TYPE
MUDD.                         14.9000:   FLUID DENSITY
MUDV.                         49.0000:   FLUID VISCOSITY
DFPH.                            NULL:   FLUID PH
FL  .                          6.0000:   FLUID LOSS
RM  .                            NULL:   RM
RMT .                            NULL:   RM TEMP
RMF .                            NULL:   RMF
RMFT.                            NULL:   RMF TEMP
FSC .                            NULL:   RMF CODE
RMC .                            NULL:   RMC
RMCT.                            NULL:   RMC TEMP
CMC .                            NULL:   RMC CODE
TMAX.DEGF                    274.0000:   MAX REC TEMP
~PARAMETER INFORMATION (zones)
#MNEM.UNIT                       Value     Description
#=========                       =====     ===========
#ZONATION                          FDC:   ZONATION NAME
#ZONE                            RUN_1:   ZONE NAME
TOP .                       3993.0000:   TOP DEPTH
BOT .                       9346.5000:   BOTTOM DEPTH
RUN .                               1:   RUN NUMBER
LCCD.                              20:   LOGGING CONTRACTOR
SRVC.                          Baroil:   LOGGING CONT NAME
DICO.          QC Data Collectors Ltd:   DIG COMPANY NAME
LDAT.                      12/10/1986:   DATE LOGGED
ELD .F                       123.0000:   LOG DATUM ELEVATION
TDD .F                      9350.0000:   TOTAL DEPTH DRILLER
TDL .F                      9348.0000:   TOTAL DEPTH LOGGER
BOTL.F                      9346.0000:   BOTTOM DEPTH LOGGED
TOPL.F                      4002.0000:   TOP DEPTH LOGGED
CS1 .IN                       13.3750:   CASING SIZE 1
BS1 .IN                       12.2500:   BIT SIZE 1
DDB1.F                      9350.0000:   DEPTH DRILLED BIT 1
BHF .                              65:   FLUID CODE
DPT .                        INVERMUL:   DRILLING FLUID TYPE
MUDD.                         12.8000:   FLUID DENSITY
MUDV.                         40.0000:   FLUID VISCOSITY
DFPH.                          9.2000:   FLUID PH
FL  .                         11.0000:   FLUID LOSS
RM  .OHMM                       .3400:   RM
RMT .DEGF                     70.0000:   RM TEMP
RMF .OHMM                       .1600:   RMF
RMFT.DEGF                     70.0000:   RMF TEMP
FSC .                               M:   RMF CODE
RMC .OHMM                       .4200:   RMC
RMCT.DEGF                     70.0000:   RMC TEMP
CMC .                               C:   RMC CODE
TMAX.DEGF                    202.0000:   MAX REC TEMP
~Curve Information Block
#MNEM.UNIT                    API CODE    No Description
#=========                    ========    == ===========
DEPT.F                   00 001 00 00:     1  DEPTH
NPHI.%                               :     2  Neutron Porosity
CILD.MMHO                            :     3  Deep Induction Conductivity
GR.GAPI                              :     4  Gamma Ray
ILD.OHMM                             :     5  Deep Induction Resistivity
ILM.OHMM                             :     6  Medium Induction Resistivity
RFOC.OHMM                            :     7  Medium Resistivity
SP.MV                                :     8  Spontaneous Potential
CALI.IN                              :     9  Caliper
DRHO.G/C3                            :    10  Bulk Density Correction
GRD.GAPI                             :    11  Gamma Ray
RHOB.G/C3                            :    12  Bulk Density
~ASCII
# ...
 5060.5000    28.9560  1266.2422  -999.2500      .7867      .8789      .8785   -68.7172    12.9666     -.1751    39.2933     2.2978
 5061.0000    28.5331  1230.2988  -999.2500      .8093      .9162      .9393   -69.1499    12.9758     -.1427    39.6915     2.3240
 5061.5000    27.8345  1228.9844  -999.2500      .8069      .9172     1.0128   -69.3744    12.9752     -.0920    37.9578     2.3526
 5062.0000    27.5870  1252.3711  -999.2500      .7991      .8798     1.0432   -69.3538    12.9722     -.0629    37.3535     2.3727
 5062.5000    28.9843  1308.3066  -999.2500      .7906      .8077      .9552   -69.3094    12.9668     -.0807    39.0432     2.3633
 5063.0000    32.2722  1410.2715  -999.2500      .7388      .7416      .8967   -69.0660    12.9592     -.1021    40.1545     2.3228
 5063.5000    33.7586  1522.3418  -999.2500      .6909      .7072      .8942   -68.8225    12.9521     -.1111    40.4545     2.3054
 5064.0000    34.2463  1612.6641  -999.2500      .6468      .6777      .8602   -68.5790    12.9525     -.1309    38.5393     2.2852
 5064.5000    33.6070  1671.9688  -999.2500      .6066      .6645      .7756   -68.6052    12.9530     -.1572    33.8749     2.2356
 5065.0000    32.1317  1728.6973  -999.2500      .5701      .6635      .6842   -68.6353    12.9539     -.1520    31.9625     2.1849
 5065.5000    31.3945  1790.3320  -999.2500      .5358      .6624      .7099   -68.7274    12.9599     -.1446    32.2991     2.1678
 5066.0000    31.0012  1794.9160  -999.2500      .5432      .6627      .7339   -68.8503    12.9660     -.1464    35.4371     2.1735
 5066.5000    30.7122  1745.9395  -999.2500      .5540      .6760      .7559   -68.9819    12.9714     -.1487    38.0872     2.1718
 5067.0000    30.4517  1675.1406  -999.2500      .5730      .6895      .7593   -69.1506    12.9754     -.1483    39.2570     2.1638
 5067.5000    30.2356  1616.4043  -999.2500      .5927      .7034      .7426   -69.3202    12.9793     -.1437    39.7624     2.1744
 5068.0000    30.0253  1580.7305  -999.2500      .6131      .7109      .7703   -69.4933    12.9832     -.1491    40.3953     2.2062
 5068.5000    29.7776  1551.1035  -999.2500      .6274      .7184      .8498   -69.6665    12.9894     -.1782    40.8118     2.2234
 5069.0000    29.2786  1527.9648  -999.2500      .6363      .7259      .8506   -69.4462    12.9958     -.1990    38.0317     2.2299
 5069.5000    28.3748  1516.9414  -999.2500      .6453      .7219      .8177   -69.0529    13.0021     -.2073    35.9696     2.2197
 5070.0000    28.1766  1518.8125  -999.2500      .6545      .7180      .8093   -68.8604    13.0082     -.2028    35.6367     2.2039
 5070.5000    28.6617  1525.4395  -999.2500      .6490      .7141      .8040   -68.8871    13.0144     -.2087    36.1812     2.1979
 5071.0000    29.8115  1541.2305  -999.2500      .6398      .7052      .8040   -68.9420    13.0168     -.2185    38.7512     2.1898
 5071.5000    31.0429  1581.6484  -999.2500      .6288      .6962      .7836   -69.1791    13.0152     -.2226    40.6608     2.1690
 5072.0000    32.2886  1635.9492  -999.2500      .6012      .6820      .7573   -69.4597    13.0129     -.2123    41.7290     2.1544
 5072.5000    33.4866  1723.5449  -999.2500      .5748      .6670      .7893   -69.5614    13.0101     -.1740    42.4435     2.1909
 5073.0000    34.0959  1774.0078  -999.2500      .5589      .6485      .8313   -69.2811    13.0064     -.1362    42.6555     2.2123
 5073.5000    32.3822  1783.9531  -999.2500      .5515      .6288      .7756   -69.0006    12.9982     -.1155    40.8801     2.2079
 5074.0000    30.7769  1798.2344  -999.2500      .5438      .6212      .7259   -68.7572    13.0195     -.1117    37.7484     2.1737
 5074.5000    29.6442  1836.3594  -999.2500      .5348      .6212      .6923   -68.5551    13.0511     -.0945    35.5159     2.1460
 5075.0000    29.1570  1895.7148  -999.2500      .5260      .6149      .7019   -68.3964    13.0857     -.0626    34.0049     2.1539
 5075.5000    28.8797  1953.8809  -999.2500      .5123      .6020      .7332   -68.6689    13.1123     -.0536    33.1721     2.1729
 5076.0000    29.0764  1999.0039  -999.2500      .4976      .5903      .7755   -68.9415    13.1206     -.0773    32.2086     2.1807
 5076.5000    30.5658  1998.5215  -999.2500      .4954      .5935      .7441   -69.1715    13.1211     -.1068    31.7373     2.1615
 5077.0000    32.4134  1970.4785  -999.2500      .5049      .5975      .7198   -69.2705    13.1243     -.1059    32.8240     2.1442
 5077.5000    32.6243  1933.2207  -999.2500      .5146      .6138      .7022   -69.3695    13.1316     -.0954    35.3508     2.1428
 5078.0000    32.8073  1880.9512  -999.2500      .5234      .6306      .7234   -69.4023    13.1415     -.0804    38.2485     2.1633
 5078.5000    33.7642  1837.9453  -999.2500      .5317      .6481      .7493   -69.3855    13.1537     -.0605    40.6608     2.1885
 5079.0000    33.4346  1784.4355  -999.2500      .5439      .6684      .7732   -69.3688    13.1700     -.0435    42.6998     2.2155
 5079.5000    31.4829  1715.4688  -999.2500      .5716      .6893      .7943   -69.3812    13.1678     -.0398    44.6242     2.2461
 5080.0000    30.5645  1624.1074  -999.2500      .6007      .7108      .8161   -69.4218    13.1588     -.0501    46.0219     2.2772
 5080.5000    30.6550  1528.1895  -999.2500      .6314      .7292      .8516   -69.4624    13.1532     -.0710    45.6641     2.2935
 5081.0000    31.1466  1476.6621  -999.2500      .6594      .7481      .8901   -69.5029    13.1565     -.0885    43.4058     2.3114
 5081.5000    32.5308  1436.8770  -999.2500      .6789      .7674      .9072   -69.5310    13.1612     -.0983    41.7314     2.3277
 5082.0000    33.5922  1400.7344  -999.2500      .6990      .7778      .8983   -69.5587    13.1653     -.1186    42.0456     2.3298
 5082.5000    34.1406  1367.5391  -999.2500      .7179      .7875      .8702   -69.5864    13.1657     -.1364    44.3421     2.3148
 5083.0000    32.8876  1336.0762  -999.2500      .7360      .7973      .8314   -69.6993    13.1652     -.1507    45.0323     2.2953
 5083.5000    31.4859  1308.8027  -999.2500      .7536      .8090      .8234   -70.0774    13.1579     -.1645    44.8503     2.2763
 5084.0000    30.4432  1300.1172  -999.2500      .7552      .8208      .8383   -70.4553    13.1480     -.1760    43.7088     2.2554
 5084.5000    29.9179  1306.7031  -999.2500      .7568      .8329      .8612   -70.5221    13.1038     -.1797    41.0353     2.2347
 5085.0000    30.4008  1322.8848  -999.2500      .7458      .8250      .9131   -70.4344    13.0146     -.1592    39.0986     2.2124
 5085.5000    31.8441  1343.8555  -999.2500      .7247      .8169      .9502   -70.3468    12.8852     -.1445    38.1025     2.1970
 5086.0000    33.2339  1391.1465  -999.2500      .7042      .7841      .9274   -70.1493    12.8295     -.1395    39.3524     2.1991
 5086.5000    34.1221  1458.3301  -999.2500      .6647      .7455      .8988   -69.9324    12.8071     -.1372    43.5856     2.2118
 5087.0000    34.7137  1546.0254  -999.2500      .6274      .6986      .8271   -69.7153    12.7864     -.1312    45.8464     2.2138
 5087.5000    35.1990  1676.7246  -999.2500      .5785      .6537      .7612   -69.4984    12.7800     -.1168    46.8013     2.2044
 5088.0000    35.6302  1840.6211  -999.2500      .5326      .6247      .7331   -69.2877    12.7735     -.0978    46.8293     2.1865
 5088.5000    35.7644  1931.1895  -999.2500      .5003      .5980      .7090   -69.2000    12.7642     -.1044    44.7339     2.1743
 5089.0000    35.4907  2022.6992  -999.2500      .4725      .5814      .7057   -69.1123    12.7542     -.1118    41.5233     2.1654
 5089.5000    35.2111  2088.0977  -999.2500      .4698      .5660      .7061   -69.0247    12.7538     -.1086    39.1689     2.1632
 5090.0000    35.3573  2123.0156  -999.2500      .4683      .5685      .7070   -68.9371    12.7543     -.0768    39.7769     2.1654
 5090.5000    36.3673  2100.9805  -999.2500      .4814      .5759      .7084   -68.8026    12.7644     -.0619    40.7576     2.1649
