~VERSION INFORMATION
VERS.                             2.0:   CWLS Log ASCII Standard-VERSION 2.0
WRAP.                              NO:   One line per depth step
~Well Information Block
STRT.F                      3993.0000:   Top Depth
STOP.F                     13285.0000:   Bottom Depth
STEP.F                         .50000:   Depth Increment
NULL.                        -999.250:   Null Value
FLD .                     MU BLK A 85:   Field Name
WELL.       OCSG03061  B004 ST00 BP00:   NAME
API .                    427124009200:   WELL API
EDF .F                       122.0000:   ELEV DRILL FLOOR
COMP.             TRANSCO EXPLORATION:   OPERATOR
BN  .                           A 859:   BLOCK
CTRY.                             USA:   COUNTRY NAME
CNTY.                        M I E AD:   COUNTY NAME
EKB .F                       123.0000:   ELEV KELLY BUSHING
TDD .F                          0.000:   FINAL TD DRILLER
STAT.                           TEXAS:   STATE NAME
UWI .                    427124009200:   WELL API
DICO.               IHS : Digitizing Company
~PARAMETER INFORMATION (zones)
#MNEM.UNIT                       Value     Description
#=========                       =====     ===========
#ZONATION                          CNL:   ZONATION NAME
#ZONE                            RUN_1:   ZONE NAME
TOP .                       3993.0000:   TOP DEPTH
BOT .                       9346.5000:   BOTTOM DEPTH
RUN .                               1:   RUN NUMBER
LCCD.                              20:   LOGGING CONTRACTOR
SRVC.                          Baroil:   LOGGING CONT NAME
DICO.          QC Data Collectors Ltd:   DIG COMPANY NAME
LDAT.                      12/10/1986:   DATE LOGGED
ELD .F                       123.0000:   LOG DATUM ELEVATION
TDD .F                      9350.0000:   TOTAL DEPTH DRILLER
TDL .F                      9348.0000:   TOTAL DEPTH LOGGER
BOTL.F                      9346.0000:   BOTTOM DEPTH LOGGED
TOPL.F                      4002.0000:   TOP DEPTH LOGGED
CS1 .IN                       13.3750:   CASING SIZE 1
BS1 .IN                       12.2500:   BIT SIZE 1
DDB1.F                      9350.0000:   DEPTH DRILLED BIT 1
BHF .                              65:   FLUID CODE
DPT .                        INVERMUL:   DRILLING FLUID TYPE
MUDD.                         12.8000:   FLUID DENSITY
MUDV.                         40.0000:   FLUID VISCOSITY
DFPH.                          9.2000:   FLUID PH
FL  .                         11.0000:   FLUID LOSS
RM  .OHMM                       .3400:   RM
RMT .DEGF                     70.0000:   RM TEMP
RMF .OHMM                       .1600:   RMF
RMFT.DEGF                     70.0000:   RMF TEMP
FSC .                               M:   RMF CODE
RMC .OHMM                       .4200:   RMC
RMCT.DEGF                     70.0000:   RMC TEMP
CMC .                               C:   RMC CODE
TMAX.DEGF                    202.0000:   MAX REC TEMP
~PARAMETER INFORMATION (zones)
#MNEM.UNIT                       Value     Description
#=========                       =====     ===========
#ZONATION                          DIL:   ZONATION NAME
#ZONE                            RUN_1:   ZONE NAME
TOP .                       4002.0000:   TOP DEPTH
BOT .                       9336.5000:   BOTTOM DEPTH
RUN .                               1:   RUN NUMBER
LCCD.                              20:   LOGGING CONTRACTOR
SRVC.                          Baroil:   LOGGING CONT NAME
DICO.          QC Data Collectors Ltd:   DIG COMPANY NAME
LDAT.                      12/10/1986:   DATE LOGGED
ELD .F                       123.0000:   LOG DATUM ELEVATION
TDD .F                      9350.0000:   TOTAL DEPTH DRILLER
TDL .F                      9348.0000:   TOTAL DEPTH LOGGER
BOTL.F                      9346.0000:   BOTTOM DEPTH LOGGED
TOPL.F                      4002.0000:   TOP DEPTH LOGGED
CS1 .IN                       13.3750:   CASING SIZE 1
BS1 .IN                       12.2500:   BIT SIZE 1
DDB1.F                      9350.0000:   DEPTH DRILLED BIT 1
BHF .                              65:   FLUID CODE
DPT .                        INVERMUL:   DRILLING FLUID TYPE
MUDD.                         12.8000:   FLUID DENSITY
MUDV.                         40.0000:   FLUID VISCOSITY
DFPH.                          9.2000:   FLUID PH
FL  .                         11.0000:   FLUID LOSS
RM  .OHMM                       .3400:   RM
RMT .DEGF                     70.0000:   RM TEMP
RMF .OHMM                       .1600:   RMF
RMFT.DEGF                     70.0000:   RMF TEMP
FSC .                               M:   RMF CODE
RMC .OHMM                       .4200:   RMC
RMCT.DEGF                     70.0000:   RMC TEMP
CMC .                               C:   RMC CODE
TMAX.DEGF                    202.0000:   MAX REC TEMP
~PARAMETER INFORMATION (zones)
#MNEM.UNIT                       Value     Description
#=========                       =====     ===========
#ZONATION                          DIL:   ZONATION NAME
#ZONE                            RUN_3:   ZONE NAME
TOP .                       9336.0000:   TOP DEPTH
BOT .                      13285.5000:   BOTTOM DEPTH
RUN .                               3:   RUN NUMBER
LCCD.                              20:   LOGGING CONTRACTOR
SRVC.                          Baroil:   LOGGING CONT NAME
DICO.          QC Data Collectors Ltd:   DIG COMPANY NAME
LDAT.                      12/28/1986:   DATE LOGGED
ELD .F                       123.0000:   LOG DATUM ELEVATION
TDD .                            NULL:   TOTAL DEPTH DRILLER
TDL .                            NULL:   TOTAL DEPTH LOGGER
BOTL.F                     13291.0000:   BOTTOM DEPTH LOGGED
TOPL.F                     13285.0000:   TOP DEPTH LOGGED
CS1 .IN                        9.6250:   CASING SIZE 1
BS1 .IN                        8.5000:   BIT SIZE 1
DDB1.                            NULL:   DEPTH DRILLED BIT 1
BHF .                              35:   FLUID CODE
DPT .                       PETROFREE:   DRILLING FLUID TYPE
MUDD.                         14.9000:   FLUID DENSITY
MUDV.                         49.0000:   FLUID VISCOSITY
DFPH.                            NULL:   FLUID PH
FL  .                          6.0000:   FLUID LOSS
RM  .                            NULL:   RM
RMT .                            NULL:   RM TEMP
RMF .                            NULL:   RMF
RMFT.                            NULL:   RMF TEMP
FSC .                            NULL:   RMF CODE
RMC .                            NULL:   RMC
RMCT.                            NULL:   RMC TEMP
CMC .                            NULL:   RMC CODE
TMAX.DEGF                    274.0000:   MAX REC TEMP
~PARAMETER INFORMATION (zones)
#MNEM.UNIT                       Value     Description
#=========                       =====     ===========
#ZONATION                          FDC:   ZONATION NAME
#ZONE                            RUN_1:   ZONE NAME
TOP .                       3993.0000:   TOP DEPTH
BOT .                       9346.5000:   BOTTOM DEPTH
RUN .                               1:   RUN NUMBER
LCCD.                              20:   LOGGING CONTRACTOR
SRVC.                          Baroil:   LOGGING CONT NAME
DICO.          QC Data Collectors Ltd:   DIG COMPANY NAME
LDAT.                      12/10/1986:   DATE LOGGED
ELD .F                       123.0000:   LOG DATUM ELEVATION
TDD .F                      9350.0000:   TOTAL DEPTH DRILLER
TDL .F                      9348.0000:   TOTAL DEPTH LOGGER
BOTL.F                      9346.0000:   BOTTOM DEPTH LOGGED
TOPL.F                      4002.0000:   TOP DEPTH LOGGED
CS1 .IN                       13.3750:   CASING SIZE 1
BS1 .IN                       12.2500:   BIT SIZE 1
DDB1.F                      9350.0000:   DEPTH DRILLED BIT 1
BHF .                              65:   FLUID CODE
DPT .                        INVERMUL:   DRILLING FLUID TYPE
MUDD.                         12.8000:   FLUID DENSITY
MUDV.                         40.0000:   FLUID VISCOSITY
DFPH.                          9.2000:   FLUID PH
FL  .                         11.0000:   FLUID LOSS
RM  .OHMM                       .3400:   RM
RMT .DEGF                     70.0000:   RM TEMP
RMF .OHMM                       .1600:   RMF
RMFT.DEGF                     70.0000:   RMF TEMP
FSC .                               M:   RMF CODE
RMC .OHMM                       .4200:   RMC
RMCT.DEGF                     70.0000:   RMC TEMP
CMC .                               C:   RMC CODE
TMAX.DEGF                    202.0000:   MAX REC TEMP
~Curve Information Block
#MNEM.UNIT                    API CODE    No Description
#=========                    ========    == ===========
DEPT.F                   00 001 00 00:     1  DEPTH
NPHI.%                               :     2  Neutron Porosity
CILD.MMHO                            :     3  Deep Induction Conductivity
GR.GAPI                              :     4  Gamma Ray
ILD.OHMM                             :     5  Deep Induction Resistivity
ILM.OHMM                             :     6  Medium Induction Resistivity
RFOC.OHMM                            :     7  Medium Resistivity
SP.MV                                :     8  Spontaneous Potential
CALI.IN                              :     9  Caliper
DRHO.G/C3                            :    10  Bulk Density Correction
GRD.GAPI                             :    11  Gamma Ray
RHOB.G/C3                            :    12  Bulk Density
~ASCII
# ...
 5762.0000    40.4416  1276.3594  -999.2500      .7377      .7747      .8260   -72.0281    15.3581     -.1048    37.3939     2.3685
 5762.5000    43.2212  1282.0996  -999.2500      .7355      .7779      .8311   -71.7772    14.7440     -.1158    37.5770     2.3488
 5763.0000    44.3836  1288.4082  -999.2500      .7352      .7846      .8363   -71.5265    14.5064     -.1229    37.8352     2.3186
 5763.5000    43.2094  1281.6816  -999.2500      .7435      .7913      .8454   -71.2404    14.4625     -.1225    38.6218     2.3028
 5764.0000    38.6222  1270.7246  -999.2500      .7578      .7981      .8551   -70.9508    14.4340     -.1062    40.9885     2.2975
 5764.5000    37.2250  1246.2324  -999.2500      .7722      .8095      .8650   -70.7209    14.3871     -.0894    44.2435     2.2939
 5765.0000    37.2971  1220.3223  -999.2500      .7881      .8232      .8747   -70.8011    14.2937     -.0805    46.5745     2.2966
 5765.5000    38.1436  1193.0195  -999.2500      .8056      .8371      .8843   -70.8813    14.2238     -.0818    48.7551     2.2986
 5766.0000    38.3606  1168.0293  -999.2500      .8234      .8505      .8941   -70.9615    14.2248     -.0849    50.3580     2.2839
 5766.5000    35.9823  1144.0605  -999.2500      .8417      .8617      .9038   -70.8903    14.2206     -.0668    51.2722     2.2487
 5767.0000    34.7084  1123.2539  -999.2500      .8594      .8731      .9064   -70.8020    14.1942     -.0320    51.3967     2.2295
 5767.5000    34.8095  1103.3906  -999.2500      .8752      .8846      .9090   -70.7139    14.1514     -.0101    51.4453     2.2168
 5768.0000    37.3320  1082.2852  -999.2500      .8913      .8959      .9120   -70.7634    14.1266     -.0159    51.8555     2.2113
 5768.5000    40.5397  1061.0664  -999.2500      .9078      .9071      .9183   -70.9004    14.1541     -.0232    52.0911     2.2133
 5769.0000    42.4776  1048.2988  -999.2500      .9245      .9184      .9245   -71.0045    14.3690     -.0110    51.2845     2.2383
 5769.5000    41.7794  1042.5664  -999.2500      .9219      .9282      .9326   -70.8232    14.5877      .0155    49.9330     2.2586
 5770.0000    39.7712  1044.0723  -999.2500      .9184      .9189      .9418   -70.6316    14.6605      .0197    49.4623     2.2764
 5770.5000    39.1525  1049.0137  -999.2500      .9149      .9096      .9445   -70.4192    14.7382      .0084    49.1630     2.2819
 5771.0000    39.6709  1050.0645  -999.2500      .9134      .9005      .9324   -70.2065    14.9278     -.0045    48.8876     2.2831
 5771.5000    41.4910  1047.2305  -999.2500      .9121      .9055      .9217   -70.2633    15.3383     -.0145    47.9125     2.2836
 5772.0000    42.3196  1047.0273  -999.2500      .9109      .9115      .9214   -70.4496    15.4972     -.0347    45.6209     2.2811
 5772.5000    40.8073  1047.7637  -999.2500      .9096      .9175      .9212   -70.6837    15.4537     -.0736    41.7068     2.2550
 5773.0000    37.8270  1048.2031  -999.2500      .9185      .9235      .9235   -70.9886    14.8239     -.1015    40.6447     2.2218
 5773.5000    35.8560  1047.1348  -999.2500      .9340      .9333      .9378   -71.2933    14.4439     -.0678    41.7623     2.2023
 5774.0000    35.4112  1036.4004  -999.2500      .9497      .9533      .9522   -71.0912    14.2316     -.0374    42.0947     2.2008
 5774.5000    34.0886  1021.5420  -999.2500      .9658      .9737      .9695   -70.6991    14.1352     -.0052    41.5319     2.2157
 5775.0000    32.5383   996.5908  -999.2500      .9801      .9936      .9946   -70.6241    14.0695      .0126    41.3212     2.2351
 5775.5000    32.6059   969.0381  -999.2500      .9898     1.0079     1.0202   -70.6298    13.9991      .0073    44.3692     2.2563
 5776.0000    34.1198   950.1152  -999.2500      .9995     1.0215     1.0318   -70.6354    13.9319     -.0198    46.6250     2.2708
 5776.5000    34.7096   948.9873  -999.2500     1.0018     1.0149     1.0246   -70.6410    13.8708     -.0246    47.3636     2.2747
 5777.0000    34.3892   964.0352  -999.2500      .9928     1.0083     1.0113   -70.8644    13.8259     -.0120    46.5037     2.2749
 5777.5000    34.6783   987.2822  -999.2500      .9840      .9994      .9922   -71.1335    13.7995      .0035    46.0706     2.2771
 5778.0000    34.1332  1009.6074  -999.2500      .9705      .9706      .9666   -71.4025    13.8048      .0169    46.5776     2.2819
 5778.5000    31.8427  1030.3906  -999.2500      .9517      .9426      .9416   -71.6039    13.8227      .0288    46.2985     2.2842
 5779.0000    31.2243  1049.9043  -999.2500      .9333      .9218      .9298   -71.7410    13.8359      .0375    44.0661     2.2894
 5779.5000    31.6866  1068.8945  -999.2500      .9152      .9139      .9217   -71.8779    13.8461      .0129    42.7971     2.2906
 5780.0000    34.9983  1088.7324  -999.2500      .8980      .9061      .9136   -71.7003    13.8530     -.0134    42.8480     2.2870
 5780.5000    38.1945  1102.3828  -999.2500      .8882      .9014      .9121   -71.4049    13.8598     -.0253    43.4655     2.2829
 5781.0000    37.9518  1110.6133  -999.2500      .8785      .9044      .9124   -71.1096    13.8757     -.0251    44.1622     2.2807
 5781.5000    36.8029  1113.8008  -999.2500      .8689      .9074      .9176   -70.8916    13.8949     -.0174    44.7562     2.2787
 5782.0000    35.6271  1113.1211  -999.2500      .8593      .9189      .9242   -70.7614    13.9081     -.0065    44.7178     2.2735
 5782.5000    35.1044  1108.7188  -999.2500      .8613      .9318      .9317   -71.0856    13.9195     -.0035    43.4514     2.2632
 5783.0000    35.5557  1104.7695  -999.2500      .8646      .9314      .9393   -71.3197    13.9111     -.0100    42.6431     2.2591
 5783.5000    36.5264  1100.4512  -999.2500      .8679      .9311      .9408   -71.7037    13.8821     -.0361    43.9700     2.2583
 5784.0000    37.2941  1095.7930  -999.2500      .8700      .9263      .9381   -72.0667    13.8129     -.0480    46.1063     2.2566
 5784.5000    35.0786  1087.6914  -999.2500      .8717      .9168      .9353   -72.2740    13.7400     -.0418    46.6891     2.2571
 5785.0000    33.5134  1082.9844  -999.2500      .8734      .9074      .9325   -72.3372    13.5988     -.0198    46.2782     2.2693
 5785.5000    32.9270  1112.2520  -999.2500      .8628      .8929      .9336   -72.2410    13.3878     -.0146    45.8297     2.2832
 5786.0000    33.8397  1150.6328  -999.2500      .8390      .8749      .9573   -72.1449    13.0944     -.0106    45.3715     2.2888
 5786.5000    35.3640  1194.3887  -999.2500      .8168      .8481      .9816   -72.2963    12.8010     -.0066    44.2559     2.2828
 5787.0000    36.8102  1242.5742  -999.2500      .7995      .8014      .9734   -72.4751    12.7278     -.0040    41.9619     2.2751
 5787.5000    37.6605  1280.0078  -999.2500      .7826      .7690      .9283   -72.6538    12.8050     -.0304    39.5267     2.2673
 5788.0000    37.7021  1298.6016  -999.2500      .7660      .7598      .8766   -72.5886    13.7934     -.0670    39.0675     2.2635
 5788.5000    37.1915  1303.0566  -999.2500      .7600      .7557      .8399   -72.4052    14.6534     -.0654    39.1010     2.2811
 5789.0000    35.6806  1304.2520  -999.2500      .7600      .7581      .8123   -72.2214    15.0262     -.0487    39.4239     2.3155
 5789.5000    33.9073  1303.1855  -999.2500      .7599      .7605      .8293   -72.0378    15.1026     -.0450    40.2961     2.3286
 5790.0000    33.0169  1293.9844  -999.2500      .7598      .7666      .8529   -71.8811    14.9637     -.0854    41.2288     2.3130
 5790.5000    34.9151  1277.1211  -999.2500      .7682      .7825      .8761   -71.7345    14.3259     -.1380    42.1898     2.2984
 5791.0000    36.1146  1222.3633  -999.2500      .7923      .7995      .8824   -71.5880    14.0800     -.1709    43.1409     2.3092
 5791.5000    35.3476  1158.6465  -999.2500      .8171      .8362      .8888   -71.4211    13.9920     -.1818    43.8093     2.3139
 5792.0000    34.9054  1097.9648  -999.2500      .8596      .8747      .9040   -71.2224    13.9461     -.1729    44.0248     2.2892
