~VERSION INFORMATION
VERS.                                                 2.0:   CWLS Log ASCII Standard-VERSION 2.0
WRAP.                                                  NO:   One line per depth step
~Well Information Block
STRT.F                                          1471.0000:   Top Depth
STOP.F                                         12100.0000:   Bottom Depth
STEP.F                                             .50000:   Depth Increment
NULL.                                            -999.250:   Null Value
FLD .                                        MU BLK A 175:   Field Name
WELL.                           OCSG03931   001 ST00 BP00:   NAME
API .                                        427124004600:   WELL API
EDF .F                                            85.0000:   ELEV DRILL FLOOR
COMP.                                GULF OIL CORPORATION:   OPERATOR
BN  .                                               A 175:   BLOCK
CTRY.                                                 USA:   COUNTRY NAME
CNTY.                                            M I E AD:   COUNTY NAME
EKB .F                                            86.0000:   ELEV KELLY BUSHING
TDD .F                                          12102.000:   FINAL TD DRILLER
STAT.                                               TEXAS:   STATE NAME
UWI .                                        427124004600:   WELL API
DICO.               IHS : Digitizing Company
~PARAMETER INFORMATION (zones)
#MNEM.UNIT                       Value     Description
#=========                       =====     ===========
#ZONATION                          CNL:   ZONATION NAME
#ZONE                            RUN_2:   ZONE NAME
TOP .                       3452.0000:   TOP DEPTH
BOT .                      12100.5000:   BOTTOM DEPTH
RUN .                               2:   RUN NUMBER
LCCD.                             440:   LOGGING CONTRACTOR
SRVC.                    Schlumberger:   LOGGING CONT NAME
DICO.          QC Data Collectors Ltd:   DIG COMPANY NAME
LDAT.                      06/16/1981:   DATE LOGGED
ELD .F                        86.0000:   LOG DATUM ELEVATION
TDD .F                      7546.0000:   TOTAL DEPTH DRILLER
TDL .F                      7545.0000:   TOTAL DEPTH LOGGER
BOTL.F                     12100.0000:   BOTTOM DEPTH LOGGED
TOPL.F                      3504.0000:   TOP DEPTH LOGGED
CS1 .IN                        9.6250:   CASING SIZE 1
BS1 .IN                       12.2500:   BIT SIZE 1
DDB1.F                      7546.0000:   DEPTH DRILLED BIT 1
BHF .                              99:   FLUID CODE
DPT .                   Miscellaneous:   DRILLING FLUID TYPE
MUDD.                         14.0000:   FLUID DENSITY
MUDV.                         42.0000:   FLUID VISCOSITY
DFPH.                         11.0000:   FLUID PH
FL  .                          4.8000:   FLUID LOSS
RM  .OHMM                       .7300:   RM
RMT .DEGF                     74.0000:   RM TEMP
RMF .OHMM                       .4600:   RMF
RMFT.DEGF                     74.0000:   RMF TEMP
FSC .                               M:   RMF CODE
RMC .OHMM                      1.1200:   RMC
RMCT.DEGF                     74.0000:   RMC TEMP
CMC .                               M:   RMC CODE
TMAX.DEGF                    168.0000:   MAX REC TEMP
TIMC.                          7.0000:   TIME SINCE CIRCLN
~PARAMETER INFORMATION (zones)
#MNEM.UNIT                       Value     Description
#=========                       =====     ===========
#ZONATION                          DIL:   ZONATION NAME
#ZONE                            RUN_1:   ZONE NAME
TOP .                       1471.0000:   TOP DEPTH
BOT .                      12095.5000:   BOTTOM DEPTH
RUN .                               1:   RUN NUMBER
LCCD.                             440:   LOGGING CONTRACTOR
SRVC.                    Schlumberger:   LOGGING CONT NAME
DICO.          QC Data Collectors Ltd:   DIG COMPANY NAME
LDAT.                      05/25/1981:   DATE LOGGED
ELD .F                        86.0000:   LOG DATUM ELEVATION
TDD .F                      4590.0000:   TOTAL DEPTH DRILLER
TDL .F                      3529.0000:   TOTAL DEPTH LOGGER
BOTL.F                     12095.0000:   BOTTOM DEPTH LOGGED
TOPL.F                      1471.0000:   TOP DEPTH LOGGED
CS1 .IN                       20.0000:   CASING SIZE 1
BS1 .IN                       12.2500:   BIT SIZE 1
DDB1.F                      4590.0000:   DEPTH DRILLED BIT 1
BHF .                              99:   FLUID CODE
DPT .                   Miscellaneous:   DRILLING FLUID TYPE
MUDD.                         11.4000:   FLUID DENSITY
MUDV.                         44.0000:   FLUID VISCOSITY
DFPH.                         11.0000:   FLUID PH
FL  .                         10.0000:   FLUID LOSS
RM  .OHMM                       .5200:   RM
RMT .DEGF                     75.0000:   RM TEMP
RMF .OHMM                       .3500:   RMF
RMFT.DEGF                     75.0000:   RMF TEMP
FSC .                               M:   RMF CODE
RMC .OHMM                       .8800:   RMC
RMCT.DEGF                     75.0000:   RMC TEMP
CMC .                               M:   RMC CODE
TMAX.DEGF                    125.0000:   MAX REC TEMP
TIMC.                         14.0000:   TIME SINCE CIRCLN
~PARAMETER INFORMATION (zones)
#MNEM.UNIT                       Value     Description
#=========                       =====     ===========
#ZONATION                          FDC:   ZONATION NAME
#ZONE                            RUN_4:   ZONE NAME
TOP .                      11080.0000:   TOP DEPTH
BOT .                      12095.0000:   BOTTOM DEPTH
RUN .                               4:   RUN NUMBER
LCCD.                             440:   LOGGING CONTRACTOR
SRVC.                    Schlumberger:   LOGGING CONT NAME
DICO.          QC Data Collectors Ltd:   DIG COMPANY NAME
LDAT.                      07/06/1981:   DATE LOGGED
ELD .F                        86.0000:   LOG DATUM ELEVATION
TDD .F                     12100.0000:   TOTAL DEPTH DRILLER
TDL .F                     12102.0000:   TOTAL DEPTH LOGGER
BOTL.F                     12095.0000:   BOTTOM DEPTH LOGGED
TOPL.F                     11080.0000:   TOP DEPTH LOGGED
CS1 .IN                        9.6250:   CASING SIZE 1
BS1 .IN                        8.5000:   BIT SIZE 1
DDB1.F                     12100.0000:   DEPTH DRILLED BIT 1
BHF .                              99:   FLUID CODE
DPT .                   Miscellaneous:   DRILLING FLUID TYPE
MUDD.                         15.7000:   FLUID DENSITY
MUDV.                         50.0000:   FLUID VISCOSITY
DFPH.                         11.0000:   FLUID PH
FL  .                          4.2000:   FLUID LOSS
RM  .OHMM                      1.2000:   RM
RMT .DEGF                     90.0000:   RM TEMP
RMF .OHMM                       .6600:   RMF
RMFT.DEGF                     78.0000:   RMF TEMP
FSC .                               M:   RMF CODE
RMC .OHMM                      1.4200:   RMC
RMCT.DEGF                     78.0000:   RMC TEMP
CMC .                               M:   RMC CODE
TMAX.DEGF                    277.0000:   MAX REC TEMP
TIMC.                         20.0000:   TIME SINCE CIRCLN
~PARAMETER INFORMATION (zones)
#MNEM.UNIT                       Value     Description
#=========                       =====     ===========
#ZONATION                          FDC:   ZONATION NAME
#ZONE                            RUN_2:   ZONE NAME
TOP .                       3504.0000:   TOP DEPTH
BOT .                      12100.5000:   BOTTOM DEPTH
RUN .                               2:   RUN NUMBER
LCCD.                             440:   LOGGING CONTRACTOR
SRVC.                    Schlumberger:   LOGGING CONT NAME
DICO.          QC Data Collectors Ltd:   DIG COMPANY NAME
LDAT.                      06/16/1981:   DATE LOGGED
ELD .F                        86.0000:   LOG DATUM ELEVATION
TDD .F                      7546.0000:   TOTAL DEPTH DRILLER
TDL .F                      7545.0000:   TOTAL DEPTH LOGGER
BOTL.F                     12100.0000:   BOTTOM DEPTH LOGGED
TOPL.F                      3504.0000:   TOP DEPTH LOGGED
CS1 .IN                        9.6250:   CASING SIZE 1
BS1 .IN                       12.2500:   BIT SIZE 1
DDB1.F                      7546.0000:   DEPTH DRILLED BIT 1
BHF .                              99:   FLUID CODE
DPT .                   Miscellaneous:   DRILLING FLUID TYPE
MUDD.                         14.0000:   FLUID DENSITY
MUDV.                         42.0000:   FLUID VISCOSITY
DFPH.                         11.0000:   FLUID PH
FL  .                          4.8000:   FLUID LOSS
RM  .OHMM                       .7300:   RM
RMT .DEGF                     74.0000:   RM TEMP
RMF .OHMM                       .4600:   RMF
RMFT.DEGF                     74.0000:   RMF TEMP
FSC .                               M:   RMF CODE
RMC .OHMM                      1.1200:   RMC
RMCT.DEGF                     74.0000:   RMC TEMP
CMC .                               M:   RMC CODE
TMAX.DEGF                    168.0000:   MAX REC TEMP
TIMC.                          7.0000:   TIME SINCE CIRCLN
~Curve Information Block
#MNEM.UNIT                                        API CODE    No Description
#=========                                        ========    == ===========
DEPT.F                                       00 001 00 00:     1  DEPTH
CALI.IN                                                  :     2  Caliper
NPHI.%                                                   :     3  Neutron Porosity
CILD.MMHO                                                :     4  Deep Induction Conductivity
DT.US/F                                                  :     5  Sonic Transit Time
GR.GAPI                                                  :     6  Gamma Ray
ILD.OHMM                                                 :     7  Deep Induction Resistivity
SFL.OHMM                                                 :     8  Medium Resistivity
SP.MV                                                    :     9  Spontaneous Potential
DPHI.%                                                   :    10  Porosity
~ASCII
# ...
 3588.0000    20.5625    56.1750  1863.6797   217.2734    39.0723      .5179      .5683   -97.8602    39.2108
 3588.5000    21.2428    55.5543  1824.0898   210.8105    38.7905      .5282      .5646   -98.1323    36.9551
 3589.0000    21.1047    54.9078  1799.0313   209.0588    39.7587      .5407      .5777   -98.1080    36.4824
 3589.5000    20.6864    54.7411  1780.7305   209.9148    40.7012      .5493      .6115   -98.1573    38.0564
 3590.0000    20.2910    54.5612  1762.4297   204.7546    41.2321      .5566      .6397   -98.4463    38.9523
 3590.5000    20.3649    52.3331  1744.1289   197.8699    41.5836      .5604      .6594   -98.6885    40.0808
 3591.0000    20.8176    49.5013  1735.9844   189.9507    42.3119      .5643      .6519   -98.7095    38.2817
 3591.5000    20.9878    47.8900  1728.8945   188.4934    43.2483      .5682      .6253   -98.6975    36.6537
 3592.0000    21.1978    47.9465  1731.3281   188.1423    43.4201      .5722      .6060   -98.9595    36.0038
 3592.5000    21.4980    50.2369  1734.4668   188.1101    42.6242      .5768      .5884   -99.0338    36.6671
 3593.0000    21.1804    53.2919  1737.6074   188.1504    42.9494      .5850      .5792   -97.5363    37.0275
 3593.5000    20.9093    54.9431  1742.1836   188.2429    44.0980      .5915      .5813   -95.9659    36.6157
 3594.0000    20.5080    54.1309  1747.1445   188.2251    45.9195      .5899      .5988   -95.4889    35.7268
 3594.5000    19.8011    51.5782  1720.6387   187.5442    44.3058      .5895      .6171   -95.9899    35.4262
 3595.0000    19.4697    48.6135  1687.6230   185.9077    41.9164      .5901      .6208   -96.9984    35.5245
 3595.5000    19.5045    47.3209  1654.6309   185.8801    40.7966      .6028      .6154   -97.8354    35.6535
 3596.0000    19.5821    47.9967  1630.5840   182.3745    40.4020      .6130      .6140   -98.4865    36.0991
 3596.5000    19.5299    50.0729  1608.4902   175.5830    41.6138      .6201      .6267   -98.9746    36.6024
 3597.0000    19.3503    51.1583  1592.9590   166.0457    43.2575      .6224      .6386   -99.3013    36.1486
 3597.5000    19.0399    49.5958  1610.6895   164.4392    44.7728      .6149      .6353   -99.2537    35.0864
 3598.0000    18.8434    47.1909  1628.4102   165.2808    46.6383      .6075      .6383   -99.1975    34.4556
 3598.5000    18.8770    45.5762  1646.1289   163.8035    47.5549      .6000      .6379   -99.5385    34.6835
 3599.0000    19.2585    45.7365  1668.7051   161.7549    47.3437      .5918      .6305   -98.6671    35.2402
 3599.5000    19.7578    46.6960  1693.1328   162.9294    46.2801      .5838      .6170   -96.7954    35.1514
 3600.0000    20.2578    48.1821  1717.5508   171.5278    44.9225      .5758      .6004   -76.0117    34.7784
 3600.5000    20.7293    50.0914  1741.9805   181.9873    44.0848      .5687      .5906   -74.9873    34.2671
 3601.0000    20.4657    50.7706  1766.4082   188.0886    43.8623      .5618      .5883   -87.4641    34.0311
 3601.5000    19.6694    50.9844  1786.9707   189.5596    44.0613      .5550      .5826   -96.1854    33.7829
 3602.0000    19.0466    50.2698  1797.2578   188.0850    41.2483      .5486      .5736   -95.8945    33.5302
 3602.5000    18.3508    49.4060  1807.5449   187.4185    39.0881      .5424      .5767   -96.3102    33.5955
 3603.0000    18.0925    48.6796  1817.8301   188.9968    38.0839      .5404      .5864   -97.1322    34.1281
 3603.5000    17.9458    48.5536  1828.1172   194.2659    38.5035      .5384      .5907   -97.7377    34.7219
 3604.0000    17.8234    49.1962  1837.9688   203.2002    39.1083      .5398      .5940   -98.0372    35.2371
 3604.5000    17.8958    50.9829  1835.4609   207.8083    38.7802      .5431      .5854   -98.1208    35.6965
 3605.0000    18.1382    52.5662  1832.9531   206.6340    37.3559      .5482      .5746   -98.3120    36.0758
 3605.5000    18.2561    53.2017  1830.4434   201.5525    36.1469      .5552      .5679   -98.6698    36.4254
 3606.0000    18.2502    53.1700  1821.8281   191.2280    35.4664      .5604      .5760   -99.1011    36.6909
 3606.5000    18.1866    52.0990  1812.6172   187.1643    35.4750      .5616      .5852   -98.1610    36.8497
 3607.0000    18.3405    51.3109  1803.4043   186.7991    35.9026      .5627      .5921   -96.5021    36.9155
 3607.5000    18.7143    51.2518  1794.1934   186.7871    36.9977      .5634      .5942   -95.4874    36.4971
 3608.0000    19.0488    51.7587  1784.9805   186.2222    38.7629      .5638      .5955   -95.5791    35.2984
 3608.5000    19.5534    51.4896  1778.0020   187.2476    40.5179      .5642      .5900   -95.9635    33.4585
 3609.0000    20.3177    49.8311  1773.9766   195.6536    41.5851      .5661      .5845   -96.4045    32.5844
 3609.5000    21.0427    49.0988  1769.9492   202.9795    40.8339      .5681      .5806   -96.2988    32.9426
 3610.0000    21.1421    49.3329  1765.9238   200.2383    39.9561      .5702      .5767   -96.0201    33.5878
 3610.5000    21.3138    49.8096  1761.8984   183.9290    39.5999      .5727      .5768   -96.5938    34.3375
 3611.0000    21.4515    49.4403  1757.8730   173.8545    39.6091      .5752      .5795   -97.3724    34.1846
 3611.5000    21.6362    49.2195  1752.5469   173.8472    40.4249      .5761      .5871   -98.1519    33.2516
 3612.0000    21.6386    50.6786  1747.1758   175.9656    41.4598      .5764      .5960   -98.5112    32.2782
 3612.5000    21.6272    55.0306  1741.8477   175.8516    42.5894      .5768      .6061   -97.6200    31.3073
 3613.0000    21.6086    57.0714  1737.8184   174.5969    42.8461      .5715      .6065   -96.8053    31.3941
 3613.5000    21.5023    57.2642  1735.9492   181.3105    41.9666      .5650      .5979   -96.0344    32.6010
 3614.0000    20.9233    54.7691  1758.9199   191.0247    40.6652      .5565      .5896   -95.4113    33.5789
 3614.5000    20.2194    53.4451  1782.4727   194.2009    39.6199      .5457      .5817   -94.8458    34.7274
 3615.0000    19.1144    53.0322  1809.2734   191.8054    39.9919      .5355      .5738   -94.7213    34.0826
 3615.5000    18.0517    53.0647  1836.0879   189.9446    40.3470      .5268      .5709   -94.7175    32.7081
 3616.0000    16.9408    53.5175  1862.9023   189.1157    40.5413      .5183      .5684   -94.9504    32.3075
 3616.5000    16.0671    54.0175  1889.7539   190.3167    40.3541      .5126      .5627   -95.1322    33.2162
 3617.0000    17.0755    54.2175  1916.6406   185.2041    40.0605      .5150      .5564   -95.9825    34.3699
 3617.5000    19.5662    53.9633  1943.7266   172.1555    39.8004      .5217      .5475   -97.1506    35.1680
 3618.0000    20.9403    53.7430  1928.4297   164.9939    39.6978      .5328      .5443   -97.7987    35.2238
 3618.5000    20.9742    54.6036  1795.2734   160.1379    39.5148      .5581      .5532   -97.3639    34.1055
 3619.0000    20.9307    55.5932  1693.8496   157.3320    39.2018      .5910      .5822   -96.7194    33.1435
 3619.5000    20.8618    54.4884  1617.7832   155.3196    38.7336      .6247      .6223   -96.2395    33.5730
 3620.0000    21.0101    52.1750  1555.2578   161.8335    39.2667      .6566      .6690   -96.1116    35.4084
 3620.5000    21.2443    50.2546  1504.4961   173.4255    42.6811      .6725      .6987   -96.3856    36.5577
 3621.0000    21.5106    49.3425  1472.1465   181.8352    44.7642      .6832      .7096   -96.7310    35.5318
 3621.5000    21.6169    48.7336  1455.1699   183.5649    45.7410      .6871      .7031   -97.0164    34.2909
 3622.0000    21.5200    49.4887  1480.8711   182.4998    45.7901      .6795      .6904   -96.9286    33.6924
 3622.5000    21.4558    50.6646  1518.8301   179.3123    45.6383      .6641      .6735   -96.3718    33.4178
 3623.0000    21.5293    51.5646  1558.0996   175.1074    45.8843      .6507      .6523   -96.4250    32.6800
 3623.5000    21.6058    51.5328  1597.5430   169.8704    46.5561      .6374      .6318   -97.4299    30.6636
 3624.0000    21.6504    51.2494  1637.0098   167.5039    47.1896      .6241      .6160   -98.5067    28.7491
