~VERSION INFORMATION
VERS.                             2.0:   CWLS Log ASCII Standard-VERSION 2.0
WRAP.                              NO:   One line per depth step
~Well Information Block
STRT.F                      3993.0000:   Top Depth
STOP.F                     13285.0000:   Bottom Depth
STEP.F                         .50000:   Depth Increment
NULL.                        -999.250:   Null Value
FLD .                     MU BLK A 85:   Field Name
WELL.       OCSG03061  B004 ST00 BP00:   NAME
API .                    427124009200:   WELL API
EDF .F                       122.0000:   ELEV DRILL FLOOR
COMP.             TRANSCO EXPLORATION:   OPERATOR
BN  .                           A 859:   BLOCK
CTRY.                             USA:   COUNTRY NAME
CNTY.                        M I E AD:   COUNTY NAME
EKB .F                       123.0000:   ELEV KELLY BUSHING
TDD .F                          0.000:   FINAL TD DRILLER
STAT.                           TEXAS:   STATE NAME
UWI .                    427124009200:   WELL API
DICO.               IHS : Digitizing Company
~PARAMETER INFORMATION (zones)
#MNEM.UNIT                       Value     Description
#=========                       =====     ===========
#ZONATION                          CNL:   ZONATION NAME
#ZONE                            RUN_1:   ZONE NAME
TOP .                       3993.0000:   TOP DEPTH
BOT .                       9346.5000:   BOTTOM DEPTH
RUN .                               1:   RUN NUMBER
LCCD.                              20:   LOGGING CONTRACTOR
SRVC.                          Baroil:   LOGGING CONT NAME
DICO.          QC Data Collectors Ltd:   DIG COMPANY NAME
LDAT.                      12/10/1986:   DATE LOGGED
ELD .F                       123.0000:   LOG DATUM ELEVATION
TDD .F                      9350.0000:   TOTAL DEPTH DRILLER
TDL .F                      9348.0000:   TOTAL DEPTH LOGGER
BOTL.F                      9346.0000:   BOTTOM DEPTH LOGGED
TOPL.F                      4002.0000:   TOP DEPTH LOGGED
CS1 .IN                       13.3750:   CASING SIZE 1
BS1 .IN                       12.2500:   BIT SIZE 1
DDB1.F                      9350.0000:   DEPTH DRILLED BIT 1
BHF .                              65:   FLUID CODE
DPT .                        INVERMUL:   DRILLING FLUID TYPE
MUDD.                         12.8000:   FLUID DENSITY
MUDV.                         40.0000:   FLUID VISCOSITY
DFPH.                          9.2000:   FLUID PH
FL  .                         11.0000:   FLUID LOSS
RM  .OHMM                       .3400:   RM
RMT .DEGF                     70.0000:   RM TEMP
RMF .OHMM                       .1600:   RMF
RMFT.DEGF                     70.0000:   RMF TEMP
FSC .                               M:   RMF CODE
RMC .OHMM                       .4200:   RMC
RMCT.DEGF                     70.0000:   RMC TEMP
CMC .                               C:   RMC CODE
TMAX.DEGF                    202.0000:   MAX REC TEMP
~PARAMETER INFORMATION (zones)
#MNEM.UNIT                       Value     Description
#=========                       =====     ===========
#ZONATION                          DIL:   ZONATION NAME
#ZONE                            RUN_1:   ZONE NAME
TOP .                       4002.0000:   TOP DEPTH
BOT .                       9336.5000:   BOTTOM DEPTH
RUN .                               1:   RUN NUMBER
LCCD.                              20:   LOGGING CONTRACTOR
SRVC.                          Baroil:   LOGGING CONT NAME
DICO.          QC Data Collectors Ltd:   DIG COMPANY NAME
LDAT.                      12/10/1986:   DATE LOGGED
ELD .F                       123.0000:   LOG DATUM ELEVATION
TDD .F                      9350.0000:   TOTAL DEPTH DRILLER
TDL .F                      9348.0000:   TOTAL DEPTH LOGGER
BOTL.F                      9346.0000:   BOTTOM DEPTH LOGGED
TOPL.F                      4002.0000:   TOP DEPTH LOGGED
CS1 .IN                       13.3750:   CASING SIZE 1
BS1 .IN                       12.2500:   BIT SIZE 1
DDB1.F                      9350.0000:   DEPTH DRILLED BIT 1
BHF .                              65:   FLUID CODE
DPT .                        INVERMUL:   DRILLING FLUID TYPE
MUDD.                         12.8000:   FLUID DENSITY
MUDV.                         40.0000:   FLUID VISCOSITY
DFPH.                          9.2000:   FLUID PH
FL  .                         11.0000:   FLUID LOSS
RM  .OHMM                       .3400:   RM
RMT .DEGF                     70.0000:   RM TEMP
RMF .OHMM                       .1600:   RMF
RMFT.DEGF                     70.0000:   RMF TEMP
FSC .                               M:   RMF CODE
RMC .OHMM                       .4200:   RMC
RMCT.DEGF                     70.0000:   RMC TEMP
CMC .                               C:   RMC CODE
TMAX.DEGF                    202.0000:   MAX REC TEMP
~PARAMETER INFORMATION (zones)
#MNEM.UNIT                       Value     Description
#=========                       =====     ===========
#ZONATION                          DIL:   ZONATION NAME
#ZONE                            RUN_3:   ZONE NAME
TOP .                       9336.0000:   TOP DEPTH
BOT .                      13285.5000:   BOTTOM DEPTH
RUN .                               3:   RUN NUMBER
LCCD.                              20:   LOGGING CONTRACTOR
SRVC.                          Baroil:   LOGGING CONT NAME
DICO.          QC Data Collectors Ltd:   DIG COMPANY NAME
LDAT.                      12/28/1986:   DATE LOGGED
ELD .F                       123.0000:   LOG DATUM ELEVATION
TDD .                            NULL:   TOTAL DEPTH DRILLER
TDL .                            NULL:   TOTAL DEPTH LOGGER
BOTL.F                     13291.0000:   BOTTOM DEPTH LOGGED
TOPL.F                     13285.0000:   TOP DEPTH LOGGED
CS1 .IN                        9.6250:   CASING SIZE 1
BS1 .IN                        8.5000:   BIT SIZE 1
DDB1.                            NULL:   DEPTH DRILLED BIT 1
BHF .                              35:   FLUID CODE
DPT .                       PETROFREE:   DRILLING FLUID TYPE
MUDD.                         14.9000:   FLUID DENSITY
MUDV.                         49.0000:   FLUID VISCOSITY
DFPH.                            NULL:   FLUID PH
FL  .                          6.0000:   FLUID LOSS
RM  .                            NULL:   RM
RMT .                            NULL:   RM TEMP
RMF .                            NULL:   RMF
RMFT.                            NULL:   RMF TEMP
FSC .                            NULL:   RMF CODE
RMC .                            NULL:   RMC
RMCT.                            NULL:   RMC TEMP
CMC .                            NULL:   RMC CODE
TMAX.DEGF                    274.0000:   MAX REC TEMP
~PARAMETER INFORMATION (zones)
#MNEM.UNIT                       Value     Description
#=========                       =====     ===========
#ZONATION                          FDC:   ZONATION NAME
#ZONE                            RUN_1:   ZONE NAME
TOP .                       3993.0000:   TOP DEPTH
BOT .                       9346.5000:   BOTTOM DEPTH
RUN .                               1:   RUN NUMBER
LCCD.                              20:   LOGGING CONTRACTOR
SRVC.                          Baroil:   LOGGING CONT NAME
DICO.          QC Data Collectors Ltd:   DIG COMPANY NAME
LDAT.                      12/10/1986:   DATE LOGGED
ELD .F                       123.0000:   LOG DATUM ELEVATION
TDD .F                      9350.0000:   TOTAL DEPTH DRILLER
TDL .F                      9348.0000:   TOTAL DEPTH LOGGER
BOTL.F                      9346.0000:   BOTTOM DEPTH LOGGED
TOPL.F                      4002.0000:   TOP DEPTH LOGGED
CS1 .IN                       13.3750:   CASING SIZE 1
BS1 .IN                       12.2500:   BIT SIZE 1
DDB1.F                      9350.0000:   DEPTH DRILLED BIT 1
BHF .                              65:   FLUID CODE
DPT .                        INVERMUL:   DRILLING FLUID TYPE
MUDD.                         12.8000:   FLUID DENSITY
MUDV.                         40.0000:   FLUID VISCOSITY
DFPH.                          9.2000:   FLUID PH
FL  .                         11.0000:   FLUID LOSS
RM  .OHMM                       .3400:   RM
RMT .DEGF                     70.0000:   RM TEMP
RMF .OHMM                       .1600:   RMF
RMFT.DEGF                     70.0000:   RMF TEMP
FSC .                               M:   RMF CODE
RMC .OHMM                       .4200:   RMC
RMCT.DEGF                     70.0000:   RMC TEMP
CMC .                               C:   RMC CODE
TMAX.DEGF                    202.0000:   MAX REC TEMP
~Curve Information Block
#MNEM.UNIT                    API CODE    No Description
#=========                    ========    == ===========
DEPT.F                   00 001 00 00:     1  DEPTH
NPHI.%                               :     2  Neutron Porosity
CILD.MMHO                            :     3  Deep Induction Conductivity
GR.GAPI                              :     4  Gamma Ray
ILD.OHMM                             :     5  Deep Induction Resistivity
ILM.OHMM                             :     6  Medium Induction Resistivity
RFOC.OHMM                            :     7  Medium Resistivity
SP.MV                                :     8  Spontaneous Potential
CALI.IN                              :     9  Caliper
DRHO.G/C3                            :    10  Bulk Density Correction
GRD.GAPI                             :    11  Gamma Ray
RHOB.G/C3                            :    12  Bulk Density
~ASCII
# ...
 4359.0000    36.3358  1171.7246  -999.2500      .8193      .8139      .8806   -67.3389    14.0855     -.0601    47.4347     2.2946
 4359.5000    36.0937  1178.8203  -999.2500      .8205      .8145      .8788   -67.7771    14.0895     -.0558    47.0649     2.2980
 4360.0000    36.0244  1192.2441  -999.2500      .8161      .8148      .8816   -68.0629    14.0932     -.0437    47.2212     2.2967
 4360.5000    35.3194  1222.0195  -999.2500      .8071      .8151      .8968   -68.1500    14.0958     -.0270    48.1456     2.2971
 4361.0000    33.9541  1253.7090  -999.2500      .7894      .8144      .9039   -68.1693    14.0984     -.0386    48.6569     2.2978
 4361.5000    33.1556  1272.3848  -999.2500      .7680      .8084      .8911   -68.0822    14.0996     -.0641    48.3569     2.2877
 4362.0000    34.0016  1287.0859  -999.2500      .7516      .8003      .8764   -67.8479    14.0977     -.0794    48.2690     2.2628
 4362.5000    36.9052  1301.9629  -999.2500      .7361      .7925      .8533   -67.5283    14.0959     -.0624    48.8447     2.2479
 4363.0000    37.7613  1309.4473  -999.2500      .7276      .7892      .8400   -67.3622    14.0916     -.0396    50.1450     2.2502
 4363.5000    36.5838  1312.0117  -999.2500      .7226      .7879      .8386   -67.4266    14.0868     -.0354    50.8118     2.2526
 4364.0000    34.1107  1311.9258  -999.2500      .7201      .7909      .8410   -67.6562    14.0860     -.0508    50.9407     2.2526
 4364.5000    33.3461  1313.8730  -999.2500      .7196      .7932      .8475   -67.8129    14.0984     -.0653    50.8477     2.2557
 4365.0000    33.3598  1318.4551  -999.2500      .7230      .7947      .8575   -67.9275    14.1089     -.0770    51.4359     2.2650
 4365.5000    33.3989  1318.3125  -999.2500      .7262      .7960      .8704   -68.0464    14.1162     -.0866    51.6976     2.2711
 4366.0000    33.1122  1317.1758  -999.2500      .7288      .7931      .8730   -68.1683    14.1234     -.0933    50.1561     2.2720
 4366.5000    32.5891  1308.4824  -999.2500      .7317      .7899      .8727   -68.2231    14.1289     -.0886    48.9521     2.2687
 4367.0000    32.8516  1300.3789  -999.2500      .7347      .7853      .8670   -68.2214    14.1335     -.0663    49.3625     2.2617
 4367.5000    35.0930  1297.9863  -999.2500      .7367      .7775      .8630   -68.2117    14.1372     -.0422    51.0928     2.2468
 4368.0000    39.5149  1294.1621  -999.2500      .7401      .7748      .8592   -68.1294    14.1385     -.0278    51.5575     2.2304
 4368.5000    40.5313  1289.5020  -999.2500      .7445      .7899      .8555   -67.9822    14.1397     -.0315    52.0289     2.2217
 4369.0000    39.1370  1284.6465  -999.2500      .7503      .8054      .8553   -67.7732    14.1385     -.0486    52.7330     2.2273
 4369.5000    38.2908  1279.5488  -999.2500      .7547      .8062      .8594   -67.7042    14.1362     -.0624    54.2252     2.2415
 4370.0000    37.6454  1274.4512  -999.2500      .7580      .8021      .8737   -67.7120    14.1302     -.0694    55.6445     2.2526
 4370.5000    35.9497  1268.2500  -999.2500      .7594      .7966      .8829   -67.7672    14.1238     -.0733    54.9916     2.2649
 4371.0000    35.6661  1260.8242  -999.2500      .7630      .7936      .8776   -67.8889    14.1498     -.0820    50.7707     2.2848
 4371.5000    36.5641  1259.0195  -999.2500      .7674      .7898      .8687   -68.0697    14.1345     -.1053    45.6118     2.3170
 4372.0000    36.7696  1260.0410  -999.2500      .7707      .7911      .8554   -68.2095    14.0141     -.1425    43.6270     2.3323
 4372.5000    36.5789  1275.1914  -999.2500      .7585      .7880      .8399   -68.2177    13.9225     -.1551    44.6911     2.3022
 4373.0000    36.3189  1292.6250  -999.2500      .7468      .7857      .8303   -67.8893    13.8903     -.1110    48.4282     2.2538
 4373.5000    36.1071  1311.6973  -999.2500      .7384      .7821      .8278   -67.4254    13.8591     -.0827    50.3443     2.2289
 4374.0000    36.3224  1318.8398  -999.2500      .7326      .7823      .8295   -67.0688    13.8273     -.0797    50.6368     2.2225
 4374.5000    37.4524  1321.3828  -999.2500      .7340      .7929      .8370   -66.7793    13.7948     -.0840    50.3806     2.2271
 4375.0000    38.2335  1318.7422  -999.2500      .7371      .8027      .8518   -66.8008    13.7556     -.0768    50.5276     2.2359
 4375.5000    38.6965  1314.9883  -999.2500      .7427      .8126      .8718   -66.9093    13.7301     -.0675    51.7500     2.2418
 4376.0000    38.0493  1305.3594  -999.2500      .7484      .8139      .8844   -67.0219    13.7623     -.0692    52.1916     2.2439
 4376.5000    36.6566  1296.7344  -999.2500      .7536      .8103      .8823   -67.1207    13.7830     -.0666    51.7549     2.2439
 4377.0000    35.5073  1289.3086  -999.2500      .7580      .8065      .8759   -67.0594    13.7729     -.0618    51.3131     2.2449
 4377.5000    38.0998  1279.7969  -999.2500      .7626      .8001      .8678   -67.0487    13.7337     -.0634    51.8241     2.2451
 4378.0000    40.0056  1269.2734  -999.2500      .7696      .7936      .8628   -67.1172    13.6959     -.0769    52.2067     2.2427
 4378.5000    40.6575  1261.6523  -999.2500      .7736      .7973      .8598   -67.2323    13.6798     -.0942    51.9802     2.2367
 4379.0000    41.0146  1256.9121  -999.2500      .7721      .8111      .8546   -67.3550    13.6772     -.1090    52.2850     2.2353
 4379.5000    41.2481  1253.1777  -999.2500      .7726      .8275      .8480   -67.4222    13.6861     -.1273    53.0624     2.2379
 4380.0000    38.6923  1247.6250  -999.2500      .7756      .8427      .8630   -67.3837    13.6950     -.1446    52.6812     2.2397
 4380.5000    34.0179  1233.3691  -999.2500      .7821      .8577      .8899   -67.2947    13.7013     -.1407    51.3347     2.2415
 4381.0000    32.4054  1215.3398  -999.2500      .7898      .8659      .9190   -67.1594    13.7072     -.1314    50.5637     2.2462
 4381.5000    31.4993  1190.1328  -999.2500      .8017      .8718      .9233   -66.9484    13.7115     -.1411    51.2452     2.2498
 4382.0000    31.5175  1163.3203  -999.2500      .8169      .8747      .9187   -66.8291    13.7112     -.1443    52.9142     2.2467
 4382.5000    34.5079  1157.2988  -999.2500      .8319      .8697      .9137   -66.7319    13.7110     -.1385    53.0712     2.2452
 4383.0000    38.4814  1171.4336  -999.2500      .8355      .8578      .9146   -66.7971    13.7116     -.1296    52.3036     2.2477
 4383.5000    37.1079  1199.0977  -999.2500      .8220      .8432      .9245   -66.9990    13.7127     -.1113    51.0139     2.2418
 4384.0000    36.1465  1221.9961  -999.2500      .8045      .8299      .9275   -67.3724    13.7139     -.0886    50.4989     2.2321
 4384.5000    39.9901  1248.8906  -999.2500      .7902      .8183      .9188   -67.7642    13.7140     -.0728    49.9148     2.2303
 4385.0000    42.6984  1269.6289  -999.2500      .7764      .8117      .9055   -67.6821    13.7137     -.0671    50.0110     2.2346
 4385.5000    42.5217  1282.5723  -999.2500      .7623      .8091      .8894   -67.2623    13.7139     -.0780    51.0027     2.2379
 4386.0000    38.6388  1286.6328  -999.2500      .7540      .8092      .8796   -66.9785    13.7186     -.0965    52.0240     2.2351
 4386.5000    36.8191  1287.9238  -999.2500      .7511      .8129      .8800   -66.9688    13.7233     -.0986    52.2218     2.2281
 4387.0000    36.2863  1287.2852  -999.2500      .7564      .8211      .8891   -67.0277    13.7247     -.0851    52.3057     2.2211
 4387.5000    36.3640  1269.2305  -999.2500      .7695      .8320      .8969   -67.1290    13.7244     -.0649    52.6445     2.2176
 4388.0000    36.3993  1239.3301  -999.2500      .7851      .8478      .8985   -67.2253    13.7221     -.0516    52.2764     2.2189
 4388.5000    35.8907  1202.8984  -999.2500      .8013      .8685      .8942   -67.3508    13.7184     -.0547    49.7093     2.2290
 4389.0000    35.8766  1165.1504  -999.2500      .8179      .8755      .8974   -67.5200    13.7115     -.0660    45.9882     2.2481
