~VERSION INFORMATION
VERS.                             2.0:   CWLS Log ASCII Standard-VERSION 2.0
WRAP.                              NO:   One line per depth step
~Well Information Block
STRT.F                      3993.0000:   Top Depth
STOP.F                     13285.0000:   Bottom Depth
STEP.F                         .50000:   Depth Increment
NULL.                        -999.250:   Null Value
FLD .                     MU BLK A 85:   Field Name
WELL.       OCSG03061  B004 ST00 BP00:   NAME
API .                    427124009200:   WELL API
EDF .F                       122.0000:   ELEV DRILL FLOOR
COMP.             TRANSCO EXPLORATION:   OPERATOR
BN  .                           A 859:   BLOCK
CTRY.                             USA:   COUNTRY NAME
CNTY.                        M I E AD:   COUNTY NAME
EKB .F                       123.0000:   ELEV KELLY BUSHING
TDD .F                          0.000:   FINAL TD DRILLER
STAT.                           TEXAS:   STATE NAME
UWI .                    427124009200:   WELL API
DICO.               IHS : Digitizing Company
~PARAMETER INFORMATION (zones)
#MNEM.UNIT                       Value     Description
#=========                       =====     ===========
#ZONATION                          CNL:   ZONATION NAME
#ZONE                            RUN_1:   ZONE NAME
TOP .                       3993.0000:   TOP DEPTH
BOT .                       9346.5000:   BOTTOM DEPTH
RUN .                               1:   RUN NUMBER
LCCD.                              20:   LOGGING CONTRACTOR
SRVC.                          Baroil:   LOGGING CONT NAME
DICO.          QC Data Collectors Ltd:   DIG COMPANY NAME
LDAT.                      12/10/1986:   DATE LOGGED
ELD .F                       123.0000:   LOG DATUM ELEVATION
TDD .F                      9350.0000:   TOTAL DEPTH DRILLER
TDL .F                      9348.0000:   TOTAL DEPTH LOGGER
BOTL.F                      9346.0000:   BOTTOM DEPTH LOGGED
TOPL.F                      4002.0000:   TOP DEPTH LOGGED
CS1 .IN                       13.3750:   CASING SIZE 1
BS1 .IN                       12.2500:   BIT SIZE 1
DDB1.F                      9350.0000:   DEPTH DRILLED BIT 1
BHF .                              65:   FLUID CODE
DPT .                        INVERMUL:   DRILLING FLUID TYPE
MUDD.                         12.8000:   FLUID DENSITY
MUDV.                         40.0000:   FLUID VISCOSITY
DFPH.                          9.2000:   FLUID PH
FL  .                         11.0000:   FLUID LOSS
RM  .OHMM                       .3400:   RM
RMT .DEGF                     70.0000:   RM TEMP
RMF .OHMM                       .1600:   RMF
RMFT.DEGF                     70.0000:   RMF TEMP
FSC .                               M:   RMF CODE
RMC .OHMM                       .4200:   RMC
RMCT.DEGF                     70.0000:   RMC TEMP
CMC .                               C:   RMC CODE
TMAX.DEGF                    202.0000:   MAX REC TEMP
~PARAMETER INFORMATION (zones)
#MNEM.UNIT                       Value     Description
#=========                       =====     ===========
#ZONATION                          DIL:   ZONATION NAME
#ZONE                            RUN_1:   ZONE NAME
TOP .                       4002.0000:   TOP DEPTH
BOT .                       9336.5000:   BOTTOM DEPTH
RUN .                               1:   RUN NUMBER
LCCD.                              20:   LOGGING CONTRACTOR
SRVC.                          Baroil:   LOGGING CONT NAME
DICO.          QC Data Collectors Ltd:   DIG COMPANY NAME
LDAT.                      12/10/1986:   DATE LOGGED
ELD .F                       123.0000:   LOG DATUM ELEVATION
TDD .F                      9350.0000:   TOTAL DEPTH DRILLER
TDL .F                      9348.0000:   TOTAL DEPTH LOGGER
BOTL.F                      9346.0000:   BOTTOM DEPTH LOGGED
TOPL.F                      4002.0000:   TOP DEPTH LOGGED
CS1 .IN                       13.3750:   CASING SIZE 1
BS1 .IN                       12.2500:   BIT SIZE 1
DDB1.F                      9350.0000:   DEPTH DRILLED BIT 1
BHF .                              65:   FLUID CODE
DPT .                        INVERMUL:   DRILLING FLUID TYPE
MUDD.                         12.8000:   FLUID DENSITY
MUDV.                         40.0000:   FLUID VISCOSITY
DFPH.                          9.2000:   FLUID PH
FL  .                         11.0000:   FLUID LOSS
RM  .OHMM                       .3400:   RM
RMT .DEGF                     70.0000:   RM TEMP
RMF .OHMM                       .1600:   RMF
RMFT.DEGF                     70.0000:   RMF TEMP
FSC .                               M:   RMF CODE
RMC .OHMM                       .4200:   RMC
RMCT.DEGF                     70.0000:   RMC TEMP
CMC .                               C:   RMC CODE
TMAX.DEGF                    202.0000:   MAX REC TEMP
~PARAMETER INFORMATION (zones)
#MNEM.UNIT                       Value     Description
#=========                       =====     ===========
#ZONATION                          DIL:   ZONATION NAME
#ZONE                            RUN_3:   ZONE NAME
TOP .                       9336.0000:   TOP DEPTH
BOT .                      13285.5000:   BOTTOM DEPTH
RUN .                               3:   RUN NUMBER
LCCD.                              20:   LOGGING CONTRACTOR
SRVC.                          Baroil:   LOGGING CONT NAME
DICO.          QC Data Collectors Ltd:   DIG COMPANY NAME
LDAT.                      12/28/1986:   DATE LOGGED
ELD .F                       123.0000:   LOG DATUM ELEVATION
TDD .                            NULL:   TOTAL DEPTH DRILLER
TDL .                            NULL:   TOTAL DEPTH LOGGER
BOTL.F                     13291.0000:   BOTTOM DEPTH LOGGED
TOPL.F                     13285.0000:   TOP DEPTH LOGGED
CS1 .IN                        9.6250:   CASING SIZE 1
BS1 .IN                        8.5000:   BIT SIZE 1
DDB1.                            NULL:   DEPTH DRILLED BIT 1
BHF .                              35:   FLUID CODE
DPT .                       PETROFREE:   DRILLING FLUID TYPE
MUDD.                         14.9000:   FLUID DENSITY
MUDV.                         49.0000:   FLUID VISCOSITY
DFPH.                            NULL:   FLUID PH
FL  .                          6.0000:   FLUID LOSS
RM  .                            NULL:   RM
RMT .                            NULL:   RM TEMP
RMF .                            NULL:   RMF
RMFT.                            NULL:   RMF TEMP
FSC .                            NULL:   RMF CODE
RMC .                            NULL:   RMC
RMCT.                            NULL:   RMC TEMP
CMC .                            NULL:   RMC CODE
TMAX.DEGF                    274.0000:   MAX REC TEMP
~PARAMETER INFORMATION (zones)
#MNEM.UNIT                       Value     Description
#=========                       =====     ===========
#ZONATION                          FDC:   ZONATION NAME
#ZONE                            RUN_1:   ZONE NAME
TOP .                       3993.0000:   TOP DEPTH
BOT .                       9346.5000:   BOTTOM DEPTH
RUN .                               1:   RUN NUMBER
LCCD.                              20:   LOGGING CONTRACTOR
SRVC.                          Baroil:   LOGGING CONT NAME
DICO.          QC Data Collectors Ltd:   DIG COMPANY NAME
LDAT.                      12/10/1986:   DATE LOGGED
ELD .F                       123.0000:   LOG DATUM ELEVATION
TDD .F                      9350.0000:   TOTAL DEPTH DRILLER
TDL .F                      9348.0000:   TOTAL DEPTH LOGGER
BOTL.F                      9346.0000:   BOTTOM DEPTH LOGGED
TOPL.F                      4002.0000:   TOP DEPTH LOGGED
CS1 .IN                       13.3750:   CASING SIZE 1
BS1 .IN                       12.2500:   BIT SIZE 1
DDB1.F                      9350.0000:   DEPTH DRILLED BIT 1
BHF .                              65:   FLUID CODE
DPT .                        INVERMUL:   DRILLING FLUID TYPE
MUDD.                         12.8000:   FLUID DENSITY
MUDV.                         40.0000:   FLUID VISCOSITY
DFPH.                          9.2000:   FLUID PH
FL  .                         11.0000:   FLUID LOSS
RM  .OHMM                       .3400:   RM
RMT .DEGF                     70.0000:   RM TEMP
RMF .OHMM                       .1600:   RMF
RMFT.DEGF                     70.0000:   RMF TEMP
FSC .                               M:   RMF CODE
RMC .OHMM                       .4200:   RMC
RMCT.DEGF                     70.0000:   RMC TEMP
CMC .                               C:   RMC CODE
TMAX.DEGF                    202.0000:   MAX REC TEMP
~Curve Information Block
#MNEM.UNIT                    API CODE    No Description
#=========                    ========    == ===========
DEPT.F                   00 001 00 00:     1  DEPTH
NPHI.%                               :     2  Neutron Porosity
CILD.MMHO                            :     3  Deep Induction Conductivity
GR.GAPI                              :     4  Gamma Ray
ILD.OHMM                             :     5  Deep Induction Resistivity
ILM.OHMM                             :     6  Medium Induction Resistivity
RFOC.OHMM                            :     7  Medium Resistivity
SP.MV                                :     8  Spontaneous Potential
CALI.IN                              :     9  Caliper
DRHO.G/C3                            :    10  Bulk Density Correction
GRD.GAPI                             :    11  Gamma Ray
RHOB.G/C3                            :    12  Bulk Density
~ASCII
 3993.0000    49.3903  -999.2500  -999.2500  -999.2500  -999.2500  -999.2500  -999.2500  -999.2500  -999.2500    21.5760  -999.2500
 3993.5000    49.2459  -999.2500  -999.2500  -999.2500  -999.2500  -999.2500  -999.2500  -999.2500  -999.2500    20.3542  -999.2500
 3994.0000    48.3609  -999.2500  -999.2500  -999.2500  -999.2500  -999.2500  -999.2500  -999.2500  -999.2500    20.8022  -999.2500
 3994.5000    47.1315  -999.2500  -999.2500  -999.2500  -999.2500  -999.2500  -999.2500  -999.2500  -999.2500    23.5285  -999.2500
 3995.0000    44.7549  -999.2500  -999.2500  -999.2500  -999.2500  -999.2500  -999.2500  -999.2500  -999.2500    25.7772  -999.2500
 3995.5000    43.3406  -999.2500  -999.2500  -999.2500  -999.2500  -999.2500  -999.2500  -999.2500  -999.2500    26.2309  -999.2500
 3996.0000    43.3284  -999.2500  -999.2500  -999.2500  -999.2500  -999.2500  -999.2500  -999.2500  -999.2500    25.3885  -999.2500
 3996.5000    45.5607  -999.2500  -999.2500  -999.2500  -999.2500  -999.2500  -999.2500  -999.2500  -999.2500    23.2175  -999.2500
 3997.0000    44.8203  -999.2500  -999.2500  -999.2500  -999.2500  -999.2500  -999.2500  -999.2500  -999.2500    21.5143  -999.2500
 3997.5000    42.9775  -999.2500  -999.2500  -999.2500  -999.2500  -999.2500  -999.2500  -999.2500  -999.2500    21.1512  -999.2500
 3998.0000    42.4675  -999.2500  -999.2500  -999.2500  -999.2500  -999.2500  -999.2500  -999.2500  -999.2500    22.4289  -999.2500
 3998.5000    43.2322  -999.2500  -999.2500  -999.2500  -999.2500  -999.2500  -999.2500  -999.2500  -999.2500    25.1848  -999.2500
 3999.0000    43.8692  -999.2500  -999.2500  -999.2500  -999.2500  -999.2500  -999.2500  -999.2500  -999.2500    26.4727  -999.2500
 3999.5000    44.3269  -999.2500  -999.2500  -999.2500  -999.2500  -999.2500  -999.2500  -999.2500  -999.2500    28.0740  -999.2500
 4000.0000    44.7701  -999.2500  -999.2500  -999.2500  -999.2500  -999.2500  -999.2500  -999.2500  -999.2500    31.6532  -999.2500
 4000.5000    44.7238  -999.2500  -999.2500  -999.2500  -999.2500  -999.2500  -999.2500  -999.2500  -999.2500    40.3912  -999.2500
 4001.0000    42.2485  -999.2500  -999.2500  -999.2500  -999.2500  -999.2500  -999.2500  -999.2500  -999.2500    43.7803  -999.2500
 4001.5000    40.0450  -999.2500  -999.2500  -999.2500  -999.2500  -999.2500  -999.2500  -999.2500  -999.2500    46.6929  -999.2500
 4002.0000    40.1136  1570.3984  -999.2500      .5029      .5264      .5737   -75.3728    14.0119     -.0210    49.3810     2.0851
 4002.5000    41.6100  2117.4492  -999.2500      .4612      .5128      .5744   -74.3484    13.9845     -.0121    52.0839     2.1113
 4003.0000    45.3474  2121.2227  -999.2500      .4842      .5434      .6081   -73.5442    13.9323      .0011    54.7571     2.1303
 4003.5000    47.2844  1935.1660  -999.2500      .5405      .5763      .6381   -72.9562    13.7607      .0176    55.0502     2.1492
 4004.0000    47.4401  1728.8418  -999.2500      .5839      .6214      .6531   -72.4717    13.6487      .0205    53.6834     2.1607
 4004.5000    46.3304  1615.3984  -999.2500      .6169      .7076      .6632   -72.1768    13.5372      .0162    51.7469     2.1613
 4005.0000    44.7163  1579.3379  -999.2500      .6402      .7713      .6759   -72.2710    13.5001      .0110    49.9277     2.1628
 4005.5000    43.1899  1530.6875  -999.2500      .6568      .7893      .6999   -72.8276    13.5341      .0085    48.1160     2.1653
 4006.0000    41.1972  1498.9980  -999.2500      .6644      .7955      .7333   -73.7030    13.5560      .0073    46.8954     2.1672
 4006.5000    40.1541  1486.0020  -999.2500      .6685      .7950      .7573   -74.6190    13.5518      .0075    47.1200     2.1679
 4007.0000    39.8139  1479.0684  -999.2500      .6680      .7881      .7649   -75.4623    13.5294      .0082    49.6007     2.1686
 4007.5000    39.5047  1452.4336  -999.2500      .6809      .7779      .7612   -75.9500    13.5058      .0091    51.1039     2.1706
 4008.0000    39.6096  1366.1094  -999.2500      .7236      .7682      .7558   -76.0385    13.4886      .0102    50.8386     2.1711
 4008.5000    39.2505  1271.5645  -999.2500      .7778      .7720      .7630   -75.7953    13.4894      .0124    49.5976     2.1716
 4009.0000    37.9543  1242.3809  -999.2500      .8043      .7789      .7739   -75.7166    13.5069      .0185    49.7482     2.1731
 4009.5000    38.4428  1269.2305  -999.2500      .7951      .7785      .7787   -76.0020    13.5495      .0188    50.9286     2.1727
 4010.0000    41.5179  1310.9531  -999.2500      .7686      .7575      .7762   -76.6415    13.5944      .0116    52.0327     2.1690
 4010.5000    43.2909  1350.8359  -999.2500      .7417      .7244      .7714   -77.0421    13.6152      .0055    52.1323     2.1704
 4011.0000    43.4426  1375.5469  -999.2500      .7220      .7053      .7629   -77.0996    13.6161      .0076    51.4143     2.1798
 4011.5000    45.5983  1375.6523  -999.2500      .7123      .6993      .7600   -76.8717    13.6043      .0127    50.0913     2.1859
 4012.0000    46.8382  1364.0742  -999.2500      .7111      .7023      .7595   -76.6663    13.5668      .0092    49.5424     2.1795
 4012.5000    44.0259  1349.8809  -999.2500      .7241      .7135      .7583   -77.2905    13.5362      .0044    51.6420     2.1586
 4013.0000    39.8312  1341.1270  -999.2500      .7363      .7235      .7546   -78.3982    13.5239      .0002    54.0450     2.1425
 4013.5000    38.4829  1349.8184  -999.2500      .7416      .7272      .7656   -79.0824    13.4457      .0001    53.9000     2.1483
 4014.0000    38.2899  1365.5625  -999.2500      .7362      .7143      .7877   -79.5922    13.3751     -.0009    53.6547     2.1702
 4014.5000    36.9401  1386.2500  -999.2500      .7222      .6995      .8035   -79.8701    13.3698     -.0085    54.3140     2.1838
 4015.0000    35.9858  1410.4512  -999.2500      .7068      .6889      .8040   -79.9656    13.4342     -.0272    55.3230     2.1842
 4015.5000    37.5816  1417.9727  -999.2500      .6908      .6869      .7941   -79.9594    13.4475     -.0447    55.9037     2.1790
 4016.0000    38.9335  1416.0664  -999.2500      .6830      .6901      .7788   -79.8104    13.3927     -.0331    56.2780     2.1769
 4016.5000    38.8527  1415.1836  -999.2500      .6826      .6949      .7649   -79.5822    13.3124      .0111    56.5300     2.1758
 4017.0000    38.9521  1419.2207  -999.2500      .6905      .6998      .7539   -78.5609    13.2302      .0157    54.9324     2.1697
 4017.5000    41.9842  1426.6191  -999.2500      .6968      .7033      .7557   -75.9128    13.1759      .0049    52.4899     2.1554
 4018.0000    43.3874  1444.5371  -999.2500      .6982      .7037      .7802   -73.4410    13.1896     -.0047    51.9873     2.1587
 4018.5000    42.2307  1465.0137  -999.2500      .6955      .7000      .7985   -72.2164    13.2122      .0020    52.6039     2.1703
 4019.0000    40.3687  1464.8262  -999.2500      .6929      .6939      .7989   -72.5134    13.2259      .0129    52.7476     2.1825
 4019.5000    40.1638  1458.7109  -999.2500      .6868      .6896      .7870   -72.7882    13.2397      .0155    54.0672     2.1837
 4020.0000    41.6249  1450.1992  -999.2500      .6805      .6869      .7721   -72.6532    13.2505     -.0008    55.7537     2.1726
 4020.5000    44.1179  1452.8945  -999.2500      .6753      .6855      .7671   -72.0577    13.2538     -.0296    55.9503     2.1535
 4021.0000    44.8400  1464.9766  -999.2500      .6701      .6844      .7727   -71.6035    13.2515     -.0534    55.1706     2.1342
 4021.5000    43.5344  1481.6387  -999.2500      .6640      .6844      .7747   -71.4429    13.2516     -.0585    53.8376     2.1341
 4022.0000    42.4549  1500.8613  -999.2500      .6576      .6843      .7752   -71.4128    13.2578     -.0394    52.8513     2.1395
 4022.5000    42.0722  1506.1445  -999.2500      .6579      .6828      .7745   -71.3940    13.2866     -.0255    52.9146     2.1414
 4023.0000    41.5336  1506.2266  -999.2500      .6659      .6821      .7741   -71.3650    13.3477     -.0254    53.0900     2.1369
