~VERSION INFORMATION
VERS.                             2.0:   CWLS Log ASCII Standard-VERSION 2.0
WRAP.                              NO:   One line per depth step
~Well Information Block
STRT.F                      3993.0000:   Top Depth
STOP.F                     13285.0000:   Bottom Depth
STEP.F                         .50000:   Depth Increment
NULL.                        -999.250:   Null Value
FLD .                     MU BLK A 85:   Field Name
WELL.       OCSG03061  B004 ST00 BP00:   NAME
API .                    427124009200:   WELL API
EDF .F                       122.0000:   ELEV DRILL FLOOR
COMP.             TRANSCO EXPLORATION:   OPERATOR
BN  .                           A 859:   BLOCK
CTRY.                             USA:   COUNTRY NAME
CNTY.                        M I E AD:   COUNTY NAME
EKB .F                       123.0000:   ELEV KELLY BUSHING
TDD .F                          0.000:   FINAL TD DRILLER
STAT.                           TEXAS:   STATE NAME
UWI .                    427124009200:   WELL API
DICO.               IHS : Digitizing Company
~PARAMETER INFORMATION (zones)
#MNEM.UNIT                       Value     Description
#=========                       =====     ===========
#ZONATION                          CNL:   ZONATION NAME
#ZONE                            RUN_1:   ZONE NAME
TOP .                       3993.0000:   TOP DEPTH
BOT .                       9346.5000:   BOTTOM DEPTH
RUN .                               1:   RUN NUMBER
LCCD.                              20:   LOGGING CONTRACTOR
SRVC.                          Baroil:   LOGGING CONT NAME
DICO.          QC Data Collectors Ltd:   DIG COMPANY NAME
LDAT.                      12/10/1986:   DATE LOGGED
ELD .F                       123.0000:   LOG DATUM ELEVATION
TDD .F                      9350.0000:   TOTAL DEPTH DRILLER
TDL .F                      9348.0000:   TOTAL DEPTH LOGGER
BOTL.F                      9346.0000:   BOTTOM DEPTH LOGGED
TOPL.F                      4002.0000:   TOP DEPTH LOGGED
CS1 .IN                       13.3750:   CASING SIZE 1
BS1 .IN                       12.2500:   BIT SIZE 1
DDB1.F                      9350.0000:   DEPTH DRILLED BIT 1
BHF .                              65:   FLUID CODE
DPT .                        INVERMUL:   DRILLING FLUID TYPE
MUDD.                         12.8000:   FLUID DENSITY
MUDV.                         40.0000:   FLUID VISCOSITY
DFPH.                          9.2000:   FLUID PH
FL  .                         11.0000:   FLUID LOSS
RM  .OHMM                       .3400:   RM
RMT .DEGF                     70.0000:   RM TEMP
RMF .OHMM                       .1600:   RMF
RMFT.DEGF                     70.0000:   RMF TEMP
FSC .                               M:   RMF CODE
RMC .OHMM                       .4200:   RMC
RMCT.DEGF                     70.0000:   RMC TEMP
CMC .                               C:   RMC CODE
TMAX.DEGF                    202.0000:   MAX REC TEMP
~PARAMETER INFORMATION (zones)
#MNEM.UNIT                       Value     Description
#=========                       =====     ===========
#ZONATION                          DIL:   ZONATION NAME
#ZONE                            RUN_1:   ZONE NAME
TOP .                       4002.0000:   TOP DEPTH
BOT .                       9336.5000:   BOTTOM DEPTH
RUN .                               1:   RUN NUMBER
LCCD.                              20:   LOGGING CONTRACTOR
SRVC.                          Baroil:   LOGGING CONT NAME
DICO.          QC Data Collectors Ltd:   DIG COMPANY NAME
LDAT.                      12/10/1986:   DATE LOGGED
ELD .F                       123.0000:   LOG DATUM ELEVATION
TDD .F                      9350.0000:   TOTAL DEPTH DRILLER
TDL .F                      9348.0000:   TOTAL DEPTH LOGGER
BOTL.F                      9346.0000:   BOTTOM DEPTH LOGGED
TOPL.F                      4002.0000:   TOP DEPTH LOGGED
CS1 .IN                       13.3750:   CASING SIZE 1
BS1 .IN                       12.2500:   BIT SIZE 1
DDB1.F                      9350.0000:   DEPTH DRILLED BIT 1
BHF .                              65:   FLUID CODE
DPT .                        INVERMUL:   DRILLING FLUID TYPE
MUDD.                         12.8000:   FLUID DENSITY
MUDV.                         40.0000:   FLUID VISCOSITY
DFPH.                          9.2000:   FLUID PH
FL  .                         11.0000:   FLUID LOSS
RM  .OHMM                       .3400:   RM
RMT .DEGF                     70.0000:   RM TEMP
RMF .OHMM                       .1600:   RMF
RMFT.DEGF                     70.0000:   RMF TEMP
FSC .                               M:   RMF CODE
RMC .OHMM                       .4200:   RMC
RMCT.DEGF                     70.0000:   RMC TEMP
CMC .                               C:   RMC CODE
TMAX.DEGF                    202.0000:   MAX REC TEMP
~PARAMETER INFORMATION (zones)
#MNEM.UNIT                       Value     Description
#=========                       =====     ===========
#ZONATION                          DIL:   ZONATION NAME
#ZONE                            RUN_3:   ZONE NAME
TOP .                       9336.0000:   TOP DEPTH
BOT .                      13285.5000:   BOTTOM DEPTH
RUN .                               3:   RUN NUMBER
LCCD.                              20:   LOGGING CONTRACTOR
SRVC.                          Baroil:   LOGGING CONT NAME
DICO.          QC Data Collectors Ltd:   DIG COMPANY NAME
LDAT.                      12/28/1986:   DATE LOGGED
ELD .F                       123.0000:   LOG DATUM ELEVATION
TDD .                            NULL:   TOTAL DEPTH DRILLER
TDL .                            NULL:   TOTAL DEPTH LOGGER
BOTL.F                     13291.0000:   BOTTOM DEPTH LOGGED
TOPL.F                     13285.0000:   TOP DEPTH LOGGED
CS1 .IN                        9.6250:   CASING SIZE 1
BS1 .IN                        8.5000:   BIT SIZE 1
DDB1.                            NULL:   DEPTH DRILLED BIT 1
BHF .                              35:   FLUID CODE
DPT .                       PETROFREE:   DRILLING FLUID TYPE
MUDD.                         14.9000:   FLUID DENSITY
MUDV.                         49.0000:   FLUID VISCOSITY
DFPH.                            NULL:   FLUID PH
FL  .                          6.0000:   FLUID LOSS
RM  .                            NULL:   RM
RMT .                            NULL:   RM TEMP
RMF .                            NULL:   RMF
RMFT.                            NULL:   RMF TEMP
FSC .                            NULL:   RMF CODE
RMC .                            NULL:   RMC
RMCT.                            NULL:   RMC TEMP
CMC .                            NULL:   RMC CODE
TMAX.DEGF                    274.0000:   MAX REC TEMP
~PARAMETER INFORMATION (zones)
#MNEM.UNIT                       Value     Description
#=========                       =====     ===========
#ZONATION                          FDC:   ZONATION NAME
#ZONE                            RUN_1:   ZONE NAME
TOP .                       3993.0000:   TOP DEPTH
BOT .                       9346.5000:   BOTTOM DEPTH
RUN .                               1:   RUN NUMBER
LCCD.                              20:   LOGGING CONTRACTOR
SRVC.                          Baroil:   LOGGING CONT NAME
DICO.          QC Data Collectors Ltd:   DIG COMPANY NAME
LDAT.                      12/10/1986:   DATE LOGGED
ELD .F                       123.0000:   LOG DATUM ELEVATION
TDD .F                      9350.0000:   TOTAL DEPTH DRILLER
TDL .F                      9348.0000:   TOTAL DEPTH LOGGER
BOTL.F                      9346.0000:   BOTTOM DEPTH LOGGED
TOPL.F                      4002.0000:   TOP DEPTH LOGGED
CS1 .IN                       13.3750:   CASING SIZE 1
BS1 .IN                       12.2500:   BIT SIZE 1
DDB1.F                      9350.0000:   DEPTH DRILLED BIT 1
BHF .                              65:   FLUID CODE
DPT .                        INVERMUL:   DRILLING FLUID TYPE
MUDD.                         12.8000:   FLUID DENSITY
MUDV.                         40.0000:   FLUID VISCOSITY
DFPH.                          9.2000:   FLUID PH
FL  .                         11.0000:   FLUID LOSS
RM  .OHMM                       .3400:   RM
RMT .DEGF                     70.0000:   RM TEMP
RMF .OHMM                       .1600:   RMF
RMFT.DEGF                     70.0000:   RMF TEMP
FSC .                               M:   RMF CODE
RMC .OHMM                       .4200:   RMC
RMCT.DEGF                     70.0000:   RMC TEMP
CMC .                               C:   RMC CODE
TMAX.DEGF                    202.0000:   MAX REC TEMP
~Curve Information Block
#MNEM.UNIT                    API CODE    No Description
#=========                    ========    == ===========
DEPT.F                   00 001 00 00:     1  DEPTH
NPHI.%                               :     2  Neutron Porosity
CILD.MMHO                            :     3  Deep Induction Conductivity
GR.GAPI                              :     4  Gamma Ray
ILD.OHMM                             :     5  Deep Induction Resistivity
ILM.OHMM                             :     6  Medium Induction Resistivity
RFOC.OHMM                            :     7  Medium Resistivity
SP.MV                                :     8  Spontaneous Potential
CALI.IN                              :     9  Caliper
DRHO.G/C3                            :    10  Bulk Density Correction
GRD.GAPI                             :    11  Gamma Ray
RHOB.G/C3                            :    12  Bulk Density
~ASCII
# ...
 7195.5000    37.0400  1081.2695  -999.2500      .9049      .8416      .9814   -68.6428    14.8049      .0122    53.7157     2.3563
 7196.0000    38.3832  1074.0449  -999.2500      .9136      .8648      .9468   -68.7976    14.8411      .0041    55.7029     2.3499
 7196.5000    35.5948  1066.8262  -999.2500      .9139      .8928      .9338   -69.2529    15.0296      .0113    55.7733     2.3411
 7197.0000    34.5154  1059.2832  -999.2500      .9142      .9166      .9622   -69.7089    15.1239      .0282    53.2285     2.3411
 7197.5000    36.2833  1047.9160  -999.2500      .9143      .9263      .9804   -69.7467    15.0938      .0372    50.9397     2.3459
 7198.0000    37.7307  1036.5469  -999.2500      .9140      .9341      .9925   -69.7334    15.0522      .0347    49.9028     2.3440
 7198.5000    37.9540  1021.4756  -999.2500      .9137      .9421      .9756   -69.7200    15.0648      .0351    49.8033     2.3403
 7199.0000    34.8470  1005.5977  -999.2500      .9162      .9511      .9588   -69.7080    15.0945      .0439    50.7183     2.3410
 7199.5000    33.5264   998.7637  -999.2500      .9224      .9583      .9739   -69.7466    15.0138      .0390    51.2887     2.3439
 7200.0000    33.8076  1006.1436  -999.2500      .9286      .9586      .9861   -69.7852    14.9111      .0328    51.2269     2.3491
 7200.5000    34.1279  1013.5244  -999.2500      .9308      .9374      .9918   -69.8237    14.8665      .0429    51.4420     2.3542
 7201.0000    32.3068  1020.8984  -999.2500      .9235      .9196      .9847   -69.8480    14.8335      .0489    51.5779     2.3582
 7201.5000    31.5349  1027.7246  -999.2500      .9186      .9042      .9704   -69.8164    14.7246      .0305    51.3830     2.3616
 7202.0000    32.5917  1034.5586  -999.2500      .9199      .9067      .9360   -69.7847    14.4864     -.0034    51.0111     2.3577
 7202.5000    37.0074  1041.3867  -999.2500      .9212      .9103      .9125   -69.7531    14.7496     -.0137    51.0380     2.3439
 7203.0000    40.1619  1052.2637  -999.2500      .9213      .9139      .9131   -69.7189    14.8273      .0110    51.1520     2.3293
 7203.5000    39.4200  1070.0801  -999.2500      .9124      .9040      .9250   -69.6725    14.8490      .0369    50.9743     2.3294
 7204.0000    35.8085  1087.8984  -999.2500      .9036      .8937      .9356   -69.6262    14.8817      .0528    49.8738     2.3489
 7204.5000    33.2504  1105.7148  -999.2500      .8949      .8841      .9435   -69.5800    14.9734      .0603    48.7003     2.3586
 7205.0000    32.4088  1123.5313  -999.2500      .8844      .8774      .9514   -69.4982    15.1143      .0596    47.8867     2.3591
 7205.5000    32.1239  1136.8379  -999.2500      .8739      .8708      .9388   -69.3914    15.1731      .0545    47.5463     2.3570
 7206.0000    32.6926  1149.8730  -999.2500      .8637      .8642      .9154   -69.2847    15.1584      .0449    47.8737     2.3560
 7206.5000    35.7017  1162.9180  -999.2500      .8564      .8603      .9054   -69.2731    15.1622      .0354    48.6050     2.3550
 7207.0000    36.6817  1175.9648  -999.2500      .8498      .8596      .9050   -69.3337    15.3272      .0256    49.0997     2.3539
 7207.5000    36.9792  1178.7793  -999.2500      .8432      .8590      .9047   -69.5219    15.3929      .0164    48.4579     2.3511
 7208.0000    37.1567  1177.7813  -999.2500      .8401      .8583      .9061   -70.0389    15.3956      .0124    45.9081     2.3467
 7208.5000    37.2351  1176.7852  -999.2500      .8415      .8591      .9084   -70.0010    15.3844      .0141    43.2817     2.3413
 7209.0000    36.2944  1175.7871  -999.2500      .8429      .8602      .9097   -69.9076    15.3564      .0189    43.1568     2.3357
 7209.5000    36.8879  1166.9805  -999.2500      .8443      .8613      .9082   -69.8142    15.3398      .0256    43.4351     2.3328
 7210.0000    36.4495  1157.6250  -999.2500      .8477      .8630      .9068   -69.7208    15.3284      .0397    47.0977     2.3299
 7210.5000    34.2223  1148.2695  -999.2500      .8531      .8660      .9063   -69.5770    15.3248      .0502    48.6978     2.3271
 7211.0000    33.7089  1138.9004  -999.2500      .8585      .8690      .9078   -69.4115    15.3431      .0389    50.2002     2.3201
 7211.5000    35.6215  1128.5391  -999.2500      .8639      .8721      .9093   -69.2461    15.3638      .0202    50.4722     2.3041
 7212.0000    36.9644  1117.8906  -999.2500      .8694      .8752      .9115   -69.1865    15.2739      .0238    49.1899     2.2898
 7212.5000    36.5548  1111.3691  -999.2500      .8704      .8772      .9141   -69.1531    14.9619      .0402    47.1323     2.2867
 7213.0000    34.9686  1120.6367  -999.2500      .8714      .8790      .9166   -69.1387    14.8886      .0627    46.2003     2.2929
 7213.5000    33.7075  1129.8926  -999.2500      .8724      .8808      .9147   -69.1775    14.8774      .0631    46.6179     2.3042
 7214.0000    32.6332  1139.4355  -999.2500      .8734      .8731      .9119   -69.2164    14.8913      .0344    49.3952     2.3126
 7214.5000    31.5033  1150.3438  -999.2500      .8635      .8619      .9073   -69.2198    14.9184      .0117    51.7694     2.3131
 7215.0000    31.3052  1161.2402  -999.2500      .8527      .8509      .9018   -69.1698    14.9567      .0028    52.7537     2.3106
 7215.5000    33.4211  1174.2754  -999.2500      .8421      .8340      .8963   -69.1198    15.0310      .0061    53.2514     2.3131
 7216.0000    35.0503  1192.4395  -999.2500      .8315      .8140      .8945   -69.0623    15.0771      .0245    53.4378     2.3239
 7216.5000    35.9355  1210.6035  -999.2500      .8197      .8042      .8965   -68.9329    15.3698      .0414    52.6165     2.3400
 7217.0000    36.1646  1228.6211  -999.2500      .8080      .7950      .8985   -68.8033    15.5957      .0313    51.5035     2.3428
 7217.5000    37.5045  1245.9902  -999.2500      .7965      .7889      .8911   -68.6740    15.5935      .0190    50.9143     2.3308
 7218.0000    39.3725  1263.3848  -999.2500      .7857      .7830      .8804   -68.9097    15.5212      .0226    50.8106     2.3288
 7218.5000    41.2714  1280.1328  -999.2500      .7754      .7839      .8727   -69.1469    15.4370      .0426    51.1375     2.3433
 7219.0000    41.2877  1296.0605  -999.2500      .7652      .7902      .8746   -69.4055    15.4220      .0586    51.9302     2.3498
 7219.5000    37.7463  1308.8027  -999.2500      .7566      .7965      .8766   -69.7024    15.4073      .0555    52.7933     2.3368
 7220.0000    36.3649  1306.5703  -999.2500      .7496      .7984      .8761   -69.9990    15.3641      .0276    53.1760     2.3218
 7220.5000    35.8287  1304.3359  -999.2500      .7455      .7986      .8731   -70.2137    15.2358      .0130    52.9024     2.3179
 7221.0000    35.8663  1288.6074  -999.2500      .7574      .8014      .8702   -70.1101    15.0482      .0157    52.9272     2.3209
 7221.5000    36.0455  1270.9395  -999.2500      .7695      .8154      .8680   -70.0066    15.1557      .0276    53.2724     2.3344
 7222.0000    36.2202  1231.5781  -999.2500      .8010      .8296      .8666   -69.9031    15.2916      .0362    53.3911     2.3497
 7222.5000    36.2764  1186.3008  -999.2500      .8386      .8557      .8755   -69.8257    15.3176      .0380    52.8340     2.3591
 7223.0000    36.1838  1141.3730  -999.2500      .8820      .8868      .8931   -69.7596    15.2499      .0437    51.3465     2.3641
 7223.5000    35.8979  1097.0918  -999.2500      .9290      .9189      .9117   -69.6935    15.1695      .0532    49.4818     2.3535
 7224.0000    34.0487  1060.7617  -999.2500      .9592      .9520      .9396   -69.6273    15.1182      .0545    48.4066     2.3335
 7224.5000    32.0323  1033.0801  -999.2500      .9784      .9828      .9651   -69.6437    15.4878      .0429    48.5259     2.3113
 7225.0000    31.6895  1025.8730  -999.2500      .9868      .9795      .9741   -69.6603    15.5416      .0365    49.4898     2.3071
 7225.5000    33.5532  1037.9746  -999.2500      .9863      .9741      .9832   -69.6769    15.5044      .0445    48.4307     2.3288
