~VERSION INFORMATION
VERS.                             2.0:   CWLS Log ASCII Standard-VERSION 2.0
WRAP.                              NO:   One line per depth step
~Well Information Block
STRT.F                      3993.0000:   Top Depth
STOP.F                     13285.0000:   Bottom Depth
STEP.F                         .50000:   Depth Increment
NULL.                        -999.250:   Null Value
FLD .                     MU BLK A 85:   Field Name
WELL.       OCSG03061  B004 ST00 BP00:   NAME
API .                    427124009200:   WELL API
EDF .F                       122.0000:   ELEV DRILL FLOOR
COMP.             TRANSCO EXPLORATION:   OPERATOR
BN  .                           A 859:   BLOCK
CTRY.                             USA:   COUNTRY NAME
CNTY.                        M I E AD:   COUNTY NAME
EKB .F                       123.0000:   ELEV KELLY BUSHING
TDD .F                          0.000:   FINAL TD DRILLER
STAT.                           TEXAS:   STATE NAME
UWI .                    427124009200:   WELL API
DICO.               IHS : Digitizing Company
~PARAMETER INFORMATION (zones)
#MNEM.UNIT                       Value     Description
#=========                       =====     ===========
#ZONATION                          CNL:   ZONATION NAME
#ZONE                            RUN_1:   ZONE NAME
TOP .                       3993.0000:   TOP DEPTH
BOT .                       9346.5000:   BOTTOM DEPTH
RUN .                               1:   RUN NUMBER
LCCD.                              20:   LOGGING CONTRACTOR
SRVC.                          Baroil:   LOGGING CONT NAME
DICO.          QC Data Collectors Ltd:   DIG COMPANY NAME
LDAT.                      12/10/1986:   DATE LOGGED
ELD .F                       123.0000:   LOG DATUM ELEVATION
TDD .F                      9350.0000:   TOTAL DEPTH DRILLER
TDL .F                      9348.0000:   TOTAL DEPTH LOGGER
BOTL.F                      9346.0000:   BOTTOM DEPTH LOGGED
TOPL.F                      4002.0000:   TOP DEPTH LOGGED
CS1 .IN                       13.3750:   CASING SIZE 1
BS1 .IN                       12.2500:   BIT SIZE 1
DDB1.F                      9350.0000:   DEPTH DRILLED BIT 1
BHF .                              65:   FLUID CODE
DPT .                        INVERMUL:   DRILLING FLUID TYPE
MUDD.                         12.8000:   FLUID DENSITY
MUDV.                         40.0000:   FLUID VISCOSITY
DFPH.                          9.2000:   FLUID PH
FL  .                         11.0000:   FLUID LOSS
RM  .OHMM                       .3400:   RM
RMT .DEGF                     70.0000:   RM TEMP
RMF .OHMM                       .1600:   RMF
RMFT.DEGF                     70.0000:   RMF TEMP
FSC .                               M:   RMF CODE
RMC .OHMM                       .4200:   RMC
RMCT.DEGF                     70.0000:   RMC TEMP
CMC .                               C:   RMC CODE
TMAX.DEGF                    202.0000:   MAX REC TEMP
~PARAMETER INFORMATION (zones)
#MNEM.UNIT                       Value     Description
#=========                       =====     ===========
#ZONATION                          DIL:   ZONATION NAME
#ZONE                            RUN_1:   ZONE NAME
TOP .                       4002.0000:   TOP DEPTH
BOT .                       9336.5000:   BOTTOM DEPTH
RUN .                               1:   RUN NUMBER
LCCD.                              20:   LOGGING CONTRACTOR
SRVC.                          Baroil:   LOGGING CONT NAME
DICO.          QC Data Collectors Ltd:   DIG COMPANY NAME
LDAT.                      12/10/1986:   DATE LOGGED
ELD .F                       123.0000:   LOG DATUM ELEVATION
TDD .F                      9350.0000:   TOTAL DEPTH DRILLER
TDL .F                      9348.0000:   TOTAL DEPTH LOGGER
BOTL.F                      9346.0000:   BOTTOM DEPTH LOGGED
TOPL.F                      4002.0000:   TOP DEPTH LOGGED
CS1 .IN                       13.3750:   CASING SIZE 1
BS1 .IN                       12.2500:   BIT SIZE 1
DDB1.F                      9350.0000:   DEPTH DRILLED BIT 1
BHF .                              65:   FLUID CODE
DPT .                        INVERMUL:   DRILLING FLUID TYPE
MUDD.                         12.8000:   FLUID DENSITY
MUDV.                         40.0000:   FLUID VISCOSITY
DFPH.                          9.2000:   FLUID PH
FL  .                         11.0000:   FLUID LOSS
RM  .OHMM                       .3400:   RM
RMT .DEGF                     70.0000:   RM TEMP
RMF .OHMM                       .1600:   RMF
RMFT.DEGF                     70.0000:   RMF TEMP
FSC .                               M:   RMF CODE
RMC .OHMM                       .4200:   RMC
RMCT.DEGF                     70.0000:   RMC TEMP
CMC .                               C:   RMC CODE
TMAX.DEGF                    202.0000:   MAX REC TEMP
~PARAMETER INFORMATION (zones)
#MNEM.UNIT                       Value     Description
#=========                       =====     ===========
#ZONATION                          DIL:   ZONATION NAME
#ZONE                            RUN_3:   ZONE NAME
TOP .                       9336.0000:   TOP DEPTH
BOT .                      13285.5000:   BOTTOM DEPTH
RUN .                               3:   RUN NUMBER
LCCD.                              20:   LOGGING CONTRACTOR
SRVC.                          Baroil:   LOGGING CONT NAME
DICO.          QC Data Collectors Ltd:   DIG COMPANY NAME
LDAT.                      12/28/1986:   DATE LOGGED
ELD .F                       123.0000:   LOG DATUM ELEVATION
TDD .                            NULL:   TOTAL DEPTH DRILLER
TDL .                            NULL:   TOTAL DEPTH LOGGER
BOTL.F                     13291.0000:   BOTTOM DEPTH LOGGED
TOPL.F                     13285.0000:   TOP DEPTH LOGGED
CS1 .IN                        9.6250:   CASING SIZE 1
BS1 .IN                        8.5000:   BIT SIZE 1
DDB1.                            NULL:   DEPTH DRILLED BIT 1
BHF .                              35:   FLUID CODE
DPT .                       PETROFREE:   DRILLING FLUID TYPE
MUDD.                         14.9000:   FLUID DENSITY
MUDV.                         49.0000:   FLUID VISCOSITY
DFPH.                            NULL:   FLUID PH
FL  .                          6.0000:   FLUID LOSS
RM  .                            NULL:   RM
RMT .                            NULL:   RM TEMP
RMF .                            NULL:   RMF
RMFT.                            NULL:   RMF TEMP
FSC .                            NULL:   RMF CODE
RMC .                            NULL:   RMC
RMCT.                            NULL:   RMC TEMP
CMC .                            NULL:   RMC CODE
TMAX.DEGF                    274.0000:   MAX REC TEMP
~PARAMETER INFORMATION (zones)
#MNEM.UNIT                       Value     Description
#=========                       =====     ===========
#ZONATION                          FDC:   ZONATION NAME
#ZONE                            RUN_1:   ZONE NAME
TOP .                       3993.0000:   TOP DEPTH
BOT .                       9346.5000:   BOTTOM DEPTH
RUN .                               1:   RUN NUMBER
LCCD.                              20:   LOGGING CONTRACTOR
SRVC.                          Baroil:   LOGGING CONT NAME
DICO.          QC Data Collectors Ltd:   DIG COMPANY NAME
LDAT.                      12/10/1986:   DATE LOGGED
ELD .F                       123.0000:   LOG DATUM ELEVATION
TDD .F                      9350.0000:   TOTAL DEPTH DRILLER
TDL .F                      9348.0000:   TOTAL DEPTH LOGGER
BOTL.F                      9346.0000:   BOTTOM DEPTH LOGGED
TOPL.F                      4002.0000:   TOP DEPTH LOGGED
CS1 .IN                       13.3750:   CASING SIZE 1
BS1 .IN                       12.2500:   BIT SIZE 1
DDB1.F                      9350.0000:   DEPTH DRILLED BIT 1
BHF .                              65:   FLUID CODE
DPT .                        INVERMUL:   DRILLING FLUID TYPE
MUDD.                         12.8000:   FLUID DENSITY
MUDV.                         40.0000:   FLUID VISCOSITY
DFPH.                          9.2000:   FLUID PH
FL  .                         11.0000:   FLUID LOSS
RM  .OHMM                       .3400:   RM
RMT .DEGF                     70.0000:   RM TEMP
RMF .OHMM                       .1600:   RMF
RMFT.DEGF                     70.0000:   RMF TEMP
FSC .                               M:   RMF CODE
RMC .OHMM                       .4200:   RMC
RMCT.DEGF                     70.0000:   RMC TEMP
CMC .                               C:   RMC CODE
TMAX.DEGF                    202.0000:   MAX REC TEMP
~Curve Information Block
#MNEM.UNIT                    API CODE    No Description
#=========                    ========    == ===========
DEPT.F                   00 001 00 00:     1  DEPTH
NPHI.%                               :     2  Neutron Porosity
CILD.MMHO                            :     3  Deep Induction Conductivity
GR.GAPI                              :     4  Gamma Ray
ILD.OHMM                             :     5  Deep Induction Resistivity
ILM.OHMM                             :     6  Medium Induction Resistivity
RFOC.OHMM                            :     7  Medium Resistivity
SP.MV                                :     8  Spontaneous Potential
CALI.IN                              :     9  Caliper
DRHO.G/C3                            :    10  Bulk Density Correction
GRD.GAPI                             :    11  Gamma Ray
RHOB.G/C3                            :    12  Bulk Density
~ASCII
# ...
 7561.5000    32.8328  1101.2598  -999.2500      .9745      .9567      .8670   -71.7704    15.0191      .0206    52.2764     2.3821
 7562.0000    31.6450  1088.6230  -999.2500      .9797      .9639      .8720   -71.7632    15.0724      .0127    54.3810     2.3896
 7562.5000    30.9544  1075.9863  -999.2500      .9850      .9736      .8849   -71.3508    15.1341      .0084    54.8496     2.3908
 7563.0000    31.4662  1047.8203  -999.2500      .9903      .9834      .9018   -71.2065    15.3013      .0069    53.8678     2.3880
 7563.5000    32.0172  1015.2676  -999.2500     1.0210     1.0059      .9334   -71.0864    15.7398      .0216    52.3333     2.3855
 7564.0000    31.7843   982.7148  -999.2500     1.0601     1.0399      .9660   -71.0800    16.0026      .0388    50.8914     2.3843
 7564.5000    31.9089   949.2178  -999.2500     1.1011     1.0702      .9808   -71.1888    16.0570      .0495    49.4645     2.3811
 7565.0000    31.8587   915.6709  -999.2500     1.1443     1.0946      .9938   -71.2979    15.9817      .0439    47.9979     2.3701
 7565.5000    31.2429   894.9678  -999.2500     1.1593     1.1085     1.0366   -71.3580    15.7012      .0236    47.6301     2.3624
 7566.0000    30.5325   891.9580  -999.2500     1.1495     1.1090     1.0903   -71.3517    15.3317      .0151    48.1105     2.3655
 7566.5000    30.3341   888.9824  -999.2500     1.1220     1.0929     1.1288   -71.3453    15.0834      .0099    49.1899     2.3729
 7567.0000    32.6510   906.3271  -999.2500     1.0808     1.0628     1.1492   -71.3391    14.9088      .0060    51.2253     2.3733
 7567.5000    35.7603   923.6719  -999.2500     1.0474     1.0283     1.1067   -71.3585    14.9027      .0047    52.7299     2.3726
 7568.0000    36.3627   964.4756  -999.2500     1.0215     1.0045     1.0573   -71.3801    14.9039      .0089    52.2764     2.3732
 7568.5000    34.5413  1012.8320  -999.2500      .9823      .9891     1.0083   -71.3810    14.9161      .0132    51.8088     2.3779
 7569.0000    33.6866  1055.5234  -999.2500      .9368      .9853      .9749   -71.1953    14.9353      .0145    52.5187     2.3856
 7569.5000    33.4196  1094.4375  -999.2500      .8935      .9806      .9748   -71.0094    14.9627      .0191    53.0591     2.3939
 7570.0000    33.5153  1115.6719  -999.2500      .8823      .9741      .9748   -70.8726    15.0355      .0289    51.5715     2.4019
 7570.5000    34.1467  1124.1582  -999.2500      .8817      .9695      .9758   -70.8822    15.1073      .0435    49.5337     2.4057
 7571.0000    35.0325  1132.6309  -999.2500      .8811      .9665      .9778   -70.8918    15.1543      .0582    48.3194     2.4006
 7571.5000    35.6860  1133.9355  -999.2500      .8820      .9646      .9797   -71.1959    15.1355      .0524    49.0737     2.3891
 7572.0000    34.9775  1132.2598  -999.2500      .8829      .9711      .9823   -71.5813    14.9123      .0450    51.9202     2.3855
 7572.5000    32.8914  1130.5859  -999.2500      .8839      .9776      .9820   -71.6166    14.7976      .0516    53.4128     2.3876
 7573.0000    31.3571  1128.7930  -999.2500      .8862      .9760      .9678   -71.3905    14.7570      .0573    54.2536     2.3880
 7573.5000    30.8376  1119.9082  -999.2500      .8935      .9713      .9568   -71.1646    14.5520      .0538    54.9752     2.3850
 7574.0000    30.6687  1111.0117  -999.2500      .9010      .9772      .9658   -71.2269    14.4212      .0393    55.5291     2.3874
 7574.5000    30.0321  1102.1289  -999.2500      .9088      .9877      .9818   -71.5475    14.3739      .0313    55.7685     2.3968
 7575.0000    29.7610  1087.7539  -999.2500      .9194      .9984     1.0183   -71.8385    14.3481      .0220    55.5637     2.3999
 7575.5000    29.9692  1070.4590  -999.2500      .9302     1.0147     1.0307   -71.9159    14.3373     -.0015    55.0790     2.3927
 7576.0000    29.9497  1053.1621  -999.2500      .9411     1.0313     1.0215   -71.9933    14.3327     -.0180    54.8469     2.3839
 7576.5000    30.0307  1046.9199  -999.2500      .9503     1.0343     1.0094   -71.8573    14.3560     -.0082    54.5699     2.3825
 7577.0000    30.2577  1044.6309  -999.2500      .9595     1.0334      .9940   -71.6575    14.3887      .0133    53.9977     2.3902
 7577.5000    30.4975  1043.3867  -999.2500      .9688     1.0350      .9897   -71.4574    14.4475      .0310    52.5311     2.3985
 7578.0000    30.6640  1045.5586  -999.2500      .9730     1.0425      .9920   -71.6200    14.4966      .0382    50.9557     2.3957
 7578.5000    31.0609  1035.3945  -999.2500      .9770     1.0305     1.0016   -71.9221    14.5373      .0256    50.1624     2.3924
 7579.0000    30.2681  1004.0361  -999.2500      .9810     1.0280     1.0127   -72.2242    14.5609      .0183    50.3492     2.3956
 7579.5000    28.5024   954.9326  -999.2500      .9934     1.0572     1.0236   -72.1664    14.5780      .0195    50.2769     2.4067
 7580.0000    27.0935   911.7471  -999.2500     1.0072     1.1213     1.0338   -72.0756    14.5792      .0221    48.1834     2.4131
 7580.5000    26.8468   909.6201  -999.2500     1.0212     1.1828     1.0558   -71.9846    14.5536      .0153    46.0794     2.4088
 7581.0000    27.2478   913.6582  -999.2500     1.0344     1.2383     1.0829   -71.7700    14.4910     -.0016    45.9020     2.3978
 7581.5000    27.7030   929.2881  -999.2500     1.0473     1.1158     1.2417   -71.4918    14.3818     -.0158    46.7811     2.3890
 7582.0000    28.0632   944.9434  -999.2500     1.0604      .9894     1.2795   -71.2141    14.1916     -.0145    47.5855     2.3788
 7582.5000    28.6715   941.6885  -999.2500     1.0484      .9365     1.2179   -71.0071    14.9810      .0238    47.5822     2.3577
 7583.0000    29.9669   935.4941  -999.2500     1.0342      .9469     1.0946   -70.8433    15.2670      .0530    47.6398     2.3260
 7583.5000    31.1880   934.3574  -999.2500     1.0319      .9595     1.0522   -70.6794    15.2452      .0438    48.1376     2.3066
 7584.0000    31.2088   967.3574  -999.2500     1.0297      .9785     1.0274   -70.4968    15.0909      .0072    48.7757     2.3032
 7584.5000    28.9757  1000.8057  -999.2500      .9817      .9980     1.0299   -70.2816    14.9711     -.0121    49.3464     2.3135
 7585.0000    28.3488  1050.0078  -999.2500      .9360     1.0043     1.0431   -70.0665    14.9876     -.0111    49.5572     2.3372
 7585.5000    28.8882  1087.6543  -999.2500      .9203     1.0101     1.0273   -69.8866    15.0202      .0021    49.1553     2.3600
 7586.0000    28.8474  1079.8379  -999.2500      .9083      .9928      .9944   -69.8802    15.0417      .0201    48.3417     2.3736
 7586.5000    28.1722  1072.0117  -999.2500      .9189      .9775      .9820   -69.8740    15.0344      .0332    47.2263     2.3815
 7587.0000    27.9148  1064.1836  -999.2500      .9325      .9965      .9912   -69.8076    14.9351      .0333    46.4411     2.3786
 7587.5000    28.3184  1052.1816  -999.2500      .9463     1.0043     1.0006   -69.6444    14.7061      .0317    45.5681     2.3716
 7588.0000    29.4813  1040.1543  -999.2500      .9564     1.0077     1.0150   -69.4814    14.5345      .0292    45.1818     2.3691
 7588.5000    29.5822  1028.1152  -999.2500      .9662     1.0235     1.0311   -69.3136    14.4987      .0262    45.8340     2.3757
 7589.0000    28.9920  1016.0879  -999.2500      .9760     1.0335     1.0475   -69.1378    14.5071      .0260    47.0705     2.3885
 7589.5000    27.5542  1000.8301  -999.2500      .9882     1.0368     1.0584   -68.9624    14.5232      .0281    49.0317     2.3967
 7590.0000    26.5712   982.2676  -999.2500     1.0056     1.0394     1.0613   -68.7866    14.5580      .0248    51.2377     2.4005
 7590.5000    26.9288   963.7295  -999.2500     1.0234     1.0418     1.0641   -68.9274    14.6468      .0144    52.4644     2.3998
 7591.0000    27.6655   952.5322  -999.2500     1.0334     1.0434     1.0663   -69.1080    14.7589      .0057    52.1391     2.3974
 7591.5000    27.8688   955.5977  -999.2500     1.0355     1.0438     1.0683   -69.2887    14.7930     -.0001    50.3078     2.3953
