~VERSION INFORMATION
VERS.                                                 2.0:   CWLS Log ASCII Standard-VERSION 2.0
WRAP.                                                  NO:   One line per depth step
~Well Information Block
STRT.F                                          1471.0000:   Top Depth
STOP.F                                         12100.0000:   Bottom Depth
STEP.F                                             .50000:   Depth Increment
NULL.                                            -999.250:   Null Value
FLD .                                        MU BLK A 175:   Field Name
WELL.                           OCSG03931   001 ST00 BP00:   NAME
API .                                        427124004600:   WELL API
EDF .F                                            85.0000:   ELEV DRILL FLOOR
COMP.                                GULF OIL CORPORATION:   OPERATOR
BN  .                                               A 175:   BLOCK
CTRY.                                                 USA:   COUNTRY NAME
CNTY.                                            M I E AD:   COUNTY NAME
EKB .F                                            86.0000:   ELEV KELLY BUSHING
TDD .F                                          12102.000:   FINAL TD DRILLER
STAT.                                               TEXAS:   STATE NAME
UWI .                                        427124004600:   WELL API
DICO.               IHS : Digitizing Company
~PARAMETER INFORMATION (zones)
#MNEM.UNIT                       Value     Description
#=========                       =====     ===========
#ZONATION                          CNL:   ZONATION NAME
#ZONE                            RUN_2:   ZONE NAME
TOP .                       3452.0000:   TOP DEPTH
BOT .                      12100.5000:   BOTTOM DEPTH
RUN .                               2:   RUN NUMBER
LCCD.                             440:   LOGGING CONTRACTOR
SRVC.                    Schlumberger:   LOGGING CONT NAME
DICO.          QC Data Collectors Ltd:   DIG COMPANY NAME
LDAT.                      06/16/1981:   DATE LOGGED
ELD .F                        86.0000:   LOG DATUM ELEVATION
TDD .F                      7546.0000:   TOTAL DEPTH DRILLER
TDL .F                      7545.0000:   TOTAL DEPTH LOGGER
BOTL.F                     12100.0000:   BOTTOM DEPTH LOGGED
TOPL.F                      3504.0000:   TOP DEPTH LOGGED
CS1 .IN                        9.6250:   CASING SIZE 1
BS1 .IN                       12.2500:   BIT SIZE 1
DDB1.F                      7546.0000:   DEPTH DRILLED BIT 1
BHF .                              99:   FLUID CODE
DPT .                   Miscellaneous:   DRILLING FLUID TYPE
MUDD.                         14.0000:   FLUID DENSITY
MUDV.                         42.0000:   FLUID VISCOSITY
DFPH.                         11.0000:   FLUID PH
FL  .                          4.8000:   FLUID LOSS
RM  .OHMM                       .7300:   RM
RMT .DEGF                     74.0000:   RM TEMP
RMF .OHMM                       .4600:   RMF
RMFT.DEGF                     74.0000:   RMF TEMP
FSC .                               M:   RMF CODE
RMC .OHMM                      1.1200:   RMC
RMCT.DEGF                     74.0000:   RMC TEMP
CMC .                               M:   RMC CODE
TMAX.DEGF                    168.0000:   MAX REC TEMP
TIMC.                          7.0000:   TIME SINCE CIRCLN
~PARAMETER INFORMATION (zones)
#MNEM.UNIT                       Value     Description
#=========                       =====     ===========
#ZONATION                          DIL:   ZONATION NAME
#ZONE                            RUN_1:   ZONE NAME
TOP .                       1471.0000:   TOP DEPTH
BOT .                      12095.5000:   BOTTOM DEPTH
RUN .                               1:   RUN NUMBER
LCCD.                             440:   LOGGING CONTRACTOR
SRVC.                    Schlumberger:   LOGGING CONT NAME
DICO.          QC Data Collectors Ltd:   DIG COMPANY NAME
LDAT.                      05/25/1981:   DATE LOGGED
ELD .F                        86.0000:   LOG DATUM ELEVATION
TDD .F                      4590.0000:   TOTAL DEPTH DRILLER
TDL .F                      3529.0000:   TOTAL DEPTH LOGGER
BOTL.F                     12095.0000:   BOTTOM DEPTH LOGGED
TOPL.F                      1471.0000:   TOP DEPTH LOGGED
CS1 .IN                       20.0000:   CASING SIZE 1
BS1 .IN                       12.2500:   BIT SIZE 1
DDB1.F                      4590.0000:   DEPTH DRILLED BIT 1
BHF .                              99:   FLUID CODE
DPT .                   Miscellaneous:   DRILLING FLUID TYPE
MUDD.                         11.4000:   FLUID DENSITY
MUDV.                         44.0000:   FLUID VISCOSITY
DFPH.                         11.0000:   FLUID PH
FL  .                         10.0000:   FLUID LOSS
RM  .OHMM                       .5200:   RM
RMT .DEGF                     75.0000:   RM TEMP
RMF .OHMM                       .3500:   RMF
RMFT.DEGF                     75.0000:   RMF TEMP
FSC .                               M:   RMF CODE
RMC .OHMM                       .8800:   RMC
RMCT.DEGF                     75.0000:   RMC TEMP
CMC .                               M:   RMC CODE
TMAX.DEGF                    125.0000:   MAX REC TEMP
TIMC.                         14.0000:   TIME SINCE CIRCLN
~PARAMETER INFORMATION (zones)
#MNEM.UNIT                       Value     Description
#=========                       =====     ===========
#ZONATION                          FDC:   ZONATION NAME
#ZONE                            RUN_4:   ZONE NAME
TOP .                      11080.0000:   TOP DEPTH
BOT .                      12095.0000:   BOTTOM DEPTH
RUN .                               4:   RUN NUMBER
LCCD.                             440:   LOGGING CONTRACTOR
SRVC.                    Schlumberger:   LOGGING CONT NAME
DICO.          QC Data Collectors Ltd:   DIG COMPANY NAME
LDAT.                      07/06/1981:   DATE LOGGED
ELD .F                        86.0000:   LOG DATUM ELEVATION
TDD .F                     12100.0000:   TOTAL DEPTH DRILLER
TDL .F                     12102.0000:   TOTAL DEPTH LOGGER
BOTL.F                     12095.0000:   BOTTOM DEPTH LOGGED
TOPL.F                     11080.0000:   TOP DEPTH LOGGED
CS1 .IN                        9.6250:   CASING SIZE 1
BS1 .IN                        8.5000:   BIT SIZE 1
DDB1.F                     12100.0000:   DEPTH DRILLED BIT 1
BHF .                              99:   FLUID CODE
DPT .                   Miscellaneous:   DRILLING FLUID TYPE
MUDD.                         15.7000:   FLUID DENSITY
MUDV.                         50.0000:   FLUID VISCOSITY
DFPH.                         11.0000:   FLUID PH
FL  .                          4.2000:   FLUID LOSS
RM  .OHMM                      1.2000:   RM
RMT .DEGF                     90.0000:   RM TEMP
RMF .OHMM                       .6600:   RMF
RMFT.DEGF                     78.0000:   RMF TEMP
FSC .                               M:   RMF CODE
RMC .OHMM                      1.4200:   RMC
RMCT.DEGF                     78.0000:   RMC TEMP
CMC .                               M:   RMC CODE
TMAX.DEGF                    277.0000:   MAX REC TEMP
TIMC.                         20.0000:   TIME SINCE CIRCLN
~PARAMETER INFORMATION (zones)
#MNEM.UNIT                       Value     Description
#=========                       =====     ===========
#ZONATION                          FDC:   ZONATION NAME
#ZONE                            RUN_2:   ZONE NAME
TOP .                       3504.0000:   TOP DEPTH
BOT .                      12100.5000:   BOTTOM DEPTH
RUN .                               2:   RUN NUMBER
LCCD.                             440:   LOGGING CONTRACTOR
SRVC.                    Schlumberger:   LOGGING CONT NAME
DICO.          QC Data Collectors Ltd:   DIG COMPANY NAME
LDAT.                      06/16/1981:   DATE LOGGED
ELD .F                        86.0000:   LOG DATUM ELEVATION
TDD .F                      7546.0000:   TOTAL DEPTH DRILLER
TDL .F                      7545.0000:   TOTAL DEPTH LOGGER
BOTL.F                     12100.0000:   BOTTOM DEPTH LOGGED
TOPL.F                      3504.0000:   TOP DEPTH LOGGED
CS1 .IN                        9.6250:   CASING SIZE 1
BS1 .IN                       12.2500:   BIT SIZE 1
DDB1.F                      7546.0000:   DEPTH DRILLED BIT 1
BHF .                              99:   FLUID CODE
DPT .                   Miscellaneous:   DRILLING FLUID TYPE
MUDD.                         14.0000:   FLUID DENSITY
MUDV.                         42.0000:   FLUID VISCOSITY
DFPH.                         11.0000:   FLUID PH
FL  .                          4.8000:   FLUID LOSS
RM  .OHMM                       .7300:   RM
RMT .DEGF                     74.0000:   RM TEMP
RMF .OHMM                       .4600:   RMF
RMFT.DEGF                     74.0000:   RMF TEMP
FSC .                               M:   RMF CODE
RMC .OHMM                      1.1200:   RMC
RMCT.DEGF                     74.0000:   RMC TEMP
CMC .                               M:   RMC CODE
TMAX.DEGF                    168.0000:   MAX REC TEMP
TIMC.                          7.0000:   TIME SINCE CIRCLN
~Curve Information Block
#MNEM.UNIT                                        API CODE    No Description
#=========                                        ========    == ===========
DEPT.F                                       00 001 00 00:     1  DEPTH
CALI.IN                                                  :     2  Caliper
NPHI.%                                                   :     3  Neutron Porosity
CILD.MMHO                                                :     4  Deep Induction Conductivity
DT.US/F                                                  :     5  Sonic Transit Time
GR.GAPI                                                  :     6  Gamma Ray
ILD.OHMM                                                 :     7  Deep Induction Resistivity
SFL.OHMM                                                 :     8  Medium Resistivity
SP.MV                                                    :     9  Spontaneous Potential
DPHI.%                                                   :    10  Porosity
~ASCII
# ...
10632.5000    10.1692    32.3740  1862.8438   130.0847    57.3217      .5305      .7025   -55.5897    15.1074
10633.0000    10.1214    33.8421  1870.4551   129.8513    55.9366      .5285      .7261   -56.5960    14.8480
10633.5000    10.0726    34.4288  1878.0645   129.1829    54.5234      .5265      .7225   -57.0646    14.1862
10634.0000    10.0379    33.9247  1885.6758   128.5146    54.4765      .5245      .7181   -57.0301    14.8804
10634.5000    10.0266    33.1921  1876.8770   128.2009    55.0400      .5274      .7165   -56.4702    15.8916
10635.0000    10.0238    32.9738  1862.6699   127.9418    55.3594      .5335      .7273   -55.5466    15.9226
10635.5000    10.0282    32.8689  1846.8047   127.6886    54.8859      .5393      .7384   -55.7833    15.0735
10636.0000    10.0410    32.5303  1830.8145   127.4677    53.9364      .5450      .7505   -56.3901    15.0212
10636.5000    10.0600    32.0888  1814.8262   127.2465    53.0707      .5508      .7622   -56.9111    15.5120
10637.0000    10.0690    31.6532  1800.1973   126.9547    52.2100      .5567      .7625   -56.5652    15.5290
10637.5000    10.0668    31.3958  1785.9160   126.5302    51.6661      .5626      .7642   -56.4899    14.8937
10638.0000    10.0528    31.5736  1771.6348   126.1056    51.3598      .5686      .7689   -57.1953    14.6772
10638.5000    10.0283    31.7186  1758.8379   125.7117    51.3190      .5747      .7657   -58.1202    14.7351
10639.0000    10.0013    31.6808  1746.2090   125.0502    51.7950      .5800      .7596   -58.6190    14.0093
10639.5000     9.9784    31.4977  1743.5176   124.2391    51.9951      .5848      .7497   -58.7726    12.8640
10640.0000     9.9592    31.2637  1740.8320   124.0570    51.8844      .5819      .7338   -59.4348    11.7467
10640.5000     9.9462    30.9678  1738.4434   124.8656    50.8968      .5780      .7092   -59.8781    10.6412
10641.0000     9.9211    31.1123  1745.8320   125.9043    51.2184      .5678      .6914   -59.4983     9.8257
10641.5000     9.9080    31.4498  1753.2188   126.2218    52.2223      .5568      .6798   -59.1510    10.3994
10642.0000     9.9475    31.7992  1763.2695   126.4097    53.4554      .5451      .6685   -59.0617    12.1211
10642.5000     9.9772    31.9226  1830.2949   126.4392    54.1571      .5289      .6635   -59.0328    13.1647
10643.0000     9.9995    32.0189  1905.6387   126.5206    54.3024      .5130      .6433   -59.3182    13.5907
10643.5000    10.0105    32.5435  1983.4570   126.9037    54.3741      .4933      .6162   -59.5425    13.7628
10644.0000    10.0090    33.4132  2064.4414   128.4741    55.0894      .4749      .5857   -59.6089    13.7732
10644.5000     9.9927    33.9770  2120.4805   130.9331    56.4595      .4680      .5595   -59.6594    13.8995
10645.0000     9.9805    33.6004  2161.7656   132.6931    58.2895      .4617      .5460   -59.6321    14.4515
10645.5000     9.9782    33.0698  2201.7617   133.7737    60.1688      .4562      .5513   -59.6225    15.5290
10646.0000     9.9698    33.4648  2210.4492   133.9700    61.3107      .4513      .5891   -59.7736    16.7819
10646.5000     9.9618    34.6558  2196.6133   133.7859    60.8051      .4483      .6330   -59.8268    17.4887
10647.0000     9.9568    35.5623  2168.1484   133.1287    59.6459      .4478      .6838   -59.8185    17.7706
10647.5000     9.9507    35.3088  2139.6875   131.6814    58.2870      .4494      .7367   -59.6429    17.5141
10648.0000     9.9463    34.3551  2110.8750   130.2366    56.9971      .4588      .7582   -59.4628    17.1681
10648.5000     9.9275    33.6439  2077.9570   128.9197    56.3854      .4696      .7584   -59.6395    16.7568
10649.0000     9.8942    33.1714  2045.0371   128.3787    56.1945      .4811      .7419   -59.8531    16.3714
10649.5000     9.8708    33.6903  2012.1191   128.7522    56.1509      .4928      .7088   -60.1926    15.8120
10650.0000     9.8560    34.7796  1985.4375   129.3035    55.0117      .5030      .6862   -60.4709    15.0440
10650.5000     9.8713    35.3854  1961.4766   130.0249    53.6429      .5103      .6836   -60.6827    14.7148
10651.0000     9.9003    35.0214  1942.4941   130.4814    52.2247      .5176      .6943   -60.4737    14.6072
10651.5000     9.8949    34.1052  1934.4863   130.3018    51.6445      .5215      .7056   -60.2098    14.4684
10652.0000     9.8345    33.9940  1926.4785   129.5349    51.7990      .5232      .7082   -60.2817    13.9024
10652.5000     9.7702    34.6897  1919.4492   128.7607    51.4096      .5249      .7092   -60.4830    13.3784
10653.0000     9.7309    34.7280  1912.7793   128.4514    51.3196      .5248      .7185   -60.6454    13.4521
10653.5000     9.7114    34.4074  1906.1094   128.2686    51.9140      .5247      .7260   -60.7074    14.0336
10654.0000     9.7181    33.8768  1897.5449   128.5632    52.9498      .5247      .7205   -60.7692    14.3468
10654.5000     9.7385    34.1222  1878.2891   129.0432    53.9832      .5249      .7122   -60.7615    14.3017
10655.0000     9.7615    35.0081  1859.0313   129.4883    54.9686      .5252      .6985   -60.6801    14.1248
10655.5000     9.7654    35.9426  1839.7500   129.9319    55.9662      .5346      .7007   -60.5988    14.2842
10656.0000     9.7413    37.0363  1826.0879   130.2100    57.5027      .5486      .7227   -60.4552    14.7743
10656.5000     9.7093    37.1984  1814.1074   129.7639    59.0812      .5531      .7643   -60.2933    15.0905
10657.0000     9.6676    36.4187  1802.1289   128.7080    58.6964      .5546      .8160   -60.0927    14.5517
10657.5000     9.6048    33.1995  1790.9160   127.1055    55.9908      .5548      .7923   -59.8436    14.0944
10658.0000     9.5363    31.9716  1782.9219   125.5732    53.6675      .5552      .7306   -59.3522    14.2201
10658.5000     9.5100    32.0048  1811.7812   124.7893    52.3135      .5561      .6930   -58.7584    14.6564
10659.0000     9.5576    32.4388  1895.5391   126.1259    51.3344      .5461      .6878   -58.4347    14.6960
10659.5000     9.5936    32.8464  1954.4980   127.4650    53.0806      .5287      .6905   -58.1637    14.4994
10660.0000     9.5880    33.1541  1976.0313   128.3523    55.8922      .5099      .6727   -58.3277    14.3142
10660.5000     9.5798    33.4950  1997.5645   129.3184    58.3339      .4980      .6343   -58.4917    14.3322
10661.0000     9.5746    34.1885  2019.0977   130.6797    59.6349      .4891      .6045   -58.8330    14.2986
10661.5000     9.5780    34.8046  2028.4551   133.1582    59.6793      .4831      .6047   -59.2122    14.6623
10662.0000     9.6518    35.1489  1991.7734   134.7458    59.1758      .4855      .6578   -58.9668    15.8385
10662.5000     9.7482    35.3301  1955.0918   134.8125    59.1921      .4920      .7384   -58.6880    16.9264
10663.0000     9.7688    35.1540  1918.4102   131.4353    59.7631      .5041      .8088   -58.7050    17.2989
10663.5000     9.6273    33.1287  1879.7988   128.2156    60.2921      .5202      .8583   -59.1869    16.9455
10664.0000     9.4901    32.0718  1840.8398   126.3843    57.3128      .5391      .8899   -60.0316    15.7324
10664.5000     9.4762    31.8463  1801.9297   125.1683    55.4754      .5556      .8717   -60.4025    14.3557
10665.0000     9.4972    32.3386  1764.7051   124.4852    54.3754      .5714      .8501   -60.4792    14.2661
10665.5000     9.5330    32.1721  1737.0137   124.1912    53.6716      .5825      .8124   -60.5679    14.5473
10666.0000     9.5567    31.1845  1733.3574   124.5184    53.4465      .5908      .7760   -60.7080    14.8642
10666.5000     9.5603    30.9840  1728.9629   124.9991    54.4272      .5982      .7408   -60.6007    15.3064
10667.0000     9.5290    32.0615  1717.2559   126.4778    56.5137      .5960      .7023   -60.1969    15.8282
10667.5000     9.5275    33.4029  1705.5234   128.6733    58.5978      .5939      .6799   -59.6987    16.5269
10668.0000     9.5869    35.1393  1692.5293   131.0217    59.8470      .5917      .6566   -59.5276    16.9709
10668.5000     9.6424    35.9813  1669.0156   132.2820    59.3821      .5896      .6518   -59.5797    16.7712
