~VERSION INFORMATION
VERS.                                                 2.0:   CWLS Log ASCII Standard-VERSION 2.0
WRAP.                                                  NO:   One line per depth step
~Well Information Block
STRT.F                                          1471.0000:   Top Depth
STOP.F                                         12100.0000:   Bottom Depth
STEP.F                                             .50000:   Depth Increment
NULL.                                            -999.250:   Null Value
FLD .                                        MU BLK A 175:   Field Name
WELL.                           OCSG03931   001 ST00 BP00:   NAME
API .                                        427124004600:   WELL API
EDF .F                                            85.0000:   ELEV DRILL FLOOR
COMP.                                GULF OIL CORPORATION:   OPERATOR
BN  .                                               A 175:   BLOCK
CTRY.                                                 USA:   COUNTRY NAME
CNTY.                                            M I E AD:   COUNTY NAME
EKB .F                                            86.0000:   ELEV KELLY BUSHING
TDD .F                                          12102.000:   FINAL TD DRILLER
STAT.                                               TEXAS:   STATE NAME
UWI .                                        427124004600:   WELL API
DICO.               IHS : Digitizing Company
~PARAMETER INFORMATION (zones)
#MNEM.UNIT                       Value     Description
#=========                       =====     ===========
#ZONATION                          CNL:   ZONATION NAME
#ZONE                            RUN_2:   ZONE NAME
TOP .                       3452.0000:   TOP DEPTH
BOT .                      12100.5000:   BOTTOM DEPTH
RUN .                               2:   RUN NUMBER
LCCD.                             440:   LOGGING CONTRACTOR
SRVC.                    Schlumberger:   LOGGING CONT NAME
DICO.          QC Data Collectors Ltd:   DIG COMPANY NAME
LDAT.                      06/16/1981:   DATE LOGGED
ELD .F                        86.0000:   LOG DATUM ELEVATION
TDD .F                      7546.0000:   TOTAL DEPTH DRILLER
TDL .F                      7545.0000:   TOTAL DEPTH LOGGER
BOTL.F                     12100.0000:   BOTTOM DEPTH LOGGED
TOPL.F                      3504.0000:   TOP DEPTH LOGGED
CS1 .IN                        9.6250:   CASING SIZE 1
BS1 .IN                       12.2500:   BIT SIZE 1
DDB1.F                      7546.0000:   DEPTH DRILLED BIT 1
BHF .                              99:   FLUID CODE
DPT .                   Miscellaneous:   DRILLING FLUID TYPE
MUDD.                         14.0000:   FLUID DENSITY
MUDV.                         42.0000:   FLUID VISCOSITY
DFPH.                         11.0000:   FLUID PH
FL  .                          4.8000:   FLUID LOSS
RM  .OHMM                       .7300:   RM
RMT .DEGF                     74.0000:   RM TEMP
RMF .OHMM                       .4600:   RMF
RMFT.DEGF                     74.0000:   RMF TEMP
FSC .                               M:   RMF CODE
RMC .OHMM                      1.1200:   RMC
RMCT.DEGF                     74.0000:   RMC TEMP
CMC .                               M:   RMC CODE
TMAX.DEGF                    168.0000:   MAX REC TEMP
TIMC.                          7.0000:   TIME SINCE CIRCLN
~PARAMETER INFORMATION (zones)
#MNEM.UNIT                       Value     Description
#=========                       =====     ===========
#ZONATION                          DIL:   ZONATION NAME
#ZONE                            RUN_1:   ZONE NAME
TOP .                       1471.0000:   TOP DEPTH
BOT .                      12095.5000:   BOTTOM DEPTH
RUN .                               1:   RUN NUMBER
LCCD.                             440:   LOGGING CONTRACTOR
SRVC.                    Schlumberger:   LOGGING CONT NAME
DICO.          QC Data Collectors Ltd:   DIG COMPANY NAME
LDAT.                      05/25/1981:   DATE LOGGED
ELD .F                        86.0000:   LOG DATUM ELEVATION
TDD .F                      4590.0000:   TOTAL DEPTH DRILLER
TDL .F                      3529.0000:   TOTAL DEPTH LOGGER
BOTL.F                     12095.0000:   BOTTOM DEPTH LOGGED
TOPL.F                      1471.0000:   TOP DEPTH LOGGED
CS1 .IN                       20.0000:   CASING SIZE 1
BS1 .IN                       12.2500:   BIT SIZE 1
DDB1.F                      4590.0000:   DEPTH DRILLED BIT 1
BHF .                              99:   FLUID CODE
DPT .                   Miscellaneous:   DRILLING FLUID TYPE
MUDD.                         11.4000:   FLUID DENSITY
MUDV.                         44.0000:   FLUID VISCOSITY
DFPH.                         11.0000:   FLUID PH
FL  .                         10.0000:   FLUID LOSS
RM  .OHMM                       .5200:   RM
RMT .DEGF                     75.0000:   RM TEMP
RMF .OHMM                       .3500:   RMF
RMFT.DEGF                     75.0000:   RMF TEMP
FSC .                               M:   RMF CODE
RMC .OHMM                       .8800:   RMC
RMCT.DEGF                     75.0000:   RMC TEMP
CMC .                               M:   RMC CODE
TMAX.DEGF                    125.0000:   MAX REC TEMP
TIMC.                         14.0000:   TIME SINCE CIRCLN
~PARAMETER INFORMATION (zones)
#MNEM.UNIT                       Value     Description
#=========                       =====     ===========
#ZONATION                          FDC:   ZONATION NAME
#ZONE                            RUN_4:   ZONE NAME
TOP .                      11080.0000:   TOP DEPTH
BOT .                      12095.0000:   BOTTOM DEPTH
RUN .                               4:   RUN NUMBER
LCCD.                             440:   LOGGING CONTRACTOR
SRVC.                    Schlumberger:   LOGGING CONT NAME
DICO.          QC Data Collectors Ltd:   DIG COMPANY NAME
LDAT.                      07/06/1981:   DATE LOGGED
ELD .F                        86.0000:   LOG DATUM ELEVATION
TDD .F                     12100.0000:   TOTAL DEPTH DRILLER
TDL .F                     12102.0000:   TOTAL DEPTH LOGGER
BOTL.F                     12095.0000:   BOTTOM DEPTH LOGGED
TOPL.F                     11080.0000:   TOP DEPTH LOGGED
CS1 .IN                        9.6250:   CASING SIZE 1
BS1 .IN                        8.5000:   BIT SIZE 1
DDB1.F                     12100.0000:   DEPTH DRILLED BIT 1
BHF .                              99:   FLUID CODE
DPT .                   Miscellaneous:   DRILLING FLUID TYPE
MUDD.                         15.7000:   FLUID DENSITY
MUDV.                         50.0000:   FLUID VISCOSITY
DFPH.                         11.0000:   FLUID PH
FL  .                          4.2000:   FLUID LOSS
RM  .OHMM                      1.2000:   RM
RMT .DEGF                     90.0000:   RM TEMP
RMF .OHMM                       .6600:   RMF
RMFT.DEGF                     78.0000:   RMF TEMP
FSC .                               M:   RMF CODE
RMC .OHMM                      1.4200:   RMC
RMCT.DEGF                     78.0000:   RMC TEMP
CMC .                               M:   RMC CODE
TMAX.DEGF                    277.0000:   MAX REC TEMP
TIMC.                         20.0000:   TIME SINCE CIRCLN
~PARAMETER INFORMATION (zones)
#MNEM.UNIT                       Value     Description
#=========                       =====     ===========
#ZONATION                          FDC:   ZONATION NAME
#ZONE                            RUN_2:   ZONE NAME
TOP .                       3504.0000:   TOP DEPTH
BOT .                      12100.5000:   BOTTOM DEPTH
RUN .                               2:   RUN NUMBER
LCCD.                             440:   LOGGING CONTRACTOR
SRVC.                    Schlumberger:   LOGGING CONT NAME
DICO.          QC Data Collectors Ltd:   DIG COMPANY NAME
LDAT.                      06/16/1981:   DATE LOGGED
ELD .F                        86.0000:   LOG DATUM ELEVATION
TDD .F                      7546.0000:   TOTAL DEPTH DRILLER
TDL .F                      7545.0000:   TOTAL DEPTH LOGGER
BOTL.F                     12100.0000:   BOTTOM DEPTH LOGGED
TOPL.F                      3504.0000:   TOP DEPTH LOGGED
CS1 .IN                        9.6250:   CASING SIZE 1
BS1 .IN                       12.2500:   BIT SIZE 1
DDB1.F                      7546.0000:   DEPTH DRILLED BIT 1
BHF .                              99:   FLUID CODE
DPT .                   Miscellaneous:   DRILLING FLUID TYPE
MUDD.                         14.0000:   FLUID DENSITY
MUDV.                         42.0000:   FLUID VISCOSITY
DFPH.                         11.0000:   FLUID PH
FL  .                          4.8000:   FLUID LOSS
RM  .OHMM                       .7300:   RM
RMT .DEGF                     74.0000:   RM TEMP
RMF .OHMM                       .4600:   RMF
RMFT.DEGF                     74.0000:   RMF TEMP
FSC .                               M:   RMF CODE
RMC .OHMM                      1.1200:   RMC
RMCT.DEGF                     74.0000:   RMC TEMP
CMC .                               M:   RMC CODE
TMAX.DEGF                    168.0000:   MAX REC TEMP
TIMC.                          7.0000:   TIME SINCE CIRCLN
~Curve Information Block
#MNEM.UNIT                                        API CODE    No Description
#=========                                        ========    == ===========
DEPT.F                                       00 001 00 00:     1  DEPTH
CALI.IN                                                  :     2  Caliper
NPHI.%                                                   :     3  Neutron Porosity
CILD.MMHO                                                :     4  Deep Induction Conductivity
DT.US/F                                                  :     5  Sonic Transit Time
GR.GAPI                                                  :     6  Gamma Ray
ILD.OHMM                                                 :     7  Deep Induction Resistivity
SFL.OHMM                                                 :     8  Medium Resistivity
SP.MV                                                    :     9  Spontaneous Potential
DPHI.%                                                   :    10  Porosity
~ASCII
# ...
 9245.5000    10.1365    32.2870  1601.5625   127.5239    42.3373      .6246      .7732   -81.1272    17.0424
 9246.0000    10.1009    32.9960  1605.2441   127.3016    41.9742      .6226      .7806   -81.4340    17.4905
 9246.5000    10.1002    33.3627  1608.9199   127.0790    43.8267      .6182      .7815   -81.7676    18.6425
 9247.0000    10.1692    33.0174  1612.6016   127.0931    46.8594      .6138      .7693   -82.0492    19.4694
 9247.5000    10.2240    32.0851  1617.9648   127.1311    49.5559      .6094      .7525   -82.0941    19.3456
 9248.0000    10.2325    31.7158  1624.5117   127.1689    50.5380      .6050      .7343   -82.0753    18.7560
 9248.5000    10.1989    32.0740  1631.0469   127.3994    50.0957      .6005      .7265   -81.9354    18.1029
 9249.0000    10.1730    32.9098  1637.5938   127.6333    48.8860      .5961      .7311   -81.7953    17.6600
 9249.5000    10.1406    33.3738  1644.1289   127.9039    48.8069      .5927      .7361   -81.7379    17.3950
 9250.0000    10.1286    33.6022  1650.6738   128.2476    49.5252      .5938      .7432   -81.7146    17.1820
 9250.5000    10.1229    33.9431  1654.9590   128.2834    48.8297      .5950      .7354   -81.6002    16.9801
 9251.0000    10.1246    34.7258  1655.7402   128.0757    47.3574      .5961      .7241   -81.3376    16.8168
 9251.5000    10.1230    35.3549  1656.5234   127.9368    46.0938      .5974      .7182   -81.1218    16.7147
 9252.0000    10.1163    35.2786  1657.3047   128.0884    45.5385      .5990      .7313   -80.9843    16.7748
 9252.5000    10.1198    33.8901  1652.1602   128.3857    45.5035      .6006      .7446   -80.8805    17.4720
 9253.0000    10.1307    32.7742  1645.6387   128.4663    45.4897      .6022      .7566   -80.8068    18.6616
 9253.5000    10.1437    31.8795  1639.1152   128.3508    45.7736      .6034      .7680   -80.7328    19.1886
 9254.0000    10.1596    31.4299  1636.9219   127.9550    47.0262      .6037      .7786   -80.6591    18.8636
 9254.5000    10.1714    31.2231  1635.4863   127.7026    49.2983      .6040      .7788   -80.7249    17.9246
 9255.0000    10.1827    31.0400  1634.0547   127.6034    50.0687      .6044      .7789   -80.8165    17.0917
 9255.5000    10.1956    30.8867  1635.3047   127.7028    49.1143      .6048      .7760   -81.0353    17.0858
 9256.0000    10.2075    30.9655  1643.5840   128.1472    47.7009      .6056      .7605   -81.0341    17.6592
 9256.5000    10.2165    32.2671  1651.8496   128.5918    46.2239      .6064      .7453   -81.0870    17.7339
 9257.0000    10.2224    33.7176  1660.1289   128.8718    46.1196      .6046      .7203   -81.1772    17.6301
 9257.5000    10.2245    34.2939  1691.2910   129.1304    47.2642      .5931      .6951   -81.0626    17.6939
 9258.0000    10.2246    34.3160  1726.2910   129.5916    49.4896      .5813      .6722   -80.9163    17.6755
 9258.5000    10.2273    33.7670  1793.2676   130.0989    52.6058      .5672      .6487   -80.6089    16.4122
 9259.0000    10.2277    33.0100  1963.6563   130.8403    54.5613      .5282      .6279   -80.3367    15.7246
 9259.5000    10.2292    32.2678  2005.0391   131.7800    55.2778      .5024      .6108   -80.1991    16.2677
 9260.0000    10.2330    32.1418  2054.6406   133.4106    56.8064      .4859      .5947   -80.0054    17.2451
 9260.5000    10.2385    32.8302  2091.2109   135.5872    59.7556      .4779      .5773   -79.7096    17.7838
 9261.0000    10.2643    33.4139  2074.5391   138.0566    62.0522      .4755      .5535   -79.2981    18.0864
 9261.5000    10.2994    33.8974  2007.0195   138.7981    59.7311      .4777      .5440   -79.0027    18.5643
 9262.0000    10.3336    35.1740  1891.7773   138.2153    52.4586      .4896      .6375   -79.1613    20.1150
 9262.5000    10.3577    36.1881  1793.4648   135.1101    49.9608      .5077      .9066   -79.8348    21.4417
 9263.0000    10.3665    36.8683  1719.6074   131.0715    48.1132      .5255     1.0618   -80.4728    22.4529
 9263.5000    10.3553    36.5153  1665.3516   128.5237    49.0038      .5436     1.1142   -80.8875    21.6982
 9264.0000    10.3304    35.0266  1626.9883   126.5487    50.8637      .5662     1.0460   -81.3026    19.9411
 9264.5000    10.3181    33.8422  1600.3066   126.0482    52.0341      .5932      .9612   -81.3735    19.0847
 9265.0000    10.3103    33.9862  1574.3672   126.6619    52.6414      .6149      .8785   -81.3585    19.3360
 9265.5000    10.3040    34.2188  1550.7031   127.3173    53.0793      .6345      .8215   -81.3448    19.5901
 9266.0000    10.3028    34.0419  1546.8926   127.7366    53.2486      .6403      .7792   -81.3312    19.5363
 9266.5000    10.3026    33.3113  1562.4863   127.2687    51.7961      .6456      .7572   -81.3175    19.3905
 9267.0000    10.3058    33.3492  1587.7813   126.8260    50.8097      .6351      .7541   -81.3038    19.2228
 9267.5000    10.3098    33.3824  1617.4336   127.7317    50.2679      .6248      .7554   -81.1705    19.0609
 9268.0000    10.3151    33.1088  1646.7637   128.9651    50.1751      .6146      .7315   -80.9730    18.9898
 9268.5000    10.3173    32.5000  1664.2637   130.0498    48.8370      .6046      .7088   -81.1239    19.1024
 9269.0000    10.3204    32.3134  1681.7871   130.4778    46.7808      .5948      .7075   -81.1781    19.2542
 9269.5000    10.3319    32.2202  1699.3105   130.2231    47.4973      .5875      .7140   -81.0869    18.6505
 9270.0000    10.3487    32.0202  1716.8359   130.5046    50.5251      .5819      .7196   -80.9780    17.7153
 9270.5000    10.3649    31.8019  1736.2148   131.1687    52.8707      .5763      .7090   -80.8783    17.0225
 9271.0000    10.3745    32.2553  1755.6699   131.9976    54.0672      .5708      .6997   -80.8038    16.8036
 9271.5000    10.3657    33.6763  1775.0996   132.4636    53.9287      .5654      .6930   -80.4740    18.2224
 9272.0000    10.3521    34.4473  1782.6992   132.9163    53.7901      .5601      .6863   -80.5353    19.5814
 9272.5000    10.3378    35.0339  1786.1270   132.7798    53.2339      .5563      .6846   -80.7921    20.9103
 9273.0000    10.3131    35.5196  1789.5547   132.4512    50.2748      .5526      .6836   -80.8035    21.1732
 9273.5000    10.2897    35.9268  1791.7070   132.3159    46.9379      .5521      .6866   -80.6987    20.5801
 9274.0000    10.2698    35.0988  1786.6953   132.4514    45.2367      .5559      .7019   -80.6034    19.8961
 9274.5000    10.2467    34.1332  1781.6836   131.5266    45.3933      .5596      .7260   -80.9144    19.8155
 9275.0000    10.2256    33.4869  1776.6660   130.3904    46.4091      .5619      .7518   -81.2067    19.7224
 9275.5000    10.2064    33.1437  1771.6523   129.9453    47.4065      .5634      .7712   -81.4253    19.6563
 9276.0000    10.2083    33.0944  1766.6406   130.5786    48.3364      .5649      .7649   -81.4297    19.8512
 9276.5000    10.2134    33.5458  1761.7305   131.1533    49.2664      .5675      .7498   -81.5796    20.1475
 9277.0000    10.2204    34.8777  1761.6270   131.6553    50.1963      .5706      .7287   -81.4698    19.1775
 9277.5000    10.2269    35.8572  1761.5254   131.7249    51.1188      .5738      .7123   -81.0101    17.9423
 9278.0000    10.2265    36.1675  1761.4219   131.2131    51.5249      .5726      .7034   -80.4941    17.1905
 9278.5000    10.2198    34.6138  1761.3184   130.6414    50.8895      .5712      .6987   -80.6865    18.1707
 9279.0000    10.2121    33.0845  1761.2168   130.5649    50.8073      .5691      .6956   -80.8761    18.4917
 9279.5000    10.2011    32.7410  1762.3359   130.8970    51.4673      .5649      .6940   -81.0365    18.7375
 9280.0000    10.2025    33.5776  1763.6621   131.1743    52.0575      .5606      .7005   -81.1965    19.5461
 9280.5000    10.2074    35.0752  1764.9863   131.3542    51.8531      .5572      .7070   -81.3361    20.2831
 9281.0000    10.2116    35.4544  1766.3125   130.9529    51.8250      .5579      .7086   -81.4757    20.1799
 9281.5000    10.2225    34.4634  1767.6387   130.5537    52.3763      .5585      .7083   -81.4447    19.5151
