~VERSION INFORMATION
VERS.                             2.0:   CWLS Log ASCII Standard-VERSION 2.0
WRAP.                              NO:   One line per depth step
~Well Information Block
STRT.F                      3993.0000:   Top Depth
STOP.F                     13285.0000:   Bottom Depth
STEP.F                         .50000:   Depth Increment
NULL.                        -999.250:   Null Value
FLD .                     MU BLK A 85:   Field Name
WELL.       OCSG03061  B004 ST00 BP00:   NAME
API .                    427124009200:   WELL API
EDF .F                       122.0000:   ELEV DRILL FLOOR
COMP.             TRANSCO EXPLORATION:   OPERATOR
BN  .                           A 859:   BLOCK
CTRY.                             USA:   COUNTRY NAME
CNTY.                        M I E AD:   COUNTY NAME
EKB .F                       123.0000:   ELEV KELLY BUSHING
TDD .F                          0.000:   FINAL TD DRILLER
STAT.                           TEXAS:   STATE NAME
UWI .                    427124009200:   WELL API
DICO.               IHS : Digitizing Company
~PARAMETER INFORMATION (zones)
#MNEM.UNIT                       Value     Description
#=========                       =====     ===========
#ZONATION                          CNL:   ZONATION NAME
#ZONE                            RUN_1:   ZONE NAME
TOP .                       3993.0000:   TOP DEPTH
BOT .                       9346.5000:   BOTTOM DEPTH
RUN .                               1:   RUN NUMBER
LCCD.                              20:   LOGGING CONTRACTOR
SRVC.                          Baroil:   LOGGING CONT NAME
DICO.          QC Data Collectors Ltd:   DIG COMPANY NAME
LDAT.                      12/10/1986:   DATE LOGGED
ELD .F                       123.0000:   LOG DATUM ELEVATION
TDD .F                      9350.0000:   TOTAL DEPTH DRILLER
TDL .F                      9348.0000:   TOTAL DEPTH LOGGER
BOTL.F                      9346.0000:   BOTTOM DEPTH LOGGED
TOPL.F                      4002.0000:   TOP DEPTH LOGGED
CS1 .IN                       13.3750:   CASING SIZE 1
BS1 .IN                       12.2500:   BIT SIZE 1
DDB1.F                      9350.0000:   DEPTH DRILLED BIT 1
BHF .                              65:   FLUID CODE
DPT .                        INVERMUL:   DRILLING FLUID TYPE
MUDD.                         12.8000:   FLUID DENSITY
MUDV.                         40.0000:   FLUID VISCOSITY
DFPH.                          9.2000:   FLUID PH
FL  .                         11.0000:   FLUID LOSS
RM  .OHMM                       .3400:   RM
RMT .DEGF                     70.0000:   RM TEMP
RMF .OHMM                       .1600:   RMF
RMFT.DEGF                     70.0000:   RMF TEMP
FSC .                               M:   RMF CODE
RMC .OHMM                       .4200:   RMC
RMCT.DEGF                     70.0000:   RMC TEMP
CMC .                               C:   RMC CODE
TMAX.DEGF                    202.0000:   MAX REC TEMP
~PARAMETER INFORMATION (zones)
#MNEM.UNIT                       Value     Description
#=========                       =====     ===========
#ZONATION                          DIL:   ZONATION NAME
#ZONE                            RUN_1:   ZONE NAME
TOP .                       4002.0000:   TOP DEPTH
BOT .                       9336.5000:   BOTTOM DEPTH
RUN .                               1:   RUN NUMBER
LCCD.                              20:   LOGGING CONTRACTOR
SRVC.                          Baroil:   LOGGING CONT NAME
DICO.          QC Data Collectors Ltd:   DIG COMPANY NAME
LDAT.                      12/10/1986:   DATE LOGGED
ELD .F                       123.0000:   LOG DATUM ELEVATION
TDD .F                      9350.0000:   TOTAL DEPTH DRILLER
TDL .F                      9348.0000:   TOTAL DEPTH LOGGER
BOTL.F                      9346.0000:   BOTTOM DEPTH LOGGED
TOPL.F                      4002.0000:   TOP DEPTH LOGGED
CS1 .IN                       13.3750:   CASING SIZE 1
BS1 .IN                       12.2500:   BIT SIZE 1
DDB1.F                      9350.0000:   DEPTH DRILLED BIT 1
BHF .                              65:   FLUID CODE
DPT .                        INVERMUL:   DRILLING FLUID TYPE
MUDD.                         12.8000:   FLUID DENSITY
MUDV.                         40.0000:   FLUID VISCOSITY
DFPH.                          9.2000:   FLUID PH
FL  .                         11.0000:   FLUID LOSS
RM  .OHMM                       .3400:   RM
RMT .DEGF                     70.0000:   RM TEMP
RMF .OHMM                       .1600:   RMF
RMFT.DEGF                     70.0000:   RMF TEMP
FSC .                               M:   RMF CODE
RMC .OHMM                       .4200:   RMC
RMCT.DEGF                     70.0000:   RMC TEMP
CMC .                               C:   RMC CODE
TMAX.DEGF                    202.0000:   MAX REC TEMP
~PARAMETER INFORMATION (zones)
#MNEM.UNIT                       Value     Description
#=========                       =====     ===========
#ZONATION                          DIL:   ZONATION NAME
#ZONE                            RUN_3:   ZONE NAME
TOP .                       9336.0000:   TOP DEPTH
BOT .                      13285.5000:   BOTTOM DEPTH
RUN .                               3:   RUN NUMBER
LCCD.                              20:   LOGGING CONTRACTOR
SRVC.                          Baroil:   LOGGING CONT NAME
DICO.          QC Data Collectors Ltd:   DIG COMPANY NAME
LDAT.                      12/28/1986:   DATE LOGGED
ELD .F                       123.0000:   LOG DATUM ELEVATION
TDD .                            NULL:   TOTAL DEPTH DRILLER
TDL .                            NULL:   TOTAL DEPTH LOGGER
BOTL.F                     13291.0000:   BOTTOM DEPTH LOGGED
TOPL.F                     13285.0000:   TOP DEPTH LOGGED
CS1 .IN                        9.6250:   CASING SIZE 1
BS1 .IN                        8.5000:   BIT SIZE 1
DDB1.                            NULL:   DEPTH DRILLED BIT 1
BHF .                              35:   FLUID CODE
DPT .                       PETROFREE:   DRILLING FLUID TYPE
MUDD.                         14.9000:   FLUID DENSITY
MUDV.                         49.0000:   FLUID VISCOSITY
DFPH.                            NULL:   FLUID PH
FL  .                          6.0000:   FLUID LOSS
RM  .                            NULL:   RM
RMT .                            NULL:   RM TEMP
RMF .                            NULL:   RMF
RMFT.                            NULL:   RMF TEMP
FSC .                            NULL:   RMF CODE
RMC .                            NULL:   RMC
RMCT.                            NULL:   RMC TEMP
CMC .                            NULL:   RMC CODE
TMAX.DEGF                    274.0000:   MAX REC TEMP
~PARAMETER INFORMATION (zones)
#MNEM.UNIT                       Value     Description
#=========                       =====     ===========
#ZONATION                          FDC:   ZONATION NAME
#ZONE                            RUN_1:   ZONE NAME
TOP .                       3993.0000:   TOP DEPTH
BOT .                       9346.5000:   BOTTOM DEPTH
RUN .                               1:   RUN NUMBER
LCCD.                              20:   LOGGING CONTRACTOR
SRVC.                          Baroil:   LOGGING CONT NAME
DICO.          QC Data Collectors Ltd:   DIG COMPANY NAME
LDAT.                      12/10/1986:   DATE LOGGED
ELD .F                       123.0000:   LOG DATUM ELEVATION
TDD .F                      9350.0000:   TOTAL DEPTH DRILLER
TDL .F                      9348.0000:   TOTAL DEPTH LOGGER
BOTL.F                      9346.0000:   BOTTOM DEPTH LOGGED
TOPL.F                      4002.0000:   TOP DEPTH LOGGED
CS1 .IN                       13.3750:   CASING SIZE 1
BS1 .IN                       12.2500:   BIT SIZE 1
DDB1.F                      9350.0000:   DEPTH DRILLED BIT 1
BHF .                              65:   FLUID CODE
DPT .                        INVERMUL:   DRILLING FLUID TYPE
MUDD.                         12.8000:   FLUID DENSITY
MUDV.                         40.0000:   FLUID VISCOSITY
DFPH.                          9.2000:   FLUID PH
FL  .                         11.0000:   FLUID LOSS
RM  .OHMM                       .3400:   RM
RMT .DEGF                     70.0000:   RM TEMP
RMF .OHMM                       .1600:   RMF
RMFT.DEGF                     70.0000:   RMF TEMP
FSC .                               M:   RMF CODE
RMC .OHMM                       .4200:   RMC
RMCT.DEGF                     70.0000:   RMC TEMP
CMC .                               C:   RMC CODE
TMAX.DEGF                    202.0000:   MAX REC TEMP
~Curve Information Block
#MNEM.UNIT                    API CODE    No Description
#=========                    ========    == ===========
DEPT.F                   00 001 00 00:     1  DEPTH
NPHI.%                               :     2  Neutron Porosity
CILD.MMHO                            :     3  Deep Induction Conductivity
GR.GAPI                              :     4  Gamma Ray
ILD.OHMM                             :     5  Deep Induction Resistivity
ILM.OHMM                             :     6  Medium Induction Resistivity
RFOC.OHMM                            :     7  Medium Resistivity
SP.MV                                :     8  Spontaneous Potential
CALI.IN                              :     9  Caliper
DRHO.G/C3                            :    10  Bulk Density Correction
GRD.GAPI                             :    11  Gamma Ray
RHOB.G/C3                            :    12  Bulk Density
~ASCII
# ...
 7897.0000    27.8670  1022.8057  -999.2500     1.0051      .9705      .9566   -65.6937    16.2342      .0978    46.4463     2.4841
 7897.5000    28.8585  1025.5371  -999.2500      .9989      .9627      .9518   -65.7324    16.2898      .0943    46.3712     2.4758
 7898.0000    30.8325  1031.2246  -999.2500      .9905      .9574      .9470   -65.8429    16.3190      .0762    46.6467     2.4547
 7898.5000    31.8658  1043.9336  -999.2500      .9823      .9531      .9437   -65.9490    16.3404      .0526    47.0637     2.4317
 7899.0000    31.7838  1055.9648  -999.2500      .9637      .9492      .9433   -66.0527    16.3515      .0304    47.2693     2.4111
 7899.5000    30.7315  1064.0449  -999.2500      .9429      .9481      .9429   -66.1563    16.3777      .0332    46.7842     2.3972
 7900.0000    30.2957  1074.2812  -999.2500      .9319      .9470      .9284   -66.2391    16.3901      .0511    45.9623     2.3910
 7900.5000    30.5133  1083.5762  -999.2500      .9301      .9386      .9120   -66.2811    16.3169      .0272    45.2413     2.3902
 7901.0000    31.8595  1089.4414  -999.2500      .9284      .9260      .9269   -66.3231    16.1472      .0143    46.6738     2.3967
 7901.5000    31.7096  1103.7988  -999.2500      .9025      .9039      .9474   -66.3684    16.3111      .0159    48.7873     2.4090
 7902.0000    30.2299  1128.9219  -999.2500      .8741      .8770      .9513   -66.4935    16.3626      .0248    50.2053     2.4187
 7902.5000    30.4762  1152.1895  -999.2500      .8466      .8574      .9523   -66.6187    16.3145      .0264    50.8360     2.4249
 7903.0000    33.7534  1161.7441  -999.2500      .8478      .8523      .9314   -66.7439    16.2632      .0173    49.9094     2.4178
 7903.5000    35.1783  1159.0391  -999.2500      .8506      .8528      .9056   -66.7074    16.2039     -.0005    47.0413     2.4013
 7904.0000    33.5782  1151.4336  -999.2500      .8534      .8585      .9089   -66.6084    16.1461     -.0109    45.9839     2.3896
 7904.5000    33.0743  1142.8574  -999.2500      .8580      .8642      .9165   -66.5093    16.0927     -.0097    46.1276     2.3820
 7905.0000    34.6981  1135.5313  -999.2500      .8645      .8722      .9284   -66.3418    16.0612      .0098    46.4543     2.3732
 7905.5000    35.0201  1129.9746  -999.2500      .8709      .8811      .9462   -66.1534    16.0339      .0210    46.2058     2.3673
 7906.0000    34.3441  1126.3965  -999.2500      .8774      .8905      .9640   -65.9834    16.0374      .0315    46.1097     2.3888
 7906.5000    33.3904  1125.3047  -999.2500      .8823      .9012      .9655   -65.8970    16.0677      .0662    46.6676     2.4047
 7907.0000    33.6331  1125.8809  -999.2500      .8872      .8772      .9670   -65.8107    16.1240      .0603    47.1584     2.4132
 7907.5000    34.3960  1129.0059  -999.2500      .8850      .8461      .9674   -65.9828    16.2119      .0431    46.7318     2.4152
 7908.0000    34.2847  1132.0098  -999.2500      .8693      .8407      .9665   -66.2472    16.3146      .0184    46.8082     2.4122
 7908.5000    32.7619  1131.2285  -999.2500      .8634      .8449      .9461   -66.5118    16.4345      .0042    48.7478     2.4140
 7909.0000    31.6784  1132.8105  -999.2500      .8658      .8705      .9233   -66.7445    16.4436     -.0027    47.4037     2.4133
 7909.5000    31.6428  1138.0918  -999.2500      .8589      .8650      .9161   -66.9763    16.3415     -.0069    44.2792     2.3798
 7910.0000    32.4621  1153.8477  -999.2500      .8408      .8502      .9089   -67.0547    16.1619     -.0106    43.5674     2.3536
 7910.5000    32.8730  1183.9219  -999.2500      .8241      .8322      .9081   -66.9569    16.0767     -.0145    44.7206     2.3507
 7911.0000    32.3679  1206.6445  -999.2500      .8184      .8089      .9184   -66.8590    16.0145     -.0189    47.2238     2.3546
 7911.5000    31.8654  1213.7500  -999.2500      .8127      .7907      .9289   -66.7399    15.9161     -.0210    48.2965     2.3555
 7912.0000    32.1905  1205.7539  -999.2500      .8076      .7803      .9195   -66.5975    15.7918     -.0207    48.4642     2.3642
 7912.5000    33.1418  1193.0801  -999.2500      .8189      .7870      .8974   -66.4552    15.7457     -.0251    47.7182     2.3788
 7913.0000    34.4460  1178.3770  -999.2500      .8303      .7938      .8889   -66.3153    16.2122     -.0548    46.4321     2.3861
 7913.5000    34.3671  1169.5527  -999.2500      .8420      .8042      .8890   -66.3384    16.5817     -.0687    44.2792     2.3746
 7914.0000    34.1103  1188.7969  -999.2500      .8291      .8255      .8938   -66.3615    16.6722     -.0466    42.7764     2.3639
 7914.5000    33.5173  1212.2871  -999.2500      .8164      .8452      .9051   -66.3584    16.6489     -.0180    43.5097     2.3602
 7915.0000    32.4562  1230.9941  -999.2500      .8062      .8444      .9165   -66.2787    16.6980     -.0037    46.7182     2.3697
 7915.5000    31.4462  1232.5156  -999.2500      .7989      .8388      .9206   -66.2157    16.6243      .0013    49.2263     2.3765
 7916.0000    31.3171  1236.2852  -999.2500      .7923      .8279      .9108   -66.2673    16.4825     -.0043    50.0117     2.3719
 7916.5000    31.2881  1244.9863  -999.2500      .7919      .8150      .9011   -66.1803    16.4156     -.0167    50.8354     2.3545
 7917.0000    31.0453  1256.9648  -999.2500      .7916      .7969      .8915   -66.0463    16.5215     -.0211    51.9581     2.3434
 7917.5000    32.0049  1275.8770  -999.2500      .7902      .7956      .8852   -65.9121    16.6584     -.0035    51.5555     2.3483
 7918.0000    33.1916  1294.8125  -999.2500      .7781      .7940      .8805   -65.7291    16.7712      .0127    50.0992     2.3632
 7918.5000    33.2339  1312.5586  -999.2500      .7662      .7885      .8758   -65.5229    16.6818      .0109    48.6776     2.3703
 7919.0000    32.7737  1305.3203  -999.2500      .7591      .7830      .8720   -65.3165    16.5546     -.0001    48.0943     2.3651
 7919.5000    32.6375  1297.6836  -999.2500      .7630      .7851      .8693   -65.7491    16.5443     -.0168    49.5197     2.3484
 7920.0000    32.5500  1283.2031  -999.2500      .7668      .7945      .8667   -66.2312    16.5463     -.0282    52.0549     2.3325
 7920.5000    32.2669  1268.4258  -999.2500      .7707      .8039      .8641   -66.5809    16.5387     -.0163    54.2079     2.3314
 7921.0000    32.1058  1252.2383  -999.2500      .7771      .8034      .8782   -66.7489    16.4834      .0040    54.5861     2.3385
 7921.5000    32.5719  1241.2969  -999.2500      .7835      .8015      .8929   -66.6290    16.2870      .0218    53.6160     2.3438
 7922.0000    33.4142  1234.2422  -999.2500      .7900      .7852      .9051   -66.3171    16.0783      .0041    51.4014     2.3444
 7922.5000    34.7388  1232.3379  -999.2500      .7923      .7640      .9076   -66.0050    16.6246     -.0119    49.0018     2.3464
 7923.0000    35.9091  1236.8730  -999.2500      .7920      .7508      .9102   -66.0574    16.7390     -.0131    45.5493     2.3494
 7923.5000    36.5733  1244.5391  -999.2500      .7917      .7454      .8955   -66.1516    16.3797     -.0103    43.4512     2.3414
 7924.0000    36.9323  1253.9453  -999.2500      .7904      .7400      .8639   -66.2445    16.4725     -.0119    43.3109     2.3315
 7924.5000    36.5882  1263.0918  -999.2500      .7862      .7439      .8502   -66.3287    16.5605     -.0189    45.5394     2.3363
 7925.0000    35.3385  1272.0762  -999.2500      .7819      .7555      .8547   -66.4128    16.5291     -.0178    47.6196     2.3486
 7925.5000    35.1779  1278.7480  -999.2500      .7777      .7673      .8593   -66.4885    16.3511     -.0165    47.7158     2.3527
 7926.0000    34.9169  1283.2773  -999.2500      .7806      .7778      .8639   -66.4070    16.4968     -.0001    47.0536     2.3440
 7926.5000    33.5737  1272.5352  -999.2500      .7868      .7835      .8599   -66.3253    16.4349      .0269    46.8543     2.3331
 7927.0000    33.0361  1256.9902  -999.2500      .7931      .7892      .8556   -66.2437    16.6236      .0364    46.8790     2.3343
