~VERSION INFORMATION
VERS.                                                 2.0:   CWLS Log ASCII Standard-VERSION 2.0
WRAP.                                                  NO:   One line per depth step
~Well Information Block
STRT.F                                          1471.0000:   Top Depth
STOP.F                                         12100.0000:   Bottom Depth
STEP.F                                             .50000:   Depth Increment
NULL.                                            -999.250:   Null Value
FLD .                                        MU BLK A 175:   Field Name
WELL.                           OCSG03931   001 ST00 BP00:   NAME
API .                                        427124004600:   WELL API
EDF .F                                            85.0000:   ELEV DRILL FLOOR
COMP.                                GULF OIL CORPORATION:   OPERATOR
BN  .                                               A 175:   BLOCK
CTRY.                                                 USA:   COUNTRY NAME
CNTY.                                            M I E AD:   COUNTY NAME
EKB .F                                            86.0000:   ELEV KELLY BUSHING
TDD .F                                          12102.000:   FINAL TD DRILLER
STAT.                                               TEXAS:   STATE NAME
UWI .                                        427124004600:   WELL API
DICO.               IHS : Digitizing Company
~PARAMETER INFORMATION (zones)
#MNEM.UNIT                       Value     Description
#=========                       =====     ===========
#ZONATION                          CNL:   ZONATION NAME
#ZONE                            RUN_2:   ZONE NAME
TOP .                       3452.0000:   TOP DEPTH
BOT .                      12100.5000:   BOTTOM DEPTH
RUN .                               2:   RUN NUMBER
LCCD.                             440:   LOGGING CONTRACTOR
SRVC.                    Schlumberger:   LOGGING CONT NAME
DICO.          QC Data Collectors Ltd:   DIG COMPANY NAME
LDAT.                      06/16/1981:   DATE LOGGED
ELD .F                        86.0000:   LOG DATUM ELEVATION
TDD .F                      7546.0000:   TOTAL DEPTH DRILLER
TDL .F                      7545.0000:   TOTAL DEPTH LOGGER
BOTL.F                     12100.0000:   BOTTOM DEPTH LOGGED
TOPL.F                      3504.0000:   TOP DEPTH LOGGED
CS1 .IN                        9.6250:   CASING SIZE 1
BS1 .IN                       12.2500:   BIT SIZE 1
DDB1.F                      7546.0000:   DEPTH DRILLED BIT 1
BHF .                              99:   FLUID CODE
DPT .                   Miscellaneous:   DRILLING FLUID TYPE
MUDD.                         14.0000:   FLUID DENSITY
MUDV.                         42.0000:   FLUID VISCOSITY
DFPH.                         11.0000:   FLUID PH
FL  .                          4.8000:   FLUID LOSS
RM  .OHMM                       .7300:   RM
RMT .DEGF                     74.0000:   RM TEMP
RMF .OHMM                       .4600:   RMF
RMFT.DEGF                     74.0000:   RMF TEMP
FSC .                               M:   RMF CODE
RMC .OHMM                      1.1200:   RMC
RMCT.DEGF                     74.0000:   RMC TEMP
CMC .                               M:   RMC CODE
TMAX.DEGF                    168.0000:   MAX REC TEMP
TIMC.                          7.0000:   TIME SINCE CIRCLN
~PARAMETER INFORMATION (zones)
#MNEM.UNIT                       Value     Description
#=========                       =====     ===========
#ZONATION                          DIL:   ZONATION NAME
#ZONE                            RUN_1:   ZONE NAME
TOP .                       1471.0000:   TOP DEPTH
BOT .                      12095.5000:   BOTTOM DEPTH
RUN .                               1:   RUN NUMBER
LCCD.                             440:   LOGGING CONTRACTOR
SRVC.                    Schlumberger:   LOGGING CONT NAME
DICO.          QC Data Collectors Ltd:   DIG COMPANY NAME
LDAT.                      05/25/1981:   DATE LOGGED
ELD .F                        86.0000:   LOG DATUM ELEVATION
TDD .F                      4590.0000:   TOTAL DEPTH DRILLER
TDL .F                      3529.0000:   TOTAL DEPTH LOGGER
BOTL.F                     12095.0000:   BOTTOM DEPTH LOGGED
TOPL.F                      1471.0000:   TOP DEPTH LOGGED
CS1 .IN                       20.0000:   CASING SIZE 1
BS1 .IN                       12.2500:   BIT SIZE 1
DDB1.F                      4590.0000:   DEPTH DRILLED BIT 1
BHF .                              99:   FLUID CODE
DPT .                   Miscellaneous:   DRILLING FLUID TYPE
MUDD.                         11.4000:   FLUID DENSITY
MUDV.                         44.0000:   FLUID VISCOSITY
DFPH.                         11.0000:   FLUID PH
FL  .                         10.0000:   FLUID LOSS
RM  .OHMM                       .5200:   RM
RMT .DEGF                     75.0000:   RM TEMP
RMF .OHMM                       .3500:   RMF
RMFT.DEGF                     75.0000:   RMF TEMP
FSC .                               M:   RMF CODE
RMC .OHMM                       .8800:   RMC
RMCT.DEGF                     75.0000:   RMC TEMP
CMC .                               M:   RMC CODE
TMAX.DEGF                    125.0000:   MAX REC TEMP
TIMC.                         14.0000:   TIME SINCE CIRCLN
~PARAMETER INFORMATION (zones)
#MNEM.UNIT                       Value     Description
#=========                       =====     ===========
#ZONATION                          FDC:   ZONATION NAME
#ZONE                            RUN_4:   ZONE NAME
TOP .                      11080.0000:   TOP DEPTH
BOT .                      12095.0000:   BOTTOM DEPTH
RUN .                               4:   RUN NUMBER
LCCD.                             440:   LOGGING CONTRACTOR
SRVC.                    Schlumberger:   LOGGING CONT NAME
DICO.          QC Data Collectors Ltd:   DIG COMPANY NAME
LDAT.                      07/06/1981:   DATE LOGGED
ELD .F                        86.0000:   LOG DATUM ELEVATION
TDD .F                     12100.0000:   TOTAL DEPTH DRILLER
TDL .F                     12102.0000:   TOTAL DEPTH LOGGER
BOTL.F                     12095.0000:   BOTTOM DEPTH LOGGED
TOPL.F                     11080.0000:   TOP DEPTH LOGGED
CS1 .IN                        9.6250:   CASING SIZE 1
BS1 .IN                        8.5000:   BIT SIZE 1
DDB1.F                     12100.0000:   DEPTH DRILLED BIT 1
BHF .                              99:   FLUID CODE
DPT .                   Miscellaneous:   DRILLING FLUID TYPE
MUDD.                         15.7000:   FLUID DENSITY
MUDV.                         50.0000:   FLUID VISCOSITY
DFPH.                         11.0000:   FLUID PH
FL  .                          4.2000:   FLUID LOSS
RM  .OHMM                      1.2000:   RM
RMT .DEGF                     90.0000:   RM TEMP
RMF .OHMM                       .6600:   RMF
RMFT.DEGF                     78.0000:   RMF TEMP
FSC .                               M:   RMF CODE
RMC .OHMM                      1.4200:   RMC
RMCT.DEGF                     78.0000:   RMC TEMP
CMC .                               M:   RMC CODE
TMAX.DEGF                    277.0000:   MAX REC TEMP
TIMC.                         20.0000:   TIME SINCE CIRCLN
~PARAMETER INFORMATION (zones)
#MNEM.UNIT                       Value     Description
#=========                       =====     ===========
#ZONATION                          FDC:   ZONATION NAME
#ZONE                            RUN_2:   ZONE NAME
TOP .                       3504.0000:   TOP DEPTH
BOT .                      12100.5000:   BOTTOM DEPTH
RUN .                               2:   RUN NUMBER
LCCD.                             440:   LOGGING CONTRACTOR
SRVC.                    Schlumberger:   LOGGING CONT NAME
DICO.          QC Data Collectors Ltd:   DIG COMPANY NAME
LDAT.                      06/16/1981:   DATE LOGGED
ELD .F                        86.0000:   LOG DATUM ELEVATION
TDD .F                      7546.0000:   TOTAL DEPTH DRILLER
TDL .F                      7545.0000:   TOTAL DEPTH LOGGER
BOTL.F                     12100.0000:   BOTTOM DEPTH LOGGED
TOPL.F                      3504.0000:   TOP DEPTH LOGGED
CS1 .IN                        9.6250:   CASING SIZE 1
BS1 .IN                       12.2500:   BIT SIZE 1
DDB1.F                      7546.0000:   DEPTH DRILLED BIT 1
BHF .                              99:   FLUID CODE
DPT .                   Miscellaneous:   DRILLING FLUID TYPE
MUDD.                         14.0000:   FLUID DENSITY
MUDV.                         42.0000:   FLUID VISCOSITY
DFPH.                         11.0000:   FLUID PH
FL  .                          4.8000:   FLUID LOSS
RM  .OHMM                       .7300:   RM
RMT .DEGF                     74.0000:   RM TEMP
RMF .OHMM                       .4600:   RMF
RMFT.DEGF                     74.0000:   RMF TEMP
FSC .                               M:   RMF CODE
RMC .OHMM                      1.1200:   RMC
RMCT.DEGF                     74.0000:   RMC TEMP
CMC .                               M:   RMC CODE
TMAX.DEGF                    168.0000:   MAX REC TEMP
TIMC.                          7.0000:   TIME SINCE CIRCLN
~Curve Information Block
#MNEM.UNIT                                        API CODE    No Description
#=========                                        ========    == ===========
DEPT.F                                       00 001 00 00:     1  DEPTH
CALI.IN                                                  :     2  Caliper
NPHI.%                                                   :     3  Neutron Porosity
CILD.MMHO                                                :     4  Deep Induction Conductivity
DT.US/F                                                  :     5  Sonic Transit Time
GR.GAPI                                                  :     6  Gamma Ray
ILD.OHMM                                                 :     7  Deep Induction Resistivity
SFL.OHMM                                                 :     8  Medium Resistivity
SP.MV                                                    :     9  Spontaneous Potential
DPHI.%                                                   :    10  Porosity
~ASCII
# ...
 4281.5000    12.7433    48.8472  1576.9570   161.1274    45.5615      .6365      .6917   -99.0972    26.6791
 4282.0000    12.8564    48.6223  1573.7461   168.6201    45.2612      .6431      .6854   -99.3668    27.2785
 4282.5000    13.0222    47.7847  1574.5957   173.0566    44.8755      .6498      .6784   -99.6422    28.3192
 4283.0000    12.8906    46.7100  1583.4746   174.3584    44.9072      .6477      .6693  -100.0070    29.3293
 4283.5000    12.7668    45.1168  1592.7793   174.1165    46.1628      .6453      .6582  -100.4119    29.4020
 4284.0000    12.7249    43.4993  1602.8008   172.6533    47.6096      .6406      .6560  -100.8783    29.2251
 4284.5000    12.6732    41.8998  1612.8145   173.8706    47.1041      .6341      .6574  -101.1887    29.0196
 4285.0000    12.6344    42.2672  1622.8359   175.8982    45.1615      .6277      .6550  -101.1798    29.0175
 4285.5000    12.5939    43.3759  1632.8574   176.0686    43.8608      .6215      .6528  -101.0167    29.6617
 4286.0000    12.5630    45.2202  1642.8789   171.7878    44.6603      .6154      .6513  -101.0026    30.0213
 4286.5000    12.5485    46.4803  1644.7871   166.6511    46.9171      .6100      .6517  -100.8975    29.7894
 4287.0000    12.5552    46.0338  1642.9043   164.4802    49.0906      .6088      .6639  -100.6289    28.8207
 4287.5000    12.5880    45.6117  1641.0234   163.1060    50.0699      .6076      .6768  -100.1460    28.2346
 4288.0000    12.6441    46.2137  1634.9590   159.6807    50.2537      .6075      .6902   -99.6381    28.5349
 4288.5000    12.7012    47.5883  1621.0566   156.9636    50.1423      .6092      .6939   -99.1222    29.0829
 4289.0000    12.7078    48.9872  1607.1680   155.9368    50.2162      .6109      .6912   -98.6882    29.3946
 4289.5000    12.6448    50.4792  1593.2676   156.9202    50.5051      .6152      .6862   -98.2606    29.5488
 4290.0000    12.5693    51.2075  1580.1934   166.2761    51.7863      .6199      .6767   -97.9122    29.8382
 4290.5000    12.5071    50.7709  1569.1035   178.6038    53.1970      .6249      .6674   -97.9143    30.2548
 4291.0000    12.4463    49.9452  1581.7266   180.8164    51.2374      .6315      .6592   -97.8621    30.5344
 4291.5000    12.3895    49.5589  1605.8711   170.3657    50.4540      .6382      .6513   -97.5498    30.2455
 4292.0000    12.3493    49.2060  1630.0410   163.6870    50.4108      .6365      .6419   -96.9446    29.6332
 4292.5000    12.3461    48.9379  1654.1855   160.6653    50.5870      .6304      .6318   -96.6161    28.6567
 4293.0000    12.3889    48.6929  1678.3301   159.9211    50.9332      .6244      .6208   -96.9309    28.1111
 4293.5000    12.4443    48.2645  1699.0527   159.4680    50.8082      .6154      .6073   -97.3068    28.3273
 4294.0000    12.4824    47.7675  1719.5898   159.5911    50.0247      .6047      .5956   -97.6836    28.9603
 4294.5000    12.5160    48.1008  1740.1270   161.0464    49.3143      .5941      .5862   -97.7024    29.6783
 4295.0000    12.5583    48.5178  1760.6504   163.8193    49.0164      .5851      .5777   -97.6433    30.3851
 4295.5000    12.6197    48.8649  1781.1875   166.9907    49.0980      .5770      .5702   -97.3444    30.7552
 4296.0000    12.6968    48.7808  1801.7246   169.1951    49.0246      .5689      .5644   -97.0580    30.6820
 4296.5000    12.7991    48.4691  1815.0820   171.3562    47.9598      .5617      .5631   -96.8286    30.6296
 4297.0000    12.9364    49.1608  1827.3027   172.3606    47.1356      .5551      .5713   -96.8796    31.0938
 4297.5000    13.0170    50.1790  1839.5234   172.5698    46.9917      .5488      .5819   -97.0596    31.3817
 4298.0000    13.0546    50.7000  1851.7441   172.7842    47.1267      .5461      .5935   -97.0028    31.0432
 4298.5000    13.0622    51.0420  1863.9648   172.6794    47.1122      .5434      .5955   -96.8102    30.2134
 4299.0000    13.0778    50.8685  1876.1855   171.7988    47.1851      .5409      .5875   -96.8319    29.5992
 4299.5000    13.1251    50.0744  1886.0059   171.9680    46.9794      .5399      .5698   -96.8866    29.2225
 4300.0000    13.2358    48.9680  1891.9277   174.0483    47.8027      .5390      .5548   -97.1934    29.5261
 4300.5000    13.7300    48.9924  1897.8457   185.9199    48.6383      .5381      .5467   -97.5204    30.5812
 4301.0000    14.1945    50.3558  1903.7676   190.3455    48.8235      .5383      .5465   -97.6383    31.1047
 4301.5000    14.1053    51.7186  1909.6875   189.8306    47.7435      .5397      .5527   -97.7292    31.2277
 4302.0000    13.7372    53.6537  1904.6055   187.4058    46.5026      .5412      .5581   -97.7452    31.0761
 4302.5000    13.5742    55.2285  1897.8223   185.2224    45.5810      .5413      .5623   -97.6160    31.0425
 4303.0000    13.5201    56.5012  1891.1738   184.5505    45.4958      .5411      .5638   -97.2734    31.3361
 4303.5000    13.4855    56.2190  1884.6562   187.0894    45.7776      .5410      .5617   -97.1533    31.9041
 4304.0000    13.4704    54.4012  1878.1445   198.2769    46.0737      .5403      .5618   -97.4443    32.3458
 4304.5000    13.4598    50.6642  1871.6250   199.5383    45.8750      .5391      .5635   -98.0760    31.7390
 4305.0000    13.4578    50.7237  1870.3359   189.5190    44.8229      .5380      .5582   -97.7222    30.8504
 4305.5000    13.4513    51.3423  1872.7793   183.1860    43.1407      .5375      .5494   -96.1980    30.7144
 4306.0000    13.4486    50.5154  1875.2227   182.4629    41.6114      .5371      .5449   -95.9055    31.1237
 4306.5000    13.4848    49.3247  1880.2813   184.3679    40.8394      .5366      .5385   -96.2554    32.2413
 4307.0000    13.6628    48.4351  1888.7031   178.5793    40.4063      .5355      .5329   -96.6683    33.1464
 4307.5000    14.0078    48.6866  1897.1230   175.1541    40.4843      .5344      .5282   -96.9434    33.5872
 4308.0000    14.0502    50.0774  1905.5391   175.2153    41.7153      .5326      .5261   -97.1703    33.7844
 4308.5000    13.9056    52.0000  1913.9590   177.1057    42.9720      .5281      .5259   -97.3073    33.8987
 4309.0000    14.0178    53.1249  1922.3809   174.2788    43.5689      .5237      .5310   -97.2607    34.0985
 4309.5000    14.3111    54.0530  1930.7949   171.2178    43.5368      .5193      .5378   -97.2142    34.6606
 4310.0000    14.7746    53.4898  1937.9199   170.6372    42.6083      .5174      .5482   -96.9257    34.8365
 4310.5000    15.8584    52.7452  1942.7168   173.5359    41.5441      .5156      .5564   -96.5858    33.9541
 4311.0000    16.9310    52.4839  1947.5176   178.2187    42.0741      .5139      .5601   -96.3776    32.5167
 4311.5000    20.1349    52.4828  1952.3145   180.6768    42.6924      .5119      .5563   -96.2163    31.3579
 4312.0000  -999.2500    50.7170  1957.1113   177.5103    43.2239      .5096      .5486   -96.4117    30.7253
 4312.5000    20.8206    47.5676  1961.9121   171.2092    43.7554      .5073      .5443   -96.5654    30.3554
 4313.0000    18.8126    45.8503  1966.7109   169.4531    43.9990      .5052      .5389   -96.5997    30.4316
 4313.5000    16.8218    46.7145  1971.5098   169.0732    43.9087      .5050      .5317   -96.3102    31.3313
 4314.0000    15.7783    48.1156  1976.2676   168.8955    43.6083      .5049      .5222   -95.7936    32.2841
 4314.5000    15.1988    49.8201  1981.0254   169.5493    42.9256      .5047      .5159   -95.6812    33.2439
 4315.0000    15.1113    49.4617  1985.7832   174.4797    42.2349      .5051      .5121   -95.6973    33.0751
 4315.5000    15.0663    48.9224  1990.5391   177.7898    40.4011      .5064      .5136   -95.9565    32.4938
 4316.0000    14.9679    48.9421  1982.9414   180.9133    38.4170      .5078      .5141   -96.3718    32.1187
 4316.5000    14.9171    50.5944  1974.8105   180.1165    36.3339      .5092      .5118   -96.3862    31.9960
 4317.0000    15.9381    51.0994  1966.6855   175.5635    35.7397      .5089      .5238   -96.2572    32.0429
 4317.5000    17.5557    51.5081  1964.4902   171.1257    37.8485      .5078      .5377   -96.0891    32.9769
