~VERSION INFORMATION
VERS.                                                 2.0:   CWLS Log ASCII Standard-VERSION 2.0
WRAP.                                                  NO:   One line per depth step
~Well Information Block
STRT.F                                          1471.0000:   Top Depth
STOP.F                                         12100.0000:   Bottom Depth
STEP.F                                             .50000:   Depth Increment
NULL.                                            -999.250:   Null Value
FLD .                                        MU BLK A 175:   Field Name
WELL.                           OCSG03931   001 ST00 BP00:   NAME
API .                                        427124004600:   WELL API
EDF .F                                            85.0000:   ELEV DRILL FLOOR
COMP.                                GULF OIL CORPORATION:   OPERATOR
BN  .                                               A 175:   BLOCK
CTRY.                                                 USA:   COUNTRY NAME
CNTY.                                            M I E AD:   COUNTY NAME
EKB .F                                            86.0000:   ELEV KELLY BUSHING
TDD .F                                          12102.000:   FINAL TD DRILLER
STAT.                                               TEXAS:   STATE NAME
UWI .                                        427124004600:   WELL API
DICO.               IHS : Digitizing Company
~PARAMETER INFORMATION (zones)
#MNEM.UNIT                       Value     Description
#=========                       =====     ===========
#ZONATION                          CNL:   ZONATION NAME
#ZONE                            RUN_2:   ZONE NAME
TOP .                       3452.0000:   TOP DEPTH
BOT .                      12100.5000:   BOTTOM DEPTH
RUN .                               2:   RUN NUMBER
LCCD.                             440:   LOGGING CONTRACTOR
SRVC.                    Schlumberger:   LOGGING CONT NAME
DICO.          QC Data Collectors Ltd:   DIG COMPANY NAME
LDAT.                      06/16/1981:   DATE LOGGED
ELD .F                        86.0000:   LOG DATUM ELEVATION
TDD .F                      7546.0000:   TOTAL DEPTH DRILLER
TDL .F                      7545.0000:   TOTAL DEPTH LOGGER
BOTL.F                     12100.0000:   BOTTOM DEPTH LOGGED
TOPL.F                      3504.0000:   TOP DEPTH LOGGED
CS1 .IN                        9.6250:   CASING SIZE 1
BS1 .IN                       12.2500:   BIT SIZE 1
DDB1.F                      7546.0000:   DEPTH DRILLED BIT 1
BHF .                              99:   FLUID CODE
DPT .                   Miscellaneous:   DRILLING FLUID TYPE
MUDD.                         14.0000:   FLUID DENSITY
MUDV.                         42.0000:   FLUID VISCOSITY
DFPH.                         11.0000:   FLUID PH
FL  .                          4.8000:   FLUID LOSS
RM  .OHMM                       .7300:   RM
RMT .DEGF                     74.0000:   RM TEMP
RMF .OHMM                       .4600:   RMF
RMFT.DEGF                     74.0000:   RMF TEMP
FSC .                               M:   RMF CODE
RMC .OHMM                      1.1200:   RMC
RMCT.DEGF                     74.0000:   RMC TEMP
CMC .                               M:   RMC CODE
TMAX.DEGF                    168.0000:   MAX REC TEMP
TIMC.                          7.0000:   TIME SINCE CIRCLN
~PARAMETER INFORMATION (zones)
#MNEM.UNIT                       Value     Description
#=========                       =====     ===========
#ZONATION                          DIL:   ZONATION NAME
#ZONE                            RUN_1:   ZONE NAME
TOP .                       1471.0000:   TOP DEPTH
BOT .                      12095.5000:   BOTTOM DEPTH
RUN .                               1:   RUN NUMBER
LCCD.                             440:   LOGGING CONTRACTOR
SRVC.                    Schlumberger:   LOGGING CONT NAME
DICO.          QC Data Collectors Ltd:   DIG COMPANY NAME
LDAT.                      05/25/1981:   DATE LOGGED
ELD .F                        86.0000:   LOG DATUM ELEVATION
TDD .F                      4590.0000:   TOTAL DEPTH DRILLER
TDL .F                      3529.0000:   TOTAL DEPTH LOGGER
BOTL.F                     12095.0000:   BOTTOM DEPTH LOGGED
TOPL.F                      1471.0000:   TOP DEPTH LOGGED
CS1 .IN                       20.0000:   CASING SIZE 1
BS1 .IN                       12.2500:   BIT SIZE 1
DDB1.F                      4590.0000:   DEPTH DRILLED BIT 1
BHF .                              99:   FLUID CODE
DPT .                   Miscellaneous:   DRILLING FLUID TYPE
MUDD.                         11.4000:   FLUID DENSITY
MUDV.                         44.0000:   FLUID VISCOSITY
DFPH.                         11.0000:   FLUID PH
FL  .                         10.0000:   FLUID LOSS
RM  .OHMM                       .5200:   RM
RMT .DEGF                     75.0000:   RM TEMP
RMF .OHMM                       .3500:   RMF
RMFT.DEGF                     75.0000:   RMF TEMP
FSC .                               M:   RMF CODE
RMC .OHMM                       .8800:   RMC
RMCT.DEGF                     75.0000:   RMC TEMP
CMC .                               M:   RMC CODE
TMAX.DEGF                    125.0000:   MAX REC TEMP
TIMC.                         14.0000:   TIME SINCE CIRCLN
~PARAMETER INFORMATION (zones)
#MNEM.UNIT                       Value     Description
#=========                       =====     ===========
#ZONATION                          FDC:   ZONATION NAME
#ZONE                            RUN_4:   ZONE NAME
TOP .                      11080.0000:   TOP DEPTH
BOT .                      12095.0000:   BOTTOM DEPTH
RUN .                               4:   RUN NUMBER
LCCD.                             440:   LOGGING CONTRACTOR
SRVC.                    Schlumberger:   LOGGING CONT NAME
DICO.          QC Data Collectors Ltd:   DIG COMPANY NAME
LDAT.                      07/06/1981:   DATE LOGGED
ELD .F                        86.0000:   LOG DATUM ELEVATION
TDD .F                     12100.0000:   TOTAL DEPTH DRILLER
TDL .F                     12102.0000:   TOTAL DEPTH LOGGER
BOTL.F                     12095.0000:   BOTTOM DEPTH LOGGED
TOPL.F                     11080.0000:   TOP DEPTH LOGGED
CS1 .IN                        9.6250:   CASING SIZE 1
BS1 .IN                        8.5000:   BIT SIZE 1
DDB1.F                     12100.0000:   DEPTH DRILLED BIT 1
BHF .                              99:   FLUID CODE
DPT .                   Miscellaneous:   DRILLING FLUID TYPE
MUDD.                         15.7000:   FLUID DENSITY
MUDV.                         50.0000:   FLUID VISCOSITY
DFPH.                         11.0000:   FLUID PH
FL  .                          4.2000:   FLUID LOSS
RM  .OHMM                      1.2000:   RM
RMT .DEGF                     90.0000:   RM TEMP
RMF .OHMM                       .6600:   RMF
RMFT.DEGF                     78.0000:   RMF TEMP
FSC .                               M:   RMF CODE
RMC .OHMM                      1.4200:   RMC
RMCT.DEGF                     78.0000:   RMC TEMP
CMC .                               M:   RMC CODE
TMAX.DEGF                    277.0000:   MAX REC TEMP
TIMC.                         20.0000:   TIME SINCE CIRCLN
~PARAMETER INFORMATION (zones)
#MNEM.UNIT                       Value     Description
#=========                       =====     ===========
#ZONATION                          FDC:   ZONATION NAME
#ZONE                            RUN_2:   ZONE NAME
TOP .                       3504.0000:   TOP DEPTH
BOT .                      12100.5000:   BOTTOM DEPTH
RUN .                               2:   RUN NUMBER
LCCD.                             440:   LOGGING CONTRACTOR
SRVC.                    Schlumberger:   LOGGING CONT NAME
DICO.          QC Data Collectors Ltd:   DIG COMPANY NAME
LDAT.                      06/16/1981:   DATE LOGGED
ELD .F                        86.0000:   LOG DATUM ELEVATION
TDD .F                      7546.0000:   TOTAL DEPTH DRILLER
TDL .F                      7545.0000:   TOTAL DEPTH LOGGER
BOTL.F                     12100.0000:   BOTTOM DEPTH LOGGED
TOPL.F                      3504.0000:   TOP DEPTH LOGGED
CS1 .IN                        9.6250:   CASING SIZE 1
BS1 .IN                       12.2500:   BIT SIZE 1
DDB1.F                      7546.0000:   DEPTH DRILLED BIT 1
BHF .                              99:   FLUID CODE
DPT .                   Miscellaneous:   DRILLING FLUID TYPE
MUDD.                         14.0000:   FLUID DENSITY
MUDV.                         42.0000:   FLUID VISCOSITY
DFPH.                         11.0000:   FLUID PH
FL  .                          4.8000:   FLUID LOSS
RM  .OHMM                       .7300:   RM
RMT .DEGF                     74.0000:   RM TEMP
RMF .OHMM                       .4600:   RMF
RMFT.DEGF                     74.0000:   RMF TEMP
FSC .                               M:   RMF CODE
RMC .OHMM                      1.1200:   RMC
RMCT.DEGF                     74.0000:   RMC TEMP
CMC .                               M:   RMC CODE
TMAX.DEGF                    168.0000:   MAX REC TEMP
TIMC.                          7.0000:   TIME SINCE CIRCLN
~Curve Information Block
#MNEM.UNIT                                        API CODE    No Description
#=========                                        ========    == ===========
DEPT.F                                       00 001 00 00:     1  DEPTH
CALI.IN                                                  :     2  Caliper
NPHI.%                                                   :     3  Neutron Porosity
CILD.MMHO                                                :     4  Deep Induction Conductivity
DT.US/F                                                  :     5  Sonic Transit Time
GR.GAPI                                                  :     6  Gamma Ray
ILD.OHMM                                                 :     7  Deep Induction Resistivity
SFL.OHMM                                                 :     8  Medium Resistivity
SP.MV                                                    :     9  Spontaneous Potential
DPHI.%                                                   :    10  Porosity
~ASCII
# ...
 2894.5000  -999.2500  -999.2500  1589.9316   174.7166    61.0707      .6216      .5962   -95.4908  -999.2500
 2895.0000  -999.2500  -999.2500  1601.0449   173.6855    59.5236      .6196      .5830   -95.7194  -999.2500
 2895.5000  -999.2500  -999.2500  1612.1543   174.2009    55.6368      .6187      .5713   -95.9666  -999.2500
 2896.0000  -999.2500  -999.2500  1622.4160   175.2178    53.1109      .6178      .5771   -96.3049  -999.2500
 2896.5000  -999.2500  -999.2500  1631.7637   175.9060    52.8593      .6174      .5930   -96.3032  -999.2500
 2897.0000  -999.2500  -999.2500  1641.1113   176.1584    53.3666      .6174      .6034   -96.1572  -999.2500
 2897.5000  -999.2500  -999.2500  1650.4609   177.2893    53.2169      .6173      .6116   -96.0115  -999.2500
 2898.0000  -999.2500  -999.2500  1659.8086   179.2400    52.2020      .6145      .6089   -95.8848  -999.2500
 2898.5000  -999.2500  -999.2500  1670.9902   182.0779    51.8449      .6116      .6127   -95.7598  -999.2500
 2899.0000  -999.2500  -999.2500  1683.5625   184.4475    52.7143      .6069      .6179   -95.7197  -999.2500
 2899.5000  -999.2500  -999.2500  1696.1367   185.4419    52.0476      .6008      .6146   -95.7054  -999.2500
 2900.0000  -999.2500  -999.2500  1708.7090   186.6401    49.6216      .5956      .6085   -95.6556  -999.2500
 2900.5000  -999.2500  -999.2500  1721.2813   191.1743    48.8123      .5911      .5972   -95.5647  -999.2500
 2901.0000  -999.2500  -999.2500  1733.8555   196.2512    49.9297      .5851      .5873   -95.4738  -999.2500
 2901.5000  -999.2500  -999.2500  1742.0352   197.3889    51.6590      .5785      .5821   -95.4001  -999.2500
 2902.0000  -999.2500  -999.2500  1749.7617   198.0752    51.9046      .5732      .5804   -95.3270  -999.2500
 2902.5000  -999.2500  -999.2500  1757.4863   198.0200    50.6665      .5697      .5808   -95.1855  -999.2500
 2903.0000  -999.2500  -999.2500  1765.2129   195.7112    51.2538      .5663      .5822   -94.9612  -999.2500
 2903.5000  -999.2500  -999.2500  1770.8672   193.3486    53.0117      .5633      .5792   -94.9055  -999.2500
 2904.0000  -999.2500  -999.2500  1773.5508   190.6660    54.1396      .5604      .5729   -94.9098  -999.2500
 2904.5000  -999.2500  -999.2500  1776.2363   187.5432    54.1595      .5568      .5593   -94.9141  -999.2500
 2905.0000  -999.2500  -999.2500  1778.9199   184.8313    53.5023      .5547      .5538   -94.9185  -999.2500
 2905.5000  -999.2500  -999.2500  1745.0078   182.6265    52.5447      .5559      .5521   -94.9424  -999.2500
 2906.0000  -999.2500  -999.2500  1706.8750   181.4463    51.9392      .5601      .5572   -94.9786  -999.2500
 2906.5000  -999.2500  -999.2500  1664.8125   181.7795    51.4005      .5710      .5638   -95.1489  -999.2500
 2907.0000  -999.2500  -999.2500  1619.8086   185.0781    51.2599      .5834      .5754   -95.3669  -999.2500
 2907.5000  -999.2500  -999.2500  1574.8066   189.6541    51.9668      .5961      .5913   -95.5847  -999.2500
 2908.0000  -999.2500  -999.2500  1540.5039   193.3096    53.1960      .6091      .6083   -95.7928  -999.2500
 2908.5000  -999.2500  -999.2500  1507.8574   195.2222    54.5870      .6277      .6269   -95.5667  -999.2500
 2909.0000  -999.2500  -999.2500  1479.6348   196.3867    55.5167      .6474      .6444   -95.2589  -999.2500
 2909.5000  -999.2500  -999.2500  1455.1816   192.9709    56.5261      .6604      .6587   -95.2413  -999.2500
 2910.0000  -999.2500  -999.2500  1429.3809   190.1392    56.7526      .6737      .6717   -95.2716  -999.2500
 2910.5000  -999.2500  -999.2500  1411.2402   188.0750    55.1046      .6803      .6791   -95.3402  -999.2500
 2911.0000  -999.2500  -999.2500  1428.8496   186.4727    52.6822      .6832      .6867   -95.3940  -999.2500
 2911.5000  -999.2500  -999.2500  1446.4570   185.4045    50.6389      .6861      .6844   -95.4421  -999.2500
 2912.0000  -999.2500  -999.2500  1464.0664   185.2087    49.3674      .6848      .6818   -95.3882  -999.2500
 2912.5000  -999.2500  -999.2500  1481.6738   185.2637    49.1168      .6745      .6726   -95.3751  -999.2500
 2913.0000  -999.2500  -999.2500  1506.9316   184.4829    49.4718      .6645      .6579   -95.2578  -999.2500
 2913.5000  -999.2500  -999.2500  1534.9316   183.1526    50.0029      .6527      .6425   -95.0200  -999.2500
 2914.0000  -999.2500  -999.2500  1562.9434   182.1377    50.5201      .6403      .6250   -94.8326  -999.2500
 2914.5000  -999.2500  -999.2500  1590.9434   182.6448    51.0370      .6281      .6090   -94.8156  -999.2500
 2915.0000  -999.2500  -999.2500  1613.4707   184.8594    51.2641      .6132      .5968   -95.0261  -999.2500
 2915.5000  -999.2500  -999.2500  1632.5488   186.7942    51.5503      .5986      .5872   -95.4867  -999.2500
 2916.0000  -999.2500  -999.2500  1651.6152   187.9021    51.8977      .5910      .5827   -95.8798  -999.2500
 2916.5000  -999.2500  -999.2500  1670.6934   187.2732    52.0276      .5862      .5851   -96.2054  -999.2500
 2917.0000  -999.2500  -999.2500  1686.7012   184.8838    52.2704      .5856      .5951   -96.0811  -999.2500
 2917.5000  -999.2500  -999.2500  1695.7910   183.1208    52.5237      .5853      .6055   -95.8390  -999.2500
 2918.0000  -999.2500  -999.2500  1704.8730   182.3096    52.3906      .5852      .6048   -95.7063  -999.2500
 2918.5000  -999.2500  -999.2500  1713.1641   182.3550    51.8865      .5862      .6003   -95.5881  -999.2500
 2919.0000  -999.2500  -999.2500  1717.7754   182.1096    51.3821      .5880      .5924   -95.4703  -999.2500
 2919.5000  -999.2500  -999.2500  1722.3887   184.3840    50.5792      .5912      .5886   -95.4746  -999.2500
 2920.0000  -999.2500  -999.2500  1719.9844   187.3735    49.9076      .5947      .5885   -95.4790  -999.2500
 2920.5000  -999.2500  -999.2500  1708.8027   188.4985    50.2476      .5975      .5918   -95.4922  -999.2500
 2921.0000  -999.2500  -999.2500  1695.1113   187.7798    51.7824      .5999      .6013   -95.5205  -999.2500
 2921.5000  -999.2500  -999.2500  1681.0918   186.5264    52.6483      .6003      .6127   -95.3612  -999.2500
 2922.0000  -999.2500  -999.2500  1667.0742   185.2029    51.8859      .6003      .6242   -95.2723  -999.2500
 2922.5000  -999.2500  -999.2500  1660.9258   184.2117    50.0736      .5951      .6196   -95.1809  -999.2500
 2923.0000  -999.2500  -999.2500  1667.3848   184.7922    48.8673      .5900      .6091   -95.0262  -999.2500
 2923.5000  -999.2500  -999.2500  1670.7695   187.4761    48.9294      .5935      .5875   -95.0438  -999.2500
 2924.0000  -999.2500  -999.2500  1670.0781   189.1248    50.6867      .5974      .5704   -95.2384  -999.2500
 2924.5000  -999.2500  -999.2500  1667.3086   189.6162    52.9664      .6038      .5657   -95.0610  -999.2500
 2925.0000  -999.2500  -999.2500  1643.3359   189.0891    54.1492      .6105      .5707   -94.4958  -999.2500
 2925.5000  -999.2500  -999.2500  1619.3770   187.7566    53.9200      .6183      .5913   -94.2303  -999.2500
 2926.0000  -999.2500  -999.2500  1595.4180   186.6162    53.1149      .6253      .6211   -94.1667  -999.2500
 2926.5000  -999.2500  -999.2500  1574.7441   188.1165    52.5361      .6315      .6372   -94.2533  -999.2500
 2927.0000  -999.2500  -999.2500  1554.9609   191.2456    52.2813      .6368      .6472   -94.4969  -999.2500
 2927.5000  -999.2500  -999.2500  1536.0430   190.5937    52.6880      .6400      .6386   -94.8181  -999.2500
 2928.0000  -999.2500  -999.2500  1529.2656   188.1104    53.7111      .6318      .6299   -95.0181  -999.2500
 2928.5000  -999.2500  -999.2500  1545.4961   186.1152    54.2970      .6239      .6202   -95.1637  -999.2500
 2929.0000  -999.2500  -999.2500  1564.4395   184.9038    53.0742      .6162      .6100   -95.2322  -999.2500
 2929.5000  -999.2500  -999.2500  1583.3809   184.3276    51.8173      .6051      .6025   -95.2745  -999.2500
 2930.0000  -999.2500  -999.2500  1602.3242   184.2866    51.0741      .6016      .5967   -95.3440  -999.2500
 2930.5000  -999.2500  -999.2500  1621.2676   183.7546    51.6713      .5998      .5940   -95.4259  -999.2500
