~VERSION INFORMATION
VERS.                             2.0:   CWLS Log ASCII Standard-VERSION 2.0
WRAP.                              NO:   One line per depth step
~Well Information Block
STRT.F                      3993.0000:   Top Depth
STOP.F                     13285.0000:   Bottom Depth
STEP.F                         .50000:   Depth Increment
NULL.                        -999.250:   Null Value
FLD .                     MU BLK A 85:   Field Name
WELL.       OCSG03061  B004 ST00 BP00:   NAME
API .                    427124009200:   WELL API
EDF .F                       122.0000:   ELEV DRILL FLOOR
COMP.             TRANSCO EXPLORATION:   OPERATOR
BN  .                           A 859:   BLOCK
CTRY.                             USA:   COUNTRY NAME
CNTY.                        M I E AD:   COUNTY NAME
EKB .F                       123.0000:   ELEV KELLY BUSHING
TDD .F                          0.000:   FINAL TD DRILLER
STAT.                           TEXAS:   STATE NAME
UWI .                    427124009200:   WELL API
DICO.               IHS : Digitizing Company
~PARAMETER INFORMATION (zones)
#MNEM.UNIT                       Value     Description
#=========                       =====     ===========
#ZONATION                          CNL:   ZONATION NAME
#ZONE                            RUN_1:   ZONE NAME
TOP .                       3993.0000:   TOP DEPTH
BOT .                       9346.5000:   BOTTOM DEPTH
RUN .                               1:   RUN NUMBER
LCCD.                              20:   LOGGING CONTRACTOR
SRVC.                          Baroil:   LOGGING CONT NAME
DICO.          QC Data Collectors Ltd:   DIG COMPANY NAME
LDAT.                      12/10/1986:   DATE LOGGED
ELD .F                       123.0000:   LOG DATUM ELEVATION
TDD .F                      9350.0000:   TOTAL DEPTH DRILLER
TDL .F                      9348.0000:   TOTAL DEPTH LOGGER
BOTL.F                      9346.0000:   BOTTOM DEPTH LOGGED
TOPL.F                      4002.0000:   TOP DEPTH LOGGED
CS1 .IN                       13.3750:   CASING SIZE 1
BS1 .IN                       12.2500:   BIT SIZE 1
DDB1.F                      9350.0000:   DEPTH DRILLED BIT 1
BHF .                              65:   FLUID CODE
DPT .                        INVERMUL:   DRILLING FLUID TYPE
MUDD.                         12.8000:   FLUID DENSITY
MUDV.                         40.0000:   FLUID VISCOSITY
DFPH.                          9.2000:   FLUID PH
FL  .                         11.0000:   FLUID LOSS
RM  .OHMM                       .3400:   RM
RMT .DEGF                     70.0000:   RM TEMP
RMF .OHMM                       .1600:   RMF
RMFT.DEGF                     70.0000:   RMF TEMP
FSC .                               M:   RMF CODE
RMC .OHMM                       .4200:   RMC
RMCT.DEGF                     70.0000:   RMC TEMP
CMC .                               C:   RMC CODE
TMAX.DEGF                    202.0000:   MAX REC TEMP
~PARAMETER INFORMATION (zones)
#MNEM.UNIT                       Value     Description
#=========                       =====     ===========
#ZONATION                          DIL:   ZONATION NAME
#ZONE                            RUN_1:   ZONE NAME
TOP .                       4002.0000:   TOP DEPTH
BOT .                       9336.5000:   BOTTOM DEPTH
RUN .                               1:   RUN NUMBER
LCCD.                              20:   LOGGING CONTRACTOR
SRVC.                          Baroil:   LOGGING CONT NAME
DICO.          QC Data Collectors Ltd:   DIG COMPANY NAME
LDAT.                      12/10/1986:   DATE LOGGED
ELD .F                       123.0000:   LOG DATUM ELEVATION
TDD .F                      9350.0000:   TOTAL DEPTH DRILLER
TDL .F                      9348.0000:   TOTAL DEPTH LOGGER
BOTL.F                      9346.0000:   BOTTOM DEPTH LOGGED
TOPL.F                      4002.0000:   TOP DEPTH LOGGED
CS1 .IN                       13.3750:   CASING SIZE 1
BS1 .IN                       12.2500:   BIT SIZE 1
DDB1.F                      9350.0000:   DEPTH DRILLED BIT 1
BHF .                              65:   FLUID CODE
DPT .                        INVERMUL:   DRILLING FLUID TYPE
MUDD.                         12.8000:   FLUID DENSITY
MUDV.                         40.0000:   FLUID VISCOSITY
DFPH.                          9.2000:   FLUID PH
FL  .                         11.0000:   FLUID LOSS
RM  .OHMM                       .3400:   RM
RMT .DEGF                     70.0000:   RM TEMP
RMF .OHMM                       .1600:   RMF
RMFT.DEGF                     70.0000:   RMF TEMP
FSC .                               M:   RMF CODE
RMC .OHMM                       .4200:   RMC
RMCT.DEGF                     70.0000:   RMC TEMP
CMC .                               C:   RMC CODE
TMAX.DEGF                    202.0000:   MAX REC TEMP
~PARAMETER INFORMATION (zones)
#MNEM.UNIT                       Value     Description
#=========                       =====     ===========
#ZONATION                          DIL:   ZONATION NAME
#ZONE                            RUN_3:   ZONE NAME
TOP .                       9336.0000:   TOP DEPTH
BOT .                      13285.5000:   BOTTOM DEPTH
RUN .                               3:   RUN NUMBER
LCCD.                              20:   LOGGING CONTRACTOR
SRVC.                          Baroil:   LOGGING CONT NAME
DICO.          QC Data Collectors Ltd:   DIG COMPANY NAME
LDAT.                      12/28/1986:   DATE LOGGED
ELD .F                       123.0000:   LOG DATUM ELEVATION
TDD .                            NULL:   TOTAL DEPTH DRILLER
TDL .                            NULL:   TOTAL DEPTH LOGGER
BOTL.F                     13291.0000:   BOTTOM DEPTH LOGGED
TOPL.F                     13285.0000:   TOP DEPTH LOGGED
CS1 .IN                        9.6250:   CASING SIZE 1
BS1 .IN                        8.5000:   BIT SIZE 1
DDB1.                            NULL:   DEPTH DRILLED BIT 1
BHF .                              35:   FLUID CODE
DPT .                       PETROFREE:   DRILLING FLUID TYPE
MUDD.                         14.9000:   FLUID DENSITY
MUDV.                         49.0000:   FLUID VISCOSITY
DFPH.                            NULL:   FLUID PH
FL  .                          6.0000:   FLUID LOSS
RM  .                            NULL:   RM
RMT .                            NULL:   RM TEMP
RMF .                            NULL:   RMF
RMFT.                            NULL:   RMF TEMP
FSC .                            NULL:   RMF CODE
RMC .                            NULL:   RMC
RMCT.                            NULL:   RMC TEMP
CMC .                            NULL:   RMC CODE
TMAX.DEGF                    274.0000:   MAX REC TEMP
~PARAMETER INFORMATION (zones)
#MNEM.UNIT                       Value     Description
#=========                       =====     ===========
#ZONATION                          FDC:   ZONATION NAME
#ZONE                            RUN_1:   ZONE NAME
TOP .                       3993.0000:   TOP DEPTH
BOT .                       9346.5000:   BOTTOM DEPTH
RUN .                               1:   RUN NUMBER
LCCD.                              20:   LOGGING CONTRACTOR
SRVC.                          Baroil:   LOGGING CONT NAME
DICO.          QC Data Collectors Ltd:   DIG COMPANY NAME
LDAT.                      12/10/1986:   DATE LOGGED
ELD .F                       123.0000:   LOG DATUM ELEVATION
TDD .F                      9350.0000:   TOTAL DEPTH DRILLER
TDL .F                      9348.0000:   TOTAL DEPTH LOGGER
BOTL.F                      9346.0000:   BOTTOM DEPTH LOGGED
TOPL.F                      4002.0000:   TOP DEPTH LOGGED
CS1 .IN                       13.3750:   CASING SIZE 1
BS1 .IN                       12.2500:   BIT SIZE 1
DDB1.F                      9350.0000:   DEPTH DRILLED BIT 1
BHF .                              65:   FLUID CODE
DPT .                        INVERMUL:   DRILLING FLUID TYPE
MUDD.                         12.8000:   FLUID DENSITY
MUDV.                         40.0000:   FLUID VISCOSITY
DFPH.                          9.2000:   FLUID PH
FL  .                         11.0000:   FLUID LOSS
RM  .OHMM                       .3400:   RM
RMT .DEGF                     70.0000:   RM TEMP
RMF .OHMM                       .1600:   RMF
RMFT.DEGF                     70.0000:   RMF TEMP
FSC .                               M:   RMF CODE
RMC .OHMM                       .4200:   RMC
RMCT.DEGF                     70.0000:   RMC TEMP
CMC .                               C:   RMC CODE
TMAX.DEGF                    202.0000:   MAX REC TEMP
~Curve Information Block
#MNEM.UNIT                    API CODE    No Description
#=========                    ========    == ===========
DEPT.F                   00 001 00 00:     1  DEPTH
NPHI.%                               :     2  Neutron Porosity
CILD.MMHO                            :     3  Deep Induction Conductivity
GR.GAPI                              :     4  Gamma Ray
ILD.OHMM                             :     5  Deep Induction Resistivity
ILM.OHMM                             :     6  Medium Induction Resistivity
RFOC.OHMM                            :     7  Medium Resistivity
SP.MV                                :     8  Spontaneous Potential
CALI.IN                              :     9  Caliper
DRHO.G/C3                            :    10  Bulk Density Correction
GRD.GAPI                             :    11  Gamma Ray
RHOB.G/C3                            :    12  Bulk Density
~ASCII
# ...
 9330.5000    28.6024  1403.7910  -999.2500      .6981      .7473      .8609   -41.6273    12.1314      .0571    66.1085     2.4851
 9331.0000    28.7654  1414.0781  -999.2500      .6905      .7483      .8564   -41.5477    11.9930      .0599    65.7679     2.4872
 9331.5000    28.6061  1426.3633  -999.2500      .6845      .7496      .8536   -41.0796    11.6563      .0631    66.3778     2.4882
 9332.0000    28.1325  1436.4629  -999.2500      .6801      .7509      .8703   -40.6115    11.3312      .0655    67.6443     2.4795
 9332.5000    27.9880  1443.0879  -999.2500      .6756      .7522      .8875   -40.4849    11.1814      .0644    68.8197     2.4683
 9333.0000    28.0592  1449.7148  -999.2500      .6738      .7522      .8992   -40.5367    11.0782      .0599    69.5895     2.4633
 9333.5000    28.0874  1448.1504  -999.2500      .6741      .7521      .9021   -40.9723    11.1024      .0591    69.5502     2.4628
 9334.0000    28.0626  1446.3730  -999.2500      .6799      .7537      .9019   -41.4453    11.1237      .0617    67.6074     2.4620
 9334.5000    28.2737  1442.0703  -999.2500      .6857      .7582      .9017   -41.6220    11.1432      .0654    67.0006     2.4573
 9335.0000    28.3894  1430.4082  -999.2500      .7008      .7606      .8995   -41.7581    11.1534      .0655    67.9418     2.4523
 9335.5000    28.0068  1379.2363  -999.2500      .7195      .7643      .8941   -41.8420    11.1600      .0587    69.4911     2.4532
 9336.0000    27.4142  1337.3047  -999.2500      .7359      .8186      .8795   -41.8971    11.1391      .0563    70.8744     2.4640
 9336.5000    27.0104  1242.1152  -999.2500      .7758      .8482  -999.2500  -999.2500    11.1061      .0692    71.6183     2.4750
 9337.0000    28.1451  1201.1719  -999.2500      .8087      .8749  -999.2500  -999.2500    11.0458      .0781    70.7231     2.4806
 9337.5000    28.9303  1226.9785  -999.2500      .7886      .9014  -999.2500  -999.2500    10.9830      .0789    68.4017     2.4796
 9338.0000    29.3520  1252.3633  -999.2500      .7703      .9107  -999.2500  -999.2500    10.9262      .0710    67.4451     2.4771
 9338.5000    28.9839  1272.8613  -999.2500      .7635      .9023  -999.2500  -999.2500    10.8775      .0679    67.9124     2.4784
 9339.0000    28.6448  1293.3574  -999.2500      .7568      .8944  -999.2500  -999.2500    10.8792      .0723    68.9083     2.4809
 9339.5000    28.5956  1303.9902  -999.2500      .7502      .8920  -999.2500  -999.2500    10.9223      .0832    69.6974     2.4823
 9340.0000    29.3081  1310.5664  -999.2500      .7436      .8896  -999.2500  -999.2500    10.8531      .0890    70.1084     2.4831
 9340.5000    29.0954  1317.1289  -999.2500      .7395      .8872  -999.2500  -999.2500    10.5777      .0831    71.2716     2.4861
 9341.0000    28.3548  1321.6680  -999.2500      .7388      .8846  -999.2500  -999.2500    10.5027      .0826    71.3517     2.4929
 9341.5000    27.7719  1324.2168  -999.2500      .7380      .8817  -999.2500  -999.2500    10.4751      .0851    71.5839     2.5003
 9342.0000    27.4737  1326.7676  -999.2500      .7373      .8787  -999.2500  -999.2500    10.4520      .0909    71.9048     2.5034
 9342.5000    27.4157  1329.3203  -999.2500      .7366      .8758  -999.2500  -999.2500    10.4299      .0909    70.8707     2.5011
 9343.0000    27.5616  1332.6641  -999.2500      .7363      .8669  -999.2500  -999.2500    10.3884      .0850    67.9885     2.4946
 9343.5000    27.7295  1336.2129  -999.2500      .7370      .8562  -999.2500  -999.2500    10.3148      .0799    66.3940     2.4941
 9344.0000    27.9191  1339.7598  -999.2500      .7376      .8456  -999.2500  -999.2500    10.0362      .0761    66.3999     2.4959
 9344.5000    28.2708  1343.3027  -999.2500      .7383      .8351  -999.2500  -999.2500     9.7509      .0728    66.9403     2.4981
 9345.0000    28.6946  1346.6953  -999.2500      .7389      .8214  -999.2500  -999.2500     9.3752      .0691    66.9814     2.4994
 9345.5000    28.9448  1348.9766  -999.2500      .7353      .8080  -999.2500  -999.2500     9.0968      .0661    66.4041     2.4999
 9346.0000    28.2983  1351.2520    33.2300      .7295      .7948  -999.2500  -999.2500     8.9254      .0648    67.8557     2.4975
 9346.5000  -999.2500  1353.5332    37.8820      .7238      .7850  -999.2500  -999.2500  -999.2500  -999.2500  -999.2500  -999.2500
 9347.0000  -999.2500  1356.1504    42.5880      .7181      .7823  -999.2500  -999.2500  -999.2500  -999.2500  -999.2500  -999.2500
 9347.5000  -999.2500  1362.0430    48.6232      .7156      .7795  -999.2500  -999.2500  -999.2500  -999.2500  -999.2500  -999.2500
 9348.0000  -999.2500  1367.9258    54.2449      .7136      .7768  -999.2500  -999.2500  -999.2500  -999.2500  -999.2500  -999.2500
 9348.5000  -999.2500  1373.8184    54.8455      .7117      .7770  -999.2500  -999.2500  -999.2500  -999.2500  -999.2500  -999.2500
 9349.0000  -999.2500  1375.3574    55.1440      .7097      .7776  -999.2500  -999.2500  -999.2500  -999.2500  -999.2500  -999.2500
 9349.5000  -999.2500  1368.2344    55.0112      .7101      .7781  -999.2500  -999.2500  -999.2500  -999.2500  -999.2500  -999.2500
 9350.0000  -999.2500  1361.1016    55.1974      .7139      .7786  -999.2500  -999.2500  -999.2500  -999.2500  -999.2500  -999.2500
 9350.5000  -999.2500  1353.8555    57.1591      .7177      .7823  -999.2500  -999.2500  -999.2500  -999.2500  -999.2500  -999.2500
 9351.0000  -999.2500  1346.2500    58.4722      .7216      .7862  -999.2500  -999.2500  -999.2500  -999.2500  -999.2500  -999.2500
 9351.5000  -999.2500  1338.6445    59.0445      .7254      .7901  -999.2500  -999.2500  -999.2500  -999.2500  -999.2500  -999.2500
 9352.0000  -999.2500  1331.0391    59.4248      .7277      .7920  -999.2500  -999.2500  -999.2500  -999.2500  -999.2500  -999.2500
 9352.5000  -999.2500  1330.8398    58.3282      .7286      .7910  -999.2500  -999.2500  -999.2500  -999.2500  -999.2500  -999.2500
 9353.0000  -999.2500  1337.5020    57.2318      .7295      .7901  -999.2500  -999.2500  -999.2500  -999.2500  -999.2500  -999.2500
 9353.5000  -999.2500  1344.1660    54.2350      .7303      .7892  -999.2500  -999.2500  -999.2500  -999.2500  -999.2500  -999.2500
 9354.0000  -999.2500  1353.1348    52.3115      .7298      .7828  -999.2500  -999.2500  -999.2500  -999.2500  -999.2500  -999.2500
 9354.5000  -999.2500  1380.4316    52.6992      .7199      .7716  -999.2500  -999.2500  -999.2500  -999.2500  -999.2500  -999.2500
 9355.0000  -999.2500  1407.7773    56.0072      .7101      .7605  -999.2500  -999.2500  -999.2500  -999.2500  -999.2500  -999.2500
 9355.5000  -999.2500  1434.9746    59.6746      .7005      .7493  -999.2500  -999.2500  -999.2500  -999.2500  -999.2500  -999.2500
 9356.0000  -999.2500  1461.8730    62.5790      .6900      .7327  -999.2500  -999.2500  -999.2500  -999.2500  -999.2500  -999.2500
 9356.5000  -999.2500  1488.8203    63.4663      .6775      .7164  -999.2500  -999.2500  -999.2500  -999.2500  -999.2500  -999.2500
 9357.0000  -999.2500  1498.7656    64.2600      .6652      .7005  -999.2500  -999.2500  -999.2500  -999.2500  -999.2500  -999.2500
 9357.5000  -999.2500  1493.9082    64.9369      .6549      .6950  -999.2500  -999.2500  -999.2500  -999.2500  -999.2500  -999.2500
 9358.0000  -999.2500  1484.8516    65.6125      .6545      .6970  -999.2500  -999.2500  -999.2500  -999.2500  -999.2500  -999.2500
 9358.5000  -999.2500  1457.3066    67.2579      .6542      .7086  -999.2500  -999.2500  -999.2500  -999.2500  -999.2500  -999.2500
 9359.0000  -999.2500  1429.7637    69.2271      .6538      .7314  -999.2500  -999.2500  -999.2500  -999.2500  -999.2500  -999.2500
 9359.5000  -999.2500  1402.2188    70.9186      .6679      .7549  -999.2500  -999.2500  -999.2500  -999.2500  -999.2500  -999.2500
 9360.0000  -999.2500  1370.5547    71.1823      .6835      .7769  -999.2500  -999.2500  -999.2500  -999.2500  -999.2500  -999.2500
 9360.5000  -999.2500  1337.5527    70.0441      .6996      .7981  -999.2500  -999.2500  -999.2500  -999.2500  -999.2500  -999.2500
