~VERSION INFORMATION
VERS.                             2.0:   CWLS Log ASCII Standard-VERSION 2.0
WRAP.                              NO:   One line per depth step
~Well Information Block
STRT.F                      3993.0000:   Top Depth
STOP.F                     13285.0000:   Bottom Depth
STEP.F                         .50000:   Depth Increment
NULL.                        -999.250:   Null Value
FLD .                     MU BLK A 85:   Field Name
WELL.       OCSG03061  B004 ST00 BP00:   NAME
API .                    427124009200:   WELL API
EDF .F                       122.0000:   ELEV DRILL FLOOR
COMP.             TRANSCO EXPLORATION:   OPERATOR
BN  .                           A 859:   BLOCK
CTRY.                             USA:   COUNTRY NAME
CNTY.                        M I E AD:   COUNTY NAME
EKB .F                       123.0000:   ELEV KELLY BUSHING
TDD .F                          0.000:   FINAL TD DRILLER
STAT.                           TEXAS:   STATE NAME
UWI .                    427124009200:   WELL API
DICO.               IHS : Digitizing Company
~PARAMETER INFORMATION (zones)
#MNEM.UNIT                       Value     Description
#=========                       =====     ===========
#ZONATION                          CNL:   ZONATION NAME
#ZONE                            RUN_1:   ZONE NAME
TOP .                       3993.0000:   TOP DEPTH
BOT .                       9346.5000:   BOTTOM DEPTH
RUN .                               1:   RUN NUMBER
LCCD.                              20:   LOGGING CONTRACTOR
SRVC.                          Baroil:   LOGGING CONT NAME
DICO.          QC Data Collectors Ltd:   DIG COMPANY NAME
LDAT.                      12/10/1986:   DATE LOGGED
ELD .F                       123.0000:   LOG DATUM ELEVATION
TDD .F                      9350.0000:   TOTAL DEPTH DRILLER
TDL .F                      9348.0000:   TOTAL DEPTH LOGGER
BOTL.F                      9346.0000:   BOTTOM DEPTH LOGGED
TOPL.F                      4002.0000:   TOP DEPTH LOGGED
CS1 .IN                       13.3750:   CASING SIZE 1
BS1 .IN                       12.2500:   BIT SIZE 1
DDB1.F                      9350.0000:   DEPTH DRILLED BIT 1
BHF .                              65:   FLUID CODE
DPT .                        INVERMUL:   DRILLING FLUID TYPE
MUDD.                         12.8000:   FLUID DENSITY
MUDV.                         40.0000:   FLUID VISCOSITY
DFPH.                          9.2000:   FLUID PH
FL  .                         11.0000:   FLUID LOSS
RM  .OHMM                       .3400:   RM
RMT .DEGF                     70.0000:   RM TEMP
RMF .OHMM                       .1600:   RMF
RMFT.DEGF                     70.0000:   RMF TEMP
FSC .                               M:   RMF CODE
RMC .OHMM                       .4200:   RMC
RMCT.DEGF                     70.0000:   RMC TEMP
CMC .                               C:   RMC CODE
TMAX.DEGF                    202.0000:   MAX REC TEMP
~PARAMETER INFORMATION (zones)
#MNEM.UNIT                       Value     Description
#=========                       =====     ===========
#ZONATION                          DIL:   ZONATION NAME
#ZONE                            RUN_1:   ZONE NAME
TOP .                       4002.0000:   TOP DEPTH
BOT .                       9336.5000:   BOTTOM DEPTH
RUN .                               1:   RUN NUMBER
LCCD.                              20:   LOGGING CONTRACTOR
SRVC.                          Baroil:   LOGGING CONT NAME
DICO.          QC Data Collectors Ltd:   DIG COMPANY NAME
LDAT.                      12/10/1986:   DATE LOGGED
ELD .F                       123.0000:   LOG DATUM ELEVATION
TDD .F                      9350.0000:   TOTAL DEPTH DRILLER
TDL .F                      9348.0000:   TOTAL DEPTH LOGGER
BOTL.F                      9346.0000:   BOTTOM DEPTH LOGGED
TOPL.F                      4002.0000:   TOP DEPTH LOGGED
CS1 .IN                       13.3750:   CASING SIZE 1
BS1 .IN                       12.2500:   BIT SIZE 1
DDB1.F                      9350.0000:   DEPTH DRILLED BIT 1
BHF .                              65:   FLUID CODE
DPT .                        INVERMUL:   DRILLING FLUID TYPE
MUDD.                         12.8000:   FLUID DENSITY
MUDV.                         40.0000:   FLUID VISCOSITY
DFPH.                          9.2000:   FLUID PH
FL  .                         11.0000:   FLUID LOSS
RM  .OHMM                       .3400:   RM
RMT .DEGF                     70.0000:   RM TEMP
RMF .OHMM                       .1600:   RMF
RMFT.DEGF                     70.0000:   RMF TEMP
FSC .                               M:   RMF CODE
RMC .OHMM                       .4200:   RMC
RMCT.DEGF                     70.0000:   RMC TEMP
CMC .                               C:   RMC CODE
TMAX.DEGF                    202.0000:   MAX REC TEMP
~PARAMETER INFORMATION (zones)
#MNEM.UNIT                       Value     Description
#=========                       =====     ===========
#ZONATION                          DIL:   ZONATION NAME
#ZONE                            RUN_3:   ZONE NAME
TOP .                       9336.0000:   TOP DEPTH
BOT .                      13285.5000:   BOTTOM DEPTH
RUN .                               3:   RUN NUMBER
LCCD.                              20:   LOGGING CONTRACTOR
SRVC.                          Baroil:   LOGGING CONT NAME
DICO.          QC Data Collectors Ltd:   DIG COMPANY NAME
LDAT.                      12/28/1986:   DATE LOGGED
ELD .F                       123.0000:   LOG DATUM ELEVATION
TDD .                            NULL:   TOTAL DEPTH DRILLER
TDL .                            NULL:   TOTAL DEPTH LOGGER
BOTL.F                     13291.0000:   BOTTOM DEPTH LOGGED
TOPL.F                     13285.0000:   TOP DEPTH LOGGED
CS1 .IN                        9.6250:   CASING SIZE 1
BS1 .IN                        8.5000:   BIT SIZE 1
DDB1.                            NULL:   DEPTH DRILLED BIT 1
BHF .                              35:   FLUID CODE
DPT .                       PETROFREE:   DRILLING FLUID TYPE
MUDD.                         14.9000:   FLUID DENSITY
MUDV.                         49.0000:   FLUID VISCOSITY
DFPH.                            NULL:   FLUID PH
FL  .                          6.0000:   FLUID LOSS
RM  .                            NULL:   RM
RMT .                            NULL:   RM TEMP
RMF .                            NULL:   RMF
RMFT.                            NULL:   RMF TEMP
FSC .                            NULL:   RMF CODE
RMC .                            NULL:   RMC
RMCT.                            NULL:   RMC TEMP
CMC .                            NULL:   RMC CODE
TMAX.DEGF                    274.0000:   MAX REC TEMP
~PARAMETER INFORMATION (zones)
#MNEM.UNIT                       Value     Description
#=========                       =====     ===========
#ZONATION                          FDC:   ZONATION NAME
#ZONE                            RUN_1:   ZONE NAME
TOP .                       3993.0000:   TOP DEPTH
BOT .                       9346.5000:   BOTTOM DEPTH
RUN .                               1:   RUN NUMBER
LCCD.                              20:   LOGGING CONTRACTOR
SRVC.                          Baroil:   LOGGING CONT NAME
DICO.          QC Data Collectors Ltd:   DIG COMPANY NAME
LDAT.                      12/10/1986:   DATE LOGGED
ELD .F                       123.0000:   LOG DATUM ELEVATION
TDD .F                      9350.0000:   TOTAL DEPTH DRILLER
TDL .F                      9348.0000:   TOTAL DEPTH LOGGER
BOTL.F                      9346.0000:   BOTTOM DEPTH LOGGED
TOPL.F                      4002.0000:   TOP DEPTH LOGGED
CS1 .IN                       13.3750:   CASING SIZE 1
BS1 .IN                       12.2500:   BIT SIZE 1
DDB1.F                      9350.0000:   DEPTH DRILLED BIT 1
BHF .                              65:   FLUID CODE
DPT .                        INVERMUL:   DRILLING FLUID TYPE
MUDD.                         12.8000:   FLUID DENSITY
MUDV.                         40.0000:   FLUID VISCOSITY
DFPH.                          9.2000:   FLUID PH
FL  .                         11.0000:   FLUID LOSS
RM  .OHMM                       .3400:   RM
RMT .DEGF                     70.0000:   RM TEMP
RMF .OHMM                       .1600:   RMF
RMFT.DEGF                     70.0000:   RMF TEMP
FSC .                               M:   RMF CODE
RMC .OHMM                       .4200:   RMC
RMCT.DEGF                     70.0000:   RMC TEMP
CMC .                               C:   RMC CODE
TMAX.DEGF                    202.0000:   MAX REC TEMP
~Curve Information Block
#MNEM.UNIT                    API CODE    No Description
#=========                    ========    == ===========
DEPT.F                   00 001 00 00:     1  DEPTH
NPHI.%                               :     2  Neutron Porosity
CILD.MMHO                            :     3  Deep Induction Conductivity
GR.GAPI                              :     4  Gamma Ray
ILD.OHMM                             :     5  Deep Induction Resistivity
ILM.OHMM                             :     6  Medium Induction Resistivity
RFOC.OHMM                            :     7  Medium Resistivity
SP.MV                                :     8  Spontaneous Potential
CALI.IN                              :     9  Caliper
DRHO.G/C3                            :    10  Bulk Density Correction
GRD.GAPI                             :    11  Gamma Ray
RHOB.G/C3                            :    12  Bulk Density
~ASCII
# ...
 6128.0000    33.1419  1369.8789  -999.2500      .7141      .7514      .8394   -66.9125    15.2069      .0174    55.2419     2.3157
 6128.5000    33.4031  1368.6152  -999.2500      .7108      .7427      .8394   -67.1381    15.1895      .0127    54.0509     2.3012
 6129.0000    34.7293  1362.5859  -999.2500      .7098      .7348      .8386   -67.3463    15.1938      .0098    54.2084     2.2977
 6129.5000    35.6871  1354.9570  -999.2500      .7189      .7412      .8163   -67.5164    15.2659      .0146    54.9778     2.3028
 6130.0000    34.8138  1355.1289  -999.2500      .7281      .7476      .7999   -67.6865    15.3167      .0200    55.6183     2.3046
 6130.5000    33.7933  1364.6211  -999.2500      .7227      .7541      .8092   -67.8567    15.3311      .0242    55.1802     2.3061
 6131.0000    34.0097  1382.0566  -999.2500      .7134      .7429      .8186   -67.7926    15.3281      .0254    54.4848     2.3107
 6131.5000    34.7145  1403.8086  -999.2500      .7041      .7294      .8231   -67.6595    15.3487      .0140    53.9924     2.3108
 6132.0000    35.3962  1428.8730  -999.2500      .6926      .7162      .8266   -67.5265    15.3712     -.0079    54.4632     2.2969
 6132.5000    36.3864  1454.1621  -999.2500      .6812      .7022      .8218   -67.3558    15.3632     -.0118    55.6776     2.2799
 6133.0000    37.8425  1479.0020  -999.2500      .6700      .6864      .8009   -67.1637    15.3592     -.0086    56.8536     2.2735
 6133.5000    36.7895  1503.7910  -999.2500      .6599      .6710      .7806   -66.9716    15.3558      .0009    57.1377     2.2765
 6134.0000    34.5722  1526.3906  -999.2500      .6507      .6667      .7791   -66.8710    15.3496      .0088    57.2886     2.2862
 6134.5000    33.0152  1545.0215  -999.2500      .6415      .6707      .7811   -67.0889    15.3425      .0102    57.5459     2.2991
 6135.0000    32.3871  1559.0469  -999.2500      .6374      .6747      .7852   -67.3066    15.3337      .0104    58.4615     2.3126
 6135.5000    32.0301  1565.9727  -999.2500      .6343      .6797      .7991   -67.5355    15.3138      .0116    59.6953     2.3252
 6136.0000    33.4636  1555.7227  -999.2500      .6407      .6903      .8132   -67.8955    15.2810      .0142    59.0403     2.3296
 6136.5000    35.9387  1533.3359  -999.2500      .6559      .7011      .8275   -68.2555    15.2279      .0172    57.1818     2.3298
 6137.0000    36.7262  1501.8242  -999.2500      .6741      .7120      .8245   -68.5457    15.1618      .0203    56.9474     2.3280
 6137.5000    36.5790  1460.9570  -999.2500      .7043      .7407      .8176   -68.6656    15.1045      .0226    58.1243     2.3229
 6138.0000    36.2946  1410.2305  -999.2500      .7357      .7780      .8275   -68.7859    15.0866      .0203    57.8013     2.3169
 6138.5000    36.1863  1329.7383  -999.2500      .7679      .8172      .8500   -68.9059    15.0644      .0192    55.9527     2.3182
 6139.0000    36.1155  1261.1172  -999.2500      .7849      .8462      .8731   -69.0012    15.0338      .0266    54.3990     2.3284
 6139.5000    35.5652  1249.8359  -999.2500      .7900      .8606      .9003   -69.0787    14.9834      .0391    54.2226     2.3478
 6140.0000    34.6018  1253.0410  -999.2500      .7951      .8690      .9289   -69.1563    14.9228      .0478    55.5998     2.3568
 6140.5000    33.7429  1252.1328  -999.2500      .7994      .8513      .9153   -69.2339    14.8641      .0512    57.5471     2.3435
 6141.0000    33.0219  1243.4453  -999.2500      .8025      .8340      .8972   -69.1732    14.8322      .0494    59.0051     2.3098
 6141.5000    32.5835  1232.2578  -999.2500      .8056      .8351      .8762   -69.0935    14.8341      .0407    58.8614     2.3007
 6142.0000    31.7005  1220.7207  -999.2500      .8087      .8391      .8511   -69.0139    14.8389      .0253    57.2522     2.3038
 6142.5000    30.4251  1210.1191  -999.2500      .8116      .8412      .8732   -68.9366    14.8496      .0090    55.7602     2.3077
 6143.0000    29.4625  1206.4004  -999.2500      .8142      .8425      .8961   -68.8983    14.8663      .0042    54.1609     2.3048
 6143.5000    30.5541  1196.7031  -999.2500      .8168      .8192      .9291   -68.8599    14.9070      .0111    51.2115     2.2996
 6144.0000    32.2260  1171.5137  -999.2500      .8429      .8449      .9812   -68.8215    14.9900      .0153    48.2227     2.2868
 6144.5000    32.8929  1130.0723  -999.2500      .8819      .8714     1.0075   -68.7494    15.2160      .0180    47.5723     2.2739
 6145.0000    32.7744  1082.9824  -999.2500      .9236      .9164      .9941   -68.5690    15.1158      .0167    48.3547     2.2646
 6145.5000    32.2119  1034.3477  -999.2500      .9727      .9712      .9560   -68.4734    15.0534      .0101    48.5898     2.2582
 6146.0000    31.7294   989.2725  -999.2500     1.0245      .9983      .9324   -68.7448    15.0412      .0261    48.3726     2.2457
 6146.5000    32.4001   976.9521  -999.2500     1.0201     1.0070      .9612   -69.0161    14.9056      .0264    48.4198     2.2363
 6147.0000    34.4684   984.8174  -999.2500     1.0156     1.0055      .9849   -69.9279    15.0274      .0181    48.7589     2.2484
 6147.5000    36.4627   994.9102  -999.2500     1.0043      .9861      .9956   -70.2297    15.1494      .0077    48.6672     2.2777
 6148.0000    36.8220  1005.0781  -999.2500      .9846      .9671     1.0063   -70.1396    15.1017     -.0047    47.9758     2.2845
 6148.5000    35.2659  1016.6768  -999.2500      .9653      .9497      .9871   -70.0496    14.8665     -.0179    47.4008     2.2552
 6149.0000    33.2397  1024.0801  -999.2500      .9464      .9333      .9609   -69.9380    14.6556     -.0274    48.4201     2.2340
 6149.5000    32.5294  1030.8125  -999.2500      .9335      .9211      .9289   -69.7743    14.5738     -.0321    50.0392     2.2303
 6150.0000    32.4984  1048.6348  -999.2500      .9211      .9106      .9237   -69.6106    14.5734     -.0219    51.0560     2.2579
 6150.5000    36.6383  1077.7793  -999.2500      .9089      .9040      .9200   -69.5206    14.5889      .0083    50.9363     2.2800
 6151.0000    38.0248  1108.3945  -999.2500      .8968      .8990      .9218   -69.5228    14.6047      .0212    50.3122     2.2881
 6151.5000    38.3213  1126.1152  -999.2500      .8892      .8944      .9245   -69.5250    14.5986      .0278    50.2494     2.2756
 6152.0000    36.5227  1136.5723  -999.2500      .8849      .8911      .9267   -69.5172    14.5825      .0315    50.7537     2.2618
 6152.5000    34.4981  1138.7285  -999.2500      .8806      .8889      .9224   -69.4587    14.5573      .0255    51.1825     2.2537
 6153.0000    32.9641  1140.8887  -999.2500      .8763      .8885      .9182   -69.4001    14.5450      .0105    50.8876     2.2514
 6153.5000    31.2522  1136.5508  -999.2500      .8758      .8881      .9140   -69.3416    14.5320      .0016    50.3896     2.2538
 6154.0000    30.1754  1130.9687  -999.2500      .8831      .8996      .9308   -69.3447    14.5155     -.0008    50.0263     2.2623
 6154.5000    30.6401  1119.0352  -999.2500      .8904      .9141      .9558   -69.3528    14.4847     -.0007    50.1096     2.2871
 6155.0000    31.6642  1104.7969  -999.2500      .8978      .9288      .9652   -69.0638    14.4471     -.0003    50.6161     2.3158
 6155.5000    32.4097  1088.3711  -999.2500      .9161      .9447      .9684   -68.6624    14.4235      .0009    51.2676     2.3348
 6156.0000    33.2783  1068.7441  -999.2500      .9362      .9612      .9697   -68.2607    14.4161      .0064    52.0482     2.3414
 6156.5000    33.8556  1045.2734  -999.2500      .9567      .9779      .9707   -68.5796    14.4397      .0136    52.5436     2.3511
 6157.0000    32.8633  1028.0137  -999.2500      .9751      .9932      .9757   -68.9703    14.5792      .0203    52.6863     2.3616
 6157.5000    32.5498  1014.4238  -999.2500      .9909      .9961      .9852   -69.3611    14.8806      .0324    52.6661     2.3639
 6158.0000    34.2357  1007.7725  -999.2500     1.0057      .9985      .9927   -69.7146    14.7944      .0546    52.3789     2.3598
