~VERSION INFORMATION
VERS.                             2.0:   CWLS Log ASCII Standard-VERSION 2.0
WRAP.                              NO:   One line per depth step
~Well Information Block
STRT.F                      3993.0000:   Top Depth
STOP.F                     13285.0000:   Bottom Depth
STEP.F                         .50000:   Depth Increment
NULL.                        -999.250:   Null Value
FLD .                     MU BLK A 85:   Field Name
WELL.       OCSG03061  B004 ST00 BP00:   NAME
API .                    427124009200:   WELL API
EDF .F                       122.0000:   ELEV DRILL FLOOR
COMP.             TRANSCO EXPLORATION:   OPERATOR
BN  .                           A 859:   BLOCK
CTRY.                             USA:   COUNTRY NAME
CNTY.                        M I E AD:   COUNTY NAME
EKB .F                       123.0000:   ELEV KELLY BUSHING
TDD .F                          0.000:   FINAL TD DRILLER
STAT.                           TEXAS:   STATE NAME
UWI .                    427124009200:   WELL API
DICO.               IHS : Digitizing Company
~PARAMETER INFORMATION (zones)
#MNEM.UNIT                       Value     Description
#=========                       =====     ===========
#ZONATION                          CNL:   ZONATION NAME
#ZONE                            RUN_1:   ZONE NAME
TOP .                       3993.0000:   TOP DEPTH
BOT .                       9346.5000:   BOTTOM DEPTH
RUN .                               1:   RUN NUMBER
LCCD.                              20:   LOGGING CONTRACTOR
SRVC.                          Baroil:   LOGGING CONT NAME
DICO.          QC Data Collectors Ltd:   DIG COMPANY NAME
LDAT.                      12/10/1986:   DATE LOGGED
ELD .F                       123.0000:   LOG DATUM ELEVATION
TDD .F                      9350.0000:   TOTAL DEPTH DRILLER
TDL .F                      9348.0000:   TOTAL DEPTH LOGGER
BOTL.F                      9346.0000:   BOTTOM DEPTH LOGGED
TOPL.F                      4002.0000:   TOP DEPTH LOGGED
CS1 .IN                       13.3750:   CASING SIZE 1
BS1 .IN                       12.2500:   BIT SIZE 1
DDB1.F                      9350.0000:   DEPTH DRILLED BIT 1
BHF .                              65:   FLUID CODE
DPT .                        INVERMUL:   DRILLING FLUID TYPE
MUDD.                         12.8000:   FLUID DENSITY
MUDV.                         40.0000:   FLUID VISCOSITY
DFPH.                          9.2000:   FLUID PH
FL  .                         11.0000:   FLUID LOSS
RM  .OHMM                       .3400:   RM
RMT .DEGF                     70.0000:   RM TEMP
RMF .OHMM                       .1600:   RMF
RMFT.DEGF                     70.0000:   RMF TEMP
FSC .                               M:   RMF CODE
RMC .OHMM                       .4200:   RMC
RMCT.DEGF                     70.0000:   RMC TEMP
CMC .                               C:   RMC CODE
TMAX.DEGF                    202.0000:   MAX REC TEMP
~PARAMETER INFORMATION (zones)
#MNEM.UNIT                       Value     Description
#=========                       =====     ===========
#ZONATION                          DIL:   ZONATION NAME
#ZONE                            RUN_1:   ZONE NAME
TOP .                       4002.0000:   TOP DEPTH
BOT .                       9336.5000:   BOTTOM DEPTH
RUN .                               1:   RUN NUMBER
LCCD.                              20:   LOGGING CONTRACTOR
SRVC.                          Baroil:   LOGGING CONT NAME
DICO.          QC Data Collectors Ltd:   DIG COMPANY NAME
LDAT.                      12/10/1986:   DATE LOGGED
ELD .F                       123.0000:   LOG DATUM ELEVATION
TDD .F                      9350.0000:   TOTAL DEPTH DRILLER
TDL .F                      9348.0000:   TOTAL DEPTH LOGGER
BOTL.F                      9346.0000:   BOTTOM DEPTH LOGGED
TOPL.F                      4002.0000:   TOP DEPTH LOGGED
CS1 .IN                       13.3750:   CASING SIZE 1
BS1 .IN                       12.2500:   BIT SIZE 1
DDB1.F                      9350.0000:   DEPTH DRILLED BIT 1
BHF .                              65:   FLUID CODE
DPT .                        INVERMUL:   DRILLING FLUID TYPE
MUDD.                         12.8000:   FLUID DENSITY
MUDV.                         40.0000:   FLUID VISCOSITY
DFPH.                          9.2000:   FLUID PH
FL  .                         11.0000:   FLUID LOSS
RM  .OHMM                       .3400:   RM
RMT .DEGF                     70.0000:   RM TEMP
RMF .OHMM                       .1600:   RMF
RMFT.DEGF                     70.0000:   RMF TEMP
FSC .                               M:   RMF CODE
RMC .OHMM                       .4200:   RMC
RMCT.DEGF                     70.0000:   RMC TEMP
CMC .                               C:   RMC CODE
TMAX.DEGF                    202.0000:   MAX REC TEMP
~PARAMETER INFORMATION (zones)
#MNEM.UNIT                       Value     Description
#=========                       =====     ===========
#ZONATION                          DIL:   ZONATION NAME
#ZONE                            RUN_3:   ZONE NAME
TOP .                       9336.0000:   TOP DEPTH
BOT .                      13285.5000:   BOTTOM DEPTH
RUN .                               3:   RUN NUMBER
LCCD.                              20:   LOGGING CONTRACTOR
SRVC.                          Baroil:   LOGGING CONT NAME
DICO.          QC Data Collectors Ltd:   DIG COMPANY NAME
LDAT.                      12/28/1986:   DATE LOGGED
ELD .F                       123.0000:   LOG DATUM ELEVATION
TDD .                            NULL:   TOTAL DEPTH DRILLER
TDL .                            NULL:   TOTAL DEPTH LOGGER
BOTL.F                     13291.0000:   BOTTOM DEPTH LOGGED
TOPL.F                     13285.0000:   TOP DEPTH LOGGED
CS1 .IN                        9.6250:   CASING SIZE 1
BS1 .IN                        8.5000:   BIT SIZE 1
DDB1.                            NULL:   DEPTH DRILLED BIT 1
BHF .                              35:   FLUID CODE
DPT .                       PETROFREE:   DRILLING FLUID TYPE
MUDD.                         14.9000:   FLUID DENSITY
MUDV.                         49.0000:   FLUID VISCOSITY
DFPH.                            NULL:   FLUID PH
FL  .                          6.0000:   FLUID LOSS
RM  .                            NULL:   RM
RMT .                            NULL:   RM TEMP
RMF .                            NULL:   RMF
RMFT.                            NULL:   RMF TEMP
FSC .                            NULL:   RMF CODE
RMC .                            NULL:   RMC
RMCT.                            NULL:   RMC TEMP
CMC .                            NULL:   RMC CODE
TMAX.DEGF                    274.0000:   MAX REC TEMP
~PARAMETER INFORMATION (zones)
#MNEM.UNIT                       Value     Description
#=========                       =====     ===========
#ZONATION                          FDC:   ZONATION NAME
#ZONE                            RUN_1:   ZONE NAME
TOP .                       3993.0000:   TOP DEPTH
BOT .                       9346.5000:   BOTTOM DEPTH
RUN .                               1:   RUN NUMBER
LCCD.                              20:   LOGGING CONTRACTOR
SRVC.                          Baroil:   LOGGING CONT NAME
DICO.          QC Data Collectors Ltd:   DIG COMPANY NAME
LDAT.                      12/10/1986:   DATE LOGGED
ELD .F                       123.0000:   LOG DATUM ELEVATION
TDD .F                      9350.0000:   TOTAL DEPTH DRILLER
TDL .F                      9348.0000:   TOTAL DEPTH LOGGER
BOTL.F                      9346.0000:   BOTTOM DEPTH LOGGED
TOPL.F                      4002.0000:   TOP DEPTH LOGGED
CS1 .IN                       13.3750:   CASING SIZE 1
BS1 .IN                       12.2500:   BIT SIZE 1
DDB1.F                      9350.0000:   DEPTH DRILLED BIT 1
BHF .                              65:   FLUID CODE
DPT .                        INVERMUL:   DRILLING FLUID TYPE
MUDD.                         12.8000:   FLUID DENSITY
MUDV.                         40.0000:   FLUID VISCOSITY
DFPH.                          9.2000:   FLUID PH
FL  .                         11.0000:   FLUID LOSS
RM  .OHMM                       .3400:   RM
RMT .DEGF                     70.0000:   RM TEMP
RMF .OHMM                       .1600:   RMF
RMFT.DEGF                     70.0000:   RMF TEMP
FSC .                               M:   RMF CODE
RMC .OHMM                       .4200:   RMC
RMCT.DEGF                     70.0000:   RMC TEMP
CMC .                               C:   RMC CODE
TMAX.DEGF                    202.0000:   MAX REC TEMP
~Curve Information Block
#MNEM.UNIT                    API CODE    No Description
#=========                    ========    == ===========
DEPT.F                   00 001 00 00:     1  DEPTH
NPHI.%                               :     2  Neutron Porosity
CILD.MMHO                            :     3  Deep Induction Conductivity
GR.GAPI                              :     4  Gamma Ray
ILD.OHMM                             :     5  Deep Induction Resistivity
ILM.OHMM                             :     6  Medium Induction Resistivity
RFOC.OHMM                            :     7  Medium Resistivity
SP.MV                                :     8  Spontaneous Potential
CALI.IN                              :     9  Caliper
DRHO.G/C3                            :    10  Bulk Density Correction
GRD.GAPI                             :    11  Gamma Ray
RHOB.G/C3                            :    12  Bulk Density
~ASCII
# ...
 6829.5000    33.2927  1093.5918  -999.2500      .9069     1.0100      .9237   -70.2313    15.8484      .0190    52.5923     2.3566
 6830.0000    33.5925  1067.2520  -999.2500      .9242     1.0192      .9384   -70.3175    15.8358      .0103    52.0563     2.3621
 6830.5000    32.6584  1045.1875  -999.2500      .9418     1.0179      .9469   -70.4037    15.8321     -.0011    51.6674     2.3710
 6831.0000    31.6502  1035.7949  -999.2500      .9524     1.0167      .9476   -70.5194    15.8484     -.0033    51.5029     2.3818
 6831.5000    31.1932  1031.1758  -999.2500      .9489     1.0027      .9484   -70.6781    15.8736      .0127    51.8102     2.3886
 6832.0000    31.2659  1027.2031  -999.2500      .9454      .9842      .9503   -70.8372    15.9071      .0373    53.1197     2.3923
 6832.5000    31.4966  1024.6035  -999.2500      .9419      .9660      .9506   -70.9232    15.9424      .0527    54.3739     2.3879
 6833.0000    31.2956  1034.8516  -999.2500      .9214      .9539      .9416   -70.9882    15.9801      .0594    54.4422     2.3854
 6833.5000    30.8185  1051.5977  -999.2500      .9007      .9433      .9453   -71.0529    16.0154      .0584    54.0063     2.3872
 6834.0000    31.4343  1074.2852  -999.2500      .8889      .9352      .9454   -70.8229    16.0417      .0433    53.4066     2.3896
 6834.5000    33.3558  1096.5977  -999.2500      .8837      .9312      .9429   -70.5895    16.0625      .0180    52.9497     2.3838
 6835.0000    33.8640  1115.6680  -999.2500      .8785      .9271      .9370   -70.3556    16.0724      .0048    52.7817     2.3701
 6835.5000    33.9933  1126.7871  -999.2500      .8741      .9239      .9311   -70.2521    16.0800     -.0057    52.9899     2.3635
 6836.0000    33.1881  1134.9063  -999.2500      .8726      .9288      .9373   -70.2048    16.0744     -.0148    53.1863     2.3621
 6836.5000    30.9832  1136.4355  -999.2500      .8711      .9337      .9457   -70.1575    16.0653     -.0174    52.9744     2.3601
 6837.0000    29.5789  1137.9648  -999.2500      .8697      .9387      .9541   -70.1104    16.0483     -.0075    52.4866     2.3544
 6837.5000    29.6656  1135.4941  -999.2500      .8682      .9374      .9510   -69.9969    16.0291      .0042    52.4476     2.3467
 6838.0000    31.4848  1132.9102  -999.2500      .8679      .9357      .9469   -69.8748    16.0034     -.0133    52.8856     2.3426
 6838.5000    32.0602  1129.4375  -999.2500      .8676      .9341      .9391   -69.7527    15.9632     -.0241    52.1367     2.3425
 6839.0000    31.5560  1128.7441  -999.2500      .8673      .9325      .9313   -69.6411    15.9364     -.0159    50.5502     2.3460
 6839.5000    30.4046  1134.4043  -999.2500      .8668      .9188      .9307   -69.5885    15.9032     -.0049    50.3313     2.3488
 6840.0000    30.3256  1143.1016  -999.2500      .8570      .9045      .9350   -69.5358    15.7998     -.0049    52.7487     2.3460
 6840.5000    33.1659  1152.8418  -999.2500      .8474      .8908      .9456   -69.4832    15.6144     -.0069    54.7686     2.3389
 6841.0000    33.7202  1165.8984  -999.2500      .8378      .8789      .9360   -69.5204    15.7210     -.0058    54.9214     2.3322
 6841.5000    33.7264  1182.3730  -999.2500      .8262      .8672      .9206   -69.5840    16.1417     -.0029    54.4218     2.3315
 6842.0000    33.9578  1201.1328  -999.2500      .8126      .8556      .9143   -69.7065    16.1692     -.0110    53.6069     2.3339
 6842.5000    34.0469  1221.7324  -999.2500      .7993      .8508      .9144   -69.8877    16.1485     -.0206    53.1361     2.3348
 6843.0000    33.8684  1241.5098  -999.2500      .7860      .8466      .9144   -70.0687    16.1299     -.0271    53.2248     2.3342
 6843.5000    33.8873  1257.3574  -999.2500      .7729      .8428      .9106   -69.9508    16.1194     -.0188    54.8286     2.3354
 6844.0000    33.7764  1258.6348  -999.2500      .7752      .8544      .9064   -69.5889    16.1155     -.0007    57.8285     2.3434
 6844.5000    32.9270  1255.3262  -999.2500      .7837      .8680      .9055   -69.2269    16.1116      .0170    59.3612     2.3545
 6845.0000    32.0256  1242.0820  -999.2500      .7923      .8866      .9190   -69.1785    16.1058      .0244    59.5226     2.3627
 6845.5000    31.2006  1225.9551  -999.2500      .8009      .9055      .9328   -69.3458    16.0932      .0203    58.9018     2.3690
 6846.0000    30.1865  1206.4746  -999.2500      .8142      .9232      .9468   -69.5264    16.0575      .0094    56.0825     2.3744
 6846.5000    29.5306  1182.3223  -999.2500      .8284      .9332      .9592   -69.5715    15.9829      .0052    52.8254     2.3782
 6847.0000    29.3956  1162.5566  -999.2500      .8430      .9433      .9715   -69.5812    15.9061      .0082    50.8222     2.3811
 6847.5000    31.7637  1149.6914  -999.2500      .8577      .9535      .9839   -69.6025    15.8327      .0145    50.4039     2.3836
 6848.0000    33.6718  1141.9766  -999.2500      .8672      .9599      .9765   -69.6600    15.7963      .0157    54.3266     2.3870
 6848.5000    33.9738  1132.1797  -999.2500      .8747      .9548      .9692   -69.7177    15.7758      .0171    56.3978     2.3917
 6849.0000    32.3060  1124.2227  -999.2500      .8823      .9498      .9648   -69.7645    15.7715      .0301    57.4662     2.3978
 6849.5000    32.3268  1120.8730  -999.2500      .8870      .9459      .9734   -69.7455    15.7681      .0532    58.3602     2.4047
 6850.0000    32.7482  1122.5176  -999.2500      .8861      .9466      .9897   -69.7263    15.7647      .0587    58.9507     2.4085
 6850.5000    32.9630  1124.5195  -999.2500      .8852      .9474      .9964   -69.7073    15.7625      .0368    58.8486     2.3987
 6851.0000    32.3839  1121.9434  -999.2500      .8852      .9481     1.0000   -69.8204    15.7626      .0165    57.7691     2.3811
 6851.5000    32.2696  1116.2031  -999.2500      .8868      .9514      .9921   -69.9490    15.7715      .0137    56.7230     2.3699
 6852.0000    32.1578  1107.8789  -999.2500      .8885      .9550      .9758   -70.0775    15.7708      .0135    55.8784     2.3686
 6852.5000    30.0663  1104.7891  -999.2500      .8901      .9587      .9612   -70.2162    15.8074      .0053    55.2280     2.3711
 6853.0000    28.9186  1105.8477  -999.2500      .8859      .9604      .9475   -70.3552    15.6740      .0064    55.1195     2.3811
 6853.5000    29.1189  1106.5527  -999.2500      .8808      .9616      .9560   -70.6239    15.5374      .0237    55.0373     2.3912
 6854.0000    30.4906  1099.9648  -999.2500      .8758      .9629      .9583   -71.0016    15.4605      .0169    54.5504     2.3954
 6854.5000    31.2689  1086.8320  -999.2500      .8829      .9715      .9684   -71.0375    15.4316     -.0014    54.1471     2.3901
 6855.0000    31.8108  1070.7813  -999.2500      .9016      .9944      .9817   -70.9244    15.4480     -.0084    54.1918     2.3833
 6855.5000    32.1245  1054.4063  -999.2500      .9208     1.0174      .9809   -70.7808    15.4750     -.0037    55.0469     2.3791
 6856.0000    32.1754  1028.2656  -999.2500      .9412     1.0331      .9784   -70.6028    15.4816      .0064    55.5001     2.3797
 6856.5000    30.4713  1005.6299  -999.2500      .9625     1.0491      .9705   -70.4795    15.4482      .0124    54.6951     2.3874
 6857.0000    29.4253  1006.1895  -999.2500      .9843     1.0428      .9869   -70.6256    15.4139      .0150    51.6952     2.3949
 6857.5000    29.2126  1006.4629  -999.2500      .9849     1.0307     1.0128   -70.7719    15.4394      .0144    47.9620     2.3998
 6858.0000    29.3956  1001.7041  -999.2500      .9809     1.0309     1.0342   -70.8352    15.6824      .0124    46.9623     2.3989
 6858.5000    29.7755   986.0000  -999.2500      .9837     1.0375     1.0344   -70.7316    15.8088      .0164    46.7662     2.3980
 6859.0000    30.7726   968.1348  -999.2500     1.0049     1.0535     1.0184   -70.6278    15.6833      .0266    46.8739     2.4011
 6859.5000    31.8542   955.2764  -999.2500     1.0259     1.0724     1.0187   -70.5242    15.4799      .0460    47.0498     2.4140
