~VERSION INFORMATION
VERS.                                                 2.0:   CWLS Log ASCII Standard-VERSION 2.0
WRAP.                                                  NO:   One line per depth step
~Well Information Block
STRT.F                                          1471.0000:   Top Depth
STOP.F                                         12100.0000:   Bottom Depth
STEP.F                                             .50000:   Depth Increment
NULL.                                            -999.250:   Null Value
FLD .                                        MU BLK A 175:   Field Name
WELL.                           OCSG03931   001 ST00 BP00:   NAME
API .                                        427124004600:   WELL API
EDF .F                                            85.0000:   ELEV DRILL FLOOR
COMP.                                GULF OIL CORPORATION:   OPERATOR
BN  .                                               A 175:   BLOCK
CTRY.                                                 USA:   COUNTRY NAME
CNTY.                                            M I E AD:   COUNTY NAME
EKB .F                                            86.0000:   ELEV KELLY BUSHING
TDD .F                                          12102.000:   FINAL TD DRILLER
STAT.                                               TEXAS:   STATE NAME
UWI .                                        427124004600:   WELL API
DICO.               IHS : Digitizing Company
~PARAMETER INFORMATION (zones)
#MNEM.UNIT                       Value     Description
#=========                       =====     ===========
#ZONATION                          CNL:   ZONATION NAME
#ZONE                            RUN_2:   ZONE NAME
TOP .                       3452.0000:   TOP DEPTH
BOT .                      12100.5000:   BOTTOM DEPTH
RUN .                               2:   RUN NUMBER
LCCD.                             440:   LOGGING CONTRACTOR
SRVC.                    Schlumberger:   LOGGING CONT NAME
DICO.          QC Data Collectors Ltd:   DIG COMPANY NAME
LDAT.                      06/16/1981:   DATE LOGGED
ELD .F                        86.0000:   LOG DATUM ELEVATION
TDD .F                      7546.0000:   TOTAL DEPTH DRILLER
TDL .F                      7545.0000:   TOTAL DEPTH LOGGER
BOTL.F                     12100.0000:   BOTTOM DEPTH LOGGED
TOPL.F                      3504.0000:   TOP DEPTH LOGGED
CS1 .IN                        9.6250:   CASING SIZE 1
BS1 .IN                       12.2500:   BIT SIZE 1
DDB1.F                      7546.0000:   DEPTH DRILLED BIT 1
BHF .                              99:   FLUID CODE
DPT .                   Miscellaneous:   DRILLING FLUID TYPE
MUDD.                         14.0000:   FLUID DENSITY
MUDV.                         42.0000:   FLUID VISCOSITY
DFPH.                         11.0000:   FLUID PH
FL  .                          4.8000:   FLUID LOSS
RM  .OHMM                       .7300:   RM
RMT .DEGF                     74.0000:   RM TEMP
RMF .OHMM                       .4600:   RMF
RMFT.DEGF                     74.0000:   RMF TEMP
FSC .                               M:   RMF CODE
RMC .OHMM                      1.1200:   RMC
RMCT.DEGF                     74.0000:   RMC TEMP
CMC .                               M:   RMC CODE
TMAX.DEGF                    168.0000:   MAX REC TEMP
TIMC.                          7.0000:   TIME SINCE CIRCLN
~PARAMETER INFORMATION (zones)
#MNEM.UNIT                       Value     Description
#=========                       =====     ===========
#ZONATION                          DIL:   ZONATION NAME
#ZONE                            RUN_1:   ZONE NAME
TOP .                       1471.0000:   TOP DEPTH
BOT .                      12095.5000:   BOTTOM DEPTH
RUN .                               1:   RUN NUMBER
LCCD.                             440:   LOGGING CONTRACTOR
SRVC.                    Schlumberger:   LOGGING CONT NAME
DICO.          QC Data Collectors Ltd:   DIG COMPANY NAME
LDAT.                      05/25/1981:   DATE LOGGED
ELD .F                        86.0000:   LOG DATUM ELEVATION
TDD .F                      4590.0000:   TOTAL DEPTH DRILLER
TDL .F                      3529.0000:   TOTAL DEPTH LOGGER
BOTL.F                     12095.0000:   BOTTOM DEPTH LOGGED
TOPL.F                      1471.0000:   TOP DEPTH LOGGED
CS1 .IN                       20.0000:   CASING SIZE 1
BS1 .IN                       12.2500:   BIT SIZE 1
DDB1.F                      4590.0000:   DEPTH DRILLED BIT 1
BHF .                              99:   FLUID CODE
DPT .                   Miscellaneous:   DRILLING FLUID TYPE
MUDD.                         11.4000:   FLUID DENSITY
MUDV.                         44.0000:   FLUID VISCOSITY
DFPH.                         11.0000:   FLUID PH
FL  .                         10.0000:   FLUID LOSS
RM  .OHMM                       .5200:   RM
RMT .DEGF                     75.0000:   RM TEMP
RMF .OHMM                       .3500:   RMF
RMFT.DEGF                     75.0000:   RMF TEMP
FSC .                               M:   RMF CODE
RMC .OHMM                       .8800:   RMC
RMCT.DEGF                     75.0000:   RMC TEMP
CMC .                               M:   RMC CODE
TMAX.DEGF                    125.0000:   MAX REC TEMP
TIMC.                         14.0000:   TIME SINCE CIRCLN
~PARAMETER INFORMATION (zones)
#MNEM.UNIT                       Value     Description
#=========                       =====     ===========
#ZONATION                          FDC:   ZONATION NAME
#ZONE                            RUN_4:   ZONE NAME
TOP .                      11080.0000:   TOP DEPTH
BOT .                      12095.0000:   BOTTOM DEPTH
RUN .                               4:   RUN NUMBER
LCCD.                             440:   LOGGING CONTRACTOR
SRVC.                    Schlumberger:   LOGGING CONT NAME
DICO.          QC Data Collectors Ltd:   DIG COMPANY NAME
LDAT.                      07/06/1981:   DATE LOGGED
ELD .F                        86.0000:   LOG DATUM ELEVATION
TDD .F                     12100.0000:   TOTAL DEPTH DRILLER
TDL .F                     12102.0000:   TOTAL DEPTH LOGGER
BOTL.F                     12095.0000:   BOTTOM DEPTH LOGGED
TOPL.F                     11080.0000:   TOP DEPTH LOGGED
CS1 .IN                        9.6250:   CASING SIZE 1
BS1 .IN                        8.5000:   BIT SIZE 1
DDB1.F                     12100.0000:   DEPTH DRILLED BIT 1
BHF .                              99:   FLUID CODE
DPT .                   Miscellaneous:   DRILLING FLUID TYPE
MUDD.                         15.7000:   FLUID DENSITY
MUDV.                         50.0000:   FLUID VISCOSITY
DFPH.                         11.0000:   FLUID PH
FL  .                          4.2000:   FLUID LOSS
RM  .OHMM                      1.2000:   RM
RMT .DEGF                     90.0000:   RM TEMP
RMF .OHMM                       .6600:   RMF
RMFT.DEGF                     78.0000:   RMF TEMP
FSC .                               M:   RMF CODE
RMC .OHMM                      1.4200:   RMC
RMCT.DEGF                     78.0000:   RMC TEMP
CMC .                               M:   RMC CODE
TMAX.DEGF                    277.0000:   MAX REC TEMP
TIMC.                         20.0000:   TIME SINCE CIRCLN
~PARAMETER INFORMATION (zones)
#MNEM.UNIT                       Value     Description
#=========                       =====     ===========
#ZONATION                          FDC:   ZONATION NAME
#ZONE                            RUN_2:   ZONE NAME
TOP .                       3504.0000:   TOP DEPTH
BOT .                      12100.5000:   BOTTOM DEPTH
RUN .                               2:   RUN NUMBER
LCCD.                             440:   LOGGING CONTRACTOR
SRVC.                    Schlumberger:   LOGGING CONT NAME
DICO.          QC Data Collectors Ltd:   DIG COMPANY NAME
LDAT.                      06/16/1981:   DATE LOGGED
ELD .F                        86.0000:   LOG DATUM ELEVATION
TDD .F                      7546.0000:   TOTAL DEPTH DRILLER
TDL .F                      7545.0000:   TOTAL DEPTH LOGGER
BOTL.F                     12100.0000:   BOTTOM DEPTH LOGGED
TOPL.F                      3504.0000:   TOP DEPTH LOGGED
CS1 .IN                        9.6250:   CASING SIZE 1
BS1 .IN                       12.2500:   BIT SIZE 1
DDB1.F                      7546.0000:   DEPTH DRILLED BIT 1
BHF .                              99:   FLUID CODE
DPT .                   Miscellaneous:   DRILLING FLUID TYPE
MUDD.                         14.0000:   FLUID DENSITY
MUDV.                         42.0000:   FLUID VISCOSITY
DFPH.                         11.0000:   FLUID PH
FL  .                          4.8000:   FLUID LOSS
RM  .OHMM                       .7300:   RM
RMT .DEGF                     74.0000:   RM TEMP
RMF .OHMM                       .4600:   RMF
RMFT.DEGF                     74.0000:   RMF TEMP
FSC .                               M:   RMF CODE
RMC .OHMM                      1.1200:   RMC
RMCT.DEGF                     74.0000:   RMC TEMP
CMC .                               M:   RMC CODE
TMAX.DEGF                    168.0000:   MAX REC TEMP
TIMC.                          7.0000:   TIME SINCE CIRCLN
~Curve Information Block
#MNEM.UNIT                                        API CODE    No Description
#=========                                        ========    == ===========
DEPT.F                                       00 001 00 00:     1  DEPTH
CALI.IN                                                  :     2  Caliper
NPHI.%                                                   :     3  Neutron Porosity
CILD.MMHO                                                :     4  Deep Induction Conductivity
DT.US/F                                                  :     5  Sonic Transit Time
GR.GAPI                                                  :     6  Gamma Ray
ILD.OHMM                                                 :     7  Deep Induction Resistivity
SFL.OHMM                                                 :     8  Medium Resistivity
SP.MV                                                    :     9  Spontaneous Potential
DPHI.%                                                   :    10  Porosity
~ASCII
# ...
11362.5000     8.8957    35.3251  1658.5977   127.3716    51.7846      .6085      .7396   -45.8824    14.7488
11363.0000     8.9118    36.7725  1663.1738   127.5273    51.0312      .6055      .7295   -45.6589    15.5046
11363.5000     8.9424    38.6406  1667.9883   127.7290    48.9266      .6033      .7238   -45.4957    16.1226
11364.0000     8.9690    39.5706  1672.8027   127.9807    47.0720      .6016      .7171   -45.4478    16.0917
11364.5000     8.9781    38.8145  1677.6172   128.0676    46.6304      .6010      .7102   -45.5115    15.7204
11365.0000     8.9535    37.0407  1675.9023   128.0271    47.2361      .6013      .7072   -45.6276    15.0825
11365.5000     8.9246    36.2562  1673.5078   127.8521    48.2504      .6015      .7103   -45.6852    14.4637
11366.0000     8.9058    35.9814  1671.1133   127.4574    49.2929      .5989      .7263   -45.7886    14.4306
11366.5000     8.9008    35.7803  1668.7188   127.1207    49.3370      .5961      .7373   -45.8882    14.9109
11367.0000     8.8952    35.6420  1666.3242   126.8972    48.8862      .5934      .7421   -46.0273    15.9024
11367.5000     8.8889    35.8517  1664.0527   126.7556    49.0161      .5929      .7422   -46.1361    16.3764
11368.0000     8.8825    36.7784  1662.8359   126.6146    49.3560      .5923      .7368   -46.1621    16.4625
11368.5000     8.8766    37.9600  1661.6250   126.5094    49.4890      .5917      .7329   -46.1793    16.2648
11369.0000     8.8706    38.9308  1660.4082   126.4506    49.7198      .5911      .7303   -46.2632    15.9569
11369.5000     8.8656    38.8940  1659.1953   126.4949    49.8679      .5906      .7301   -46.2382    15.6972
11370.0000     8.8617    38.2075  1657.9785   126.6569    49.3309      .5912      .7324   -46.1780    15.4615
11370.5000     8.8552    37.3619  1656.7676   126.7809    48.0593      .5920      .7352   -46.2365    15.2346
11371.0000     8.8457    36.5994  1658.6406   126.7976    47.2141      .5925      .7366   -46.2762    15.0795
11371.5000     8.8320    36.2293  1660.8379   126.7147    46.0748      .5929      .7365   -46.2982    14.7908
11372.0000     8.8112    36.0562  1663.0313   126.6554    44.8511      .5923      .7347   -46.2776    14.6639
11372.5000     8.7956    36.5147  1665.2285   126.8812    44.4131      .5911      .7326   -46.2484    14.8424
11373.0000     8.7829    37.2617  1667.4258   127.2727    44.6367      .5905      .7303   -46.2100    15.0668
11373.5000     8.7777    37.8907  1671.0137   127.6348    45.6853      .5903      .7276   -46.1409    15.1455
11374.0000     8.7751    38.2231  1675.1973   127.7666    45.6351      .5913      .7260   -46.0515    15.1457
11374.5000     8.7800    38.2101  1679.3730   127.7565    44.8204      .5933      .7248   -45.9930    15.0830
11375.0000     8.8041    38.0480  1683.5566   127.6890    44.1173      .5948      .7236   -45.9377    15.0902
11375.5000     8.8107    37.9044  1687.7402   127.6088    44.7714      .5955      .7216   -45.9703    14.7296
11376.0000     8.8116    37.8289  1687.1641   127.5494    47.3611      .5960      .7193   -46.0133    14.2914
11376.5000     8.8075    36.8904  1684.5898   127.4329    48.8654      .5977      .7196   -46.0613    14.2737
11377.0000     8.7959    35.7796  1682.0098   127.1774    49.8160      .5984      .7257   -46.1196    14.6435
11377.5000     8.7954    35.1299  1679.4355   126.9905    50.2386      .5965      .7364   -46.2199    15.1260
11378.0000     8.7973    35.5778  1676.8555   127.1946    51.1807      .5997      .7461   -46.3436    15.5399
11378.5000     8.8009    36.5722  1678.8105   127.7887    52.0627      .6071      .7484   -46.4390    15.5451
11379.0000     8.8045    37.4443  1681.2480   128.2429    51.3130      .6016      .7416   -46.4589    15.2099
11379.5000     8.8066    38.2473  1683.6875   128.5593    49.8356      .5989      .7300   -46.4372    14.8696
11380.0000     8.8084    38.5839  1686.1250   128.6550    48.4905      .5962      .7190   -46.3605    14.6044
11380.5000     8.8102    38.2834  1688.5625   128.6235    49.7670      .5924      .7123   -46.2622    14.4107
11381.0000     8.8120    37.7457  1691.0000   128.5317    50.1359      .5890      .7088   -46.1369    14.2827
11381.5000     8.8022    37.4680  1696.1309   128.2749    50.0341      .5888      .7104   -46.0129    14.5308
11382.0000     8.7778    37.1932  1701.5508   128.2722    49.0590      .5886      .7135   -46.0423    15.0331
11382.5000     8.7703    37.0221  1706.9590   128.5310    46.6800      .5885      .7237   -46.0861    15.5775
11383.0000     8.7752    37.2374  1712.3672   128.8525    45.2087      .5883      .7254   -46.1308    16.0593
11383.5000     8.7818    37.7375  1717.7871   128.9399    45.9695      .5882      .7221   -45.9998    16.0092
11384.0000     8.7836    38.1265  1723.1953   128.9800    47.8486      .5880      .7158   -45.8846    15.5002
11384.5000     8.7800    38.3917  1728.6172   128.9971    49.3162      .5878      .7105   -45.7404    15.2611
11385.0000     8.7712    38.5874  1732.8359   129.0632    48.6816      .5877      .7134   -45.5631    15.7182
11385.5000     8.7509    38.5361  1735.8691   129.0042    47.3391      .5849      .7133   -45.5663    16.3267
11386.0000     8.7344    38.0941  1738.9004   129.2588    47.0365      .5792      .7131   -45.5511    16.5486
11386.5000     8.7204    37.8583  1741.9336   129.7832    48.2847      .5824      .7141   -45.5333    16.2383
11387.0000     8.7184    38.2841  1744.9648   130.1836    50.1247      .5849      .7140   -45.5373    15.6077
11387.5000     8.7186    38.7604  1740.9434   129.7827    51.5653      .5872      .7154   -45.6185    15.3352
11388.0000     8.7204    38.4860  1733.8633   129.4619    52.4387      .5904      .7190   -45.7333    15.5525
11388.5000     8.7238    37.9445  1717.4785   129.1431    52.3616      .5956      .7333   -45.7140    15.8029
11389.0000     8.7267    37.5313  1685.7969   128.7935    51.8926      .6018      .7466   -45.6091    16.1071
11389.5000     8.7264    37.0215  1654.1641   128.4653    51.9555      .6088      .7644   -45.5338    16.2981
11390.0000     8.7267    36.6329  1629.7109   128.1919    52.2354      .6157      .7807   -45.4271    16.1694
11390.5000     8.7285    36.7924  1595.1582   127.9916    52.7585      .6231      .7910   -45.3133    15.9127
11391.0000     8.7347    37.2676  1566.5938   127.8918    52.2623      .6290      .7951   -45.2310    15.6803
11391.5000     8.7439    37.5836  1567.1387   127.8544    51.5157      .6345      .7970   -45.1630    15.4236
11392.0000     8.7480    37.3648  1570.3691   127.9414    52.4939      .6390      .7958   -45.1097    15.2458
11392.5000     8.7461    37.7331  1573.5996   128.1660    53.9764      .6414      .7937   -45.0643    15.2269
11393.0000     8.7431    38.5449  1579.0820   128.4443    52.8467      .6411      .7911   -45.1111    15.4225
11393.5000     8.7372    38.9850  1584.8105   128.5820    50.5975      .6392      .7890   -45.1385    15.5996
11394.0000     8.7318    38.7408  1590.5293   128.5376    50.2527      .6378      .7866   -45.1492    15.7176
11394.5000     8.7276    37.9939  1596.2461   128.4377    50.6503      .6363      .7821   -45.1488    15.6291
11395.0000     8.7228    37.4392  1601.9648   128.5081    51.1207      .6341      .7804   -45.1298    15.1974
11395.5000     8.7163    37.0171  1607.6816   128.7854    51.1430      .6302      .7818   -45.1522    14.9692
11396.0000     8.7146    36.9615  1613.3984   129.1306    50.8756      .6259      .7863   -45.2408    15.4530
11396.5000     8.7173    37.3000  1619.1172   129.6738    50.2019      .6222      .7826   -45.3578    16.0939
11397.0000     8.7167    37.9335  1624.8340   130.2402    49.4914      .6190      .7787   -45.5848    16.4331
11397.5000     8.6975    38.6790  1630.0781   130.7498    48.7478      .6148      .7742   -45.8916    16.4333
11398.0000     8.7237    39.0377  1631.1738   131.1443    49.2084      .6105      .7576   -46.2086    16.0445
11398.5000     8.7778    39.1203  1632.2715   131.3237    50.4702      .6064      .7388   -46.4181    15.6777
