~VERSION INFORMATION
VERS.                                                 2.0:   CWLS Log ASCII Standard-VERSION 2.0
WRAP.                                                  NO:   One line per depth step
~Well Information Block
STRT.F                                          1471.0000:   Top Depth
STOP.F                                         12100.0000:   Bottom Depth
STEP.F                                             .50000:   Depth Increment
NULL.                                            -999.250:   Null Value
FLD .                                        MU BLK A 175:   Field Name
WELL.                           OCSG03931   001 ST00 BP00:   NAME
API .                                        427124004600:   WELL API
EDF .F                                            85.0000:   ELEV DRILL FLOOR
COMP.                                GULF OIL CORPORATION:   OPERATOR
BN  .                                               A 175:   BLOCK
CTRY.                                                 USA:   COUNTRY NAME
CNTY.                                            M I E AD:   COUNTY NAME
EKB .F                                            86.0000:   ELEV KELLY BUSHING
TDD .F                                          12102.000:   FINAL TD DRILLER
STAT.                                               TEXAS:   STATE NAME
UWI .                                        427124004600:   WELL API
DICO.               IHS : Digitizing Company
~PARAMETER INFORMATION (zones)
#MNEM.UNIT                       Value     Description
#=========                       =====     ===========
#ZONATION                          CNL:   ZONATION NAME
#ZONE                            RUN_2:   ZONE NAME
TOP .                       3452.0000:   TOP DEPTH
BOT .                      12100.5000:   BOTTOM DEPTH
RUN .                               2:   RUN NUMBER
LCCD.                             440:   LOGGING CONTRACTOR
SRVC.                    Schlumberger:   LOGGING CONT NAME
DICO.          QC Data Collectors Ltd:   DIG COMPANY NAME
LDAT.                      06/16/1981:   DATE LOGGED
ELD .F                        86.0000:   LOG DATUM ELEVATION
TDD .F                      7546.0000:   TOTAL DEPTH DRILLER
TDL .F                      7545.0000:   TOTAL DEPTH LOGGER
BOTL.F                     12100.0000:   BOTTOM DEPTH LOGGED
TOPL.F                      3504.0000:   TOP DEPTH LOGGED
CS1 .IN                        9.6250:   CASING SIZE 1
BS1 .IN                       12.2500:   BIT SIZE 1
DDB1.F                      7546.0000:   DEPTH DRILLED BIT 1
BHF .                              99:   FLUID CODE
DPT .                   Miscellaneous:   DRILLING FLUID TYPE
MUDD.                         14.0000:   FLUID DENSITY
MUDV.                         42.0000:   FLUID VISCOSITY
DFPH.                         11.0000:   FLUID PH
FL  .                          4.8000:   FLUID LOSS
RM  .OHMM                       .7300:   RM
RMT .DEGF                     74.0000:   RM TEMP
RMF .OHMM                       .4600:   RMF
RMFT.DEGF                     74.0000:   RMF TEMP
FSC .                               M:   RMF CODE
RMC .OHMM                      1.1200:   RMC
RMCT.DEGF                     74.0000:   RMC TEMP
CMC .                               M:   RMC CODE
TMAX.DEGF                    168.0000:   MAX REC TEMP
TIMC.                          7.0000:   TIME SINCE CIRCLN
~PARAMETER INFORMATION (zones)
#MNEM.UNIT                       Value     Description
#=========                       =====     ===========
#ZONATION                          DIL:   ZONATION NAME
#ZONE                            RUN_1:   ZONE NAME
TOP .                       1471.0000:   TOP DEPTH
BOT .                      12095.5000:   BOTTOM DEPTH
RUN .                               1:   RUN NUMBER
LCCD.                             440:   LOGGING CONTRACTOR
SRVC.                    Schlumberger:   LOGGING CONT NAME
DICO.          QC Data Collectors Ltd:   DIG COMPANY NAME
LDAT.                      05/25/1981:   DATE LOGGED
ELD .F                        86.0000:   LOG DATUM ELEVATION
TDD .F                      4590.0000:   TOTAL DEPTH DRILLER
TDL .F                      3529.0000:   TOTAL DEPTH LOGGER
BOTL.F                     12095.0000:   BOTTOM DEPTH LOGGED
TOPL.F                      1471.0000:   TOP DEPTH LOGGED
CS1 .IN                       20.0000:   CASING SIZE 1
BS1 .IN                       12.2500:   BIT SIZE 1
DDB1.F                      4590.0000:   DEPTH DRILLED BIT 1
BHF .                              99:   FLUID CODE
DPT .                   Miscellaneous:   DRILLING FLUID TYPE
MUDD.                         11.4000:   FLUID DENSITY
MUDV.                         44.0000:   FLUID VISCOSITY
DFPH.                         11.0000:   FLUID PH
FL  .                         10.0000:   FLUID LOSS
RM  .OHMM                       .5200:   RM
RMT .DEGF                     75.0000:   RM TEMP
RMF .OHMM                       .3500:   RMF
RMFT.DEGF                     75.0000:   RMF TEMP
FSC .                               M:   RMF CODE
RMC .OHMM                       .8800:   RMC
RMCT.DEGF                     75.0000:   RMC TEMP
CMC .                               M:   RMC CODE
TMAX.DEGF                    125.0000:   MAX REC TEMP
TIMC.                         14.0000:   TIME SINCE CIRCLN
~PARAMETER INFORMATION (zones)
#MNEM.UNIT                       Value     Description
#=========                       =====     ===========
#ZONATION                          FDC:   ZONATION NAME
#ZONE                            RUN_4:   ZONE NAME
TOP .                      11080.0000:   TOP DEPTH
BOT .                      12095.0000:   BOTTOM DEPTH
RUN .                               4:   RUN NUMBER
LCCD.                             440:   LOGGING CONTRACTOR
SRVC.                    Schlumberger:   LOGGING CONT NAME
DICO.          QC Data Collectors Ltd:   DIG COMPANY NAME
LDAT.                      07/06/1981:   DATE LOGGED
ELD .F                        86.0000:   LOG DATUM ELEVATION
TDD .F                     12100.0000:   TOTAL DEPTH DRILLER
TDL .F                     12102.0000:   TOTAL DEPTH LOGGER
BOTL.F                     12095.0000:   BOTTOM DEPTH LOGGED
TOPL.F                     11080.0000:   TOP DEPTH LOGGED
CS1 .IN                        9.6250:   CASING SIZE 1
BS1 .IN                        8.5000:   BIT SIZE 1
DDB1.F                     12100.0000:   DEPTH DRILLED BIT 1
BHF .                              99:   FLUID CODE
DPT .                   Miscellaneous:   DRILLING FLUID TYPE
MUDD.                         15.7000:   FLUID DENSITY
MUDV.                         50.0000:   FLUID VISCOSITY
DFPH.                         11.0000:   FLUID PH
FL  .                          4.2000:   FLUID LOSS
RM  .OHMM                      1.2000:   RM
RMT .DEGF                     90.0000:   RM TEMP
RMF .OHMM                       .6600:   RMF
RMFT.DEGF                     78.0000:   RMF TEMP
FSC .                               M:   RMF CODE
RMC .OHMM                      1.4200:   RMC
RMCT.DEGF                     78.0000:   RMC TEMP
CMC .                               M:   RMC CODE
TMAX.DEGF                    277.0000:   MAX REC TEMP
TIMC.                         20.0000:   TIME SINCE CIRCLN
~PARAMETER INFORMATION (zones)
#MNEM.UNIT                       Value     Description
#=========                       =====     ===========
#ZONATION                          FDC:   ZONATION NAME
#ZONE                            RUN_2:   ZONE NAME
TOP .                       3504.0000:   TOP DEPTH
BOT .                      12100.5000:   BOTTOM DEPTH
RUN .                               2:   RUN NUMBER
LCCD.                             440:   LOGGING CONTRACTOR
SRVC.                    Schlumberger:   LOGGING CONT NAME
DICO.          QC Data Collectors Ltd:   DIG COMPANY NAME
LDAT.                      06/16/1981:   DATE LOGGED
ELD .F                        86.0000:   LOG DATUM ELEVATION
TDD .F                      7546.0000:   TOTAL DEPTH DRILLER
TDL .F                      7545.0000:   TOTAL DEPTH LOGGER
BOTL.F                     12100.0000:   BOTTOM DEPTH LOGGED
TOPL.F                      3504.0000:   TOP DEPTH LOGGED
CS1 .IN                        9.6250:   CASING SIZE 1
BS1 .IN                       12.2500:   BIT SIZE 1
DDB1.F                      7546.0000:   DEPTH DRILLED BIT 1
BHF .                              99:   FLUID CODE
DPT .                   Miscellaneous:   DRILLING FLUID TYPE
MUDD.                         14.0000:   FLUID DENSITY
MUDV.                         42.0000:   FLUID VISCOSITY
DFPH.                         11.0000:   FLUID PH
FL  .                          4.8000:   FLUID LOSS
RM  .OHMM                       .7300:   RM
RMT .DEGF                     74.0000:   RM TEMP
RMF .OHMM                       .4600:   RMF
RMFT.DEGF                     74.0000:   RMF TEMP
FSC .                               M:   RMF CODE
RMC .OHMM                      1.1200:   RMC
RMCT.DEGF                     74.0000:   RMC TEMP
CMC .                               M:   RMC CODE
TMAX.DEGF                    168.0000:   MAX REC TEMP
TIMC.                          7.0000:   TIME SINCE CIRCLN
~Curve Information Block
#MNEM.UNIT                                        API CODE    No Description
#=========                                        ========    == ===========
DEPT.F                                       00 001 00 00:     1  DEPTH
CALI.IN                                                  :     2  Caliper
NPHI.%                                                   :     3  Neutron Porosity
CILD.MMHO                                                :     4  Deep Induction Conductivity
DT.US/F                                                  :     5  Sonic Transit Time
GR.GAPI                                                  :     6  Gamma Ray
ILD.OHMM                                                 :     7  Deep Induction Resistivity
SFL.OHMM                                                 :     8  Medium Resistivity
SP.MV                                                    :     9  Spontaneous Potential
DPHI.%                                                   :    10  Porosity
~ASCII
# ...
 7128.5000    11.4903    44.3139  2240.1445   143.8723    52.0948      .4376      .5171   -84.0245    30.8920
 7129.0000    11.4630    43.5363  2217.3477   143.4292    53.7939      .4436      .5109   -84.2089    31.1261
 7129.5000    11.4350    44.2755  2202.7734   143.2708    54.9467      .4493      .5021   -84.6022    30.9270
 7130.0000    11.3905    45.3549  2195.0469   143.5481    53.1361      .4542      .5003   -83.7361    30.2700
 7130.5000    11.3481    45.7966  2187.3086   143.1621    51.8162      .4561      .4995   -82.8688    29.5872
 7131.0000    11.3127    45.6108  2179.5742   142.7935    51.7583      .4579      .5077   -82.8932    29.2051
 7131.5000    11.3085    46.3796  2181.1836   142.5459    54.5914      .4598      .5161   -84.5764    28.9439
 7132.0000    11.2818    47.2582  2183.6523   142.6025    58.4772      .4594      .5155   -85.7646    28.7174
 7132.5000    11.2863    46.2394  2187.6172   142.8745    61.2972      .4590      .5135   -86.4645    28.6041
 7133.0000    11.3044    45.4412  2191.6914   143.1892    62.2557      .4585      .5111   -86.7734    28.7495
 7133.5000    11.3204    45.3976  2195.7617   143.5610    61.4564      .4558      .5067   -86.9043    28.9463
 7134.0000    11.3290    45.8919  2199.8281   143.8765    59.6409      .4521      .5023   -86.5682    29.0112
 7134.5000    11.3316    45.7038  2203.9023   143.9009    57.6883      .4486      .4993   -85.8945    28.8779
 7135.0000    11.3348    44.9056  2211.3750   143.9827    55.5947      .4466      .4978   -84.9562    28.7855
 7135.5000    11.3451    44.2991  2219.7773   143.4458    54.3752      .4451      .4980   -84.1514    28.9402
 7136.0000    11.3553    43.9358  2228.1914   142.6804    55.4710      .4435      .5034   -83.4225    29.2708
 7136.5000    11.3788    44.0593  2236.5938   142.0652    57.7005      .4420      .5094   -82.8718    29.5393
 7137.0000    11.4667    45.4574  2245.0000   142.2930    60.1824      .4404      .5158   -82.9410    29.7077
 7137.5000    11.5808    47.7975  2257.3672   143.3069    61.1768      .4387      .5095   -83.5291    29.7668
 7138.0000    11.6686    49.7673  2274.0273   144.5239    60.8262      .4368      .5004   -84.3105    29.5310
 7138.5000    11.7460    51.1993  2290.7109   145.7019    60.6406      .4348      .4903   -85.0125    29.4858
 7139.0000    11.8025    50.5980  2307.3672   146.5518    61.8950      .4336      .4800   -85.6146    29.7219
 7139.5000    11.8166    49.6013  2324.0508   146.9197    61.5152      .4328      .4769   -86.1365    30.0100
 7140.0000    11.7864    49.1775  2340.0469   147.0276    58.8545      .4321      .4804   -86.5789    30.3206
 7140.5000    11.7518    49.1696  2355.6914   146.6262    56.9582      .4321      .4914   -86.5186    30.4854
 7141.0000    11.7247    49.2917  2350.8125   145.7549    55.9108      .4324      .4979   -85.4315    30.5564
 7141.5000    11.7097    49.3226  2303.1055   144.7319    55.8581      .4331      .4977   -83.9468    30.2619
 7142.0000    11.7155    49.3041  2264.3164   145.4016    56.7230      .4364      .4967   -82.9717    29.5596
 7142.5000    11.7062    49.4014  2225.5313   146.8464    57.7054      .4398      .4878   -82.5037    28.9952
 7143.0000    11.7007    50.0831  2186.6953   148.2280    58.6505      .4466      .4761   -84.0043    28.6389
 7143.5000    11.6946    50.0182  2147.9063   147.6206    59.3580      .4538      .4621   -85.2428    28.8749
 7144.0000    11.6917    48.8658  2125.0859   143.7302    58.3633      .4624      .4800   -85.9030    29.4747
 7144.5000    11.6926    47.8795  2102.9336   139.5798    56.4388      .4728      .5226   -86.0706    29.9528
 7145.0000    11.6979    47.8093  2080.7812   136.6655    53.7535      .4830      .5650   -86.1637    29.9591
 7145.5000    11.7264    48.2549  2058.6250   135.2637    52.4330      .4917      .5890   -86.1934    29.4836
 7146.0000    11.7922    48.7205  2038.1738   136.6260    52.4857      .5005      .5827   -86.1074    29.1586
 7146.5000    11.9572    48.0203  2024.0664   138.0488    53.1870      .5025      .5673   -85.7977    28.9969
 7147.0000    12.0401    47.4286  2009.9570   139.4717    54.3232      .5035      .5449   -85.6011    29.0729
 7147.5000    12.0459    47.5851  2018.4844   140.6250    55.5592      .5042      .5265   -86.1832    29.0790
 7148.0000    12.0599    49.2524  2033.9844   141.6907    57.0537      .4992      .5178   -85.6985    28.7451
 7148.5000    12.1347    50.8474  2054.3633   142.0840    56.6519      .4942      .5119   -83.4225    28.2272
 7149.0000    12.1641    51.5095  2075.8008   142.0366    55.5739      .4894      .5090   -81.5874    27.9297
 7149.5000    12.1673    51.7117  2097.2656   141.3560    54.8873      .4848      .5086   -81.6621    28.1103
 7150.0000    12.1634    51.5187  2118.7031   140.5237    54.8293      .4809      .5176   -82.9661    28.3331
 7150.5000    12.1717    50.6320  2118.6797   138.8013    54.7927      .4892      .5290   -83.8878    28.3991
 7151.0000    12.1915    49.7541  2084.3281   137.3794    55.4625      .4976      .5498   -84.5524    27.7860
 7151.5000    12.1903    48.5796  2050.0273   136.3562    56.5546      .5016      .5680   -84.7052    26.8734
 7152.0000    12.1674    47.5319  2015.6758   136.0950    57.0346      .5056      .5830   -84.7922    25.9232
 7152.5000    12.1177    47.0074  2002.4297   137.0225    56.5104      .5045      .5756   -85.0159    25.0844
 7153.0000    12.0615    46.5330  1994.1738   137.9487    55.8718      .5028      .5654   -85.2448    24.2588
 7153.5000    12.0471    46.2637  1985.9316   139.2527    55.6149      .5008      .5507   -85.1243    23.5063
 7154.0000    12.0506    46.3121  1989.5234   140.6316    57.2626      .4962      .5380   -84.7021    22.9076
 7154.5000    12.0600    46.6046  1996.4727   141.7312    58.5875      .4916      .5277   -84.8035    22.7837
 7155.0000    12.0578    47.1579  2003.6250   142.1877    57.3142      .4871      .5177   -85.0479    23.3794
 7155.5000    11.9888    47.8329  2020.2090   141.3479    56.2787      .4833      .5141   -85.3387    24.3326
 7156.0000    11.8781    48.9322  2036.7930   139.6453    56.6332      .4796      .5193   -85.7106    25.2681
 7156.5000    11.7879    49.1414  2053.3516   137.8628    57.9385      .4759      .5313   -84.9104    26.0361
 7157.0000    11.7347    48.4526  2069.9375   138.3179    59.2380      .4729      .5397   -83.5793    26.5768
 7157.5000    11.6932    47.9106  2086.5234   140.3591    59.5281      .4701      .5415   -82.5426    26.9708
 7158.0000    11.6886    48.0712  2103.1055   142.5576    59.1222      .4673      .5332   -82.1975    27.2530
 7158.5000    11.6994    48.9720  2121.6133   144.5461    57.9337      .4629      .5183   -82.3490    26.9782
 7159.0000    11.7174    48.6592  2142.8320   145.4512    56.8471      .4578      .5085   -82.8413    26.1194
 7159.5000    11.7300    47.3578  2164.0234   145.1975    55.8135      .4527      .5015   -83.4742    25.5794
 7160.0000    11.7440    47.6707  2185.2148   144.7239    54.9555      .4480      .5037   -84.2098    26.2463
 7160.5000    11.7551    50.4741  2206.4063   144.0793    54.1830      .4435      .5094   -84.6213    27.4872
 7161.0000    11.7604    51.8227  2227.6016   143.8345    53.7369      .4395      .5166   -83.9001    29.0055
 7161.5000    11.7602    50.5568  2248.7930   143.9263    54.1996      .4376      .5187   -83.7872    29.5020
 7162.0000    11.7672    48.6076  2268.8906   144.1431    56.1330      .4358      .5158   -85.0137    28.9022
 7162.5000    11.8017    48.2649  2278.9570   144.5017    57.8931      .4344      .5108   -86.1036    28.0184
 7163.0000    11.7902    50.1495  2289.0234   144.8086    60.0637      .4333      .5005   -86.1261    27.3275
 7163.5000    11.7760    51.5970  2299.0898   145.0679    59.0533      .4333      .4921   -85.6753    27.1792
 7164.0000    11.7661    52.1370  2309.1563   145.2700    57.2786      .4342      .4888   -85.9147    27.6385
 7164.5000    11.7626    52.5154  2315.4766   145.3096    55.2825      .4343      .4922   -86.2362    28.0652
