~VERSION INFORMATION
VERS.                                                 2.0:   CWLS Log ASCII Standard-VERSION 2.0
WRAP.                                                  NO:   One line per depth step
~Well Information Block
STRT.F                                          1471.0000:   Top Depth
STOP.F                                         12100.0000:   Bottom Depth
STEP.F                                             .50000:   Depth Increment
NULL.                                            -999.250:   Null Value
FLD .                                        MU BLK A 175:   Field Name
WELL.                           OCSG03931   001 ST00 BP00:   NAME
API .                                        427124004600:   WELL API
EDF .F                                            85.0000:   ELEV DRILL FLOOR
COMP.                                GULF OIL CORPORATION:   OPERATOR
BN  .                                               A 175:   BLOCK
CTRY.                                                 USA:   COUNTRY NAME
CNTY.                                            M I E AD:   COUNTY NAME
EKB .F                                            86.0000:   ELEV KELLY BUSHING
TDD .F                                          12102.000:   FINAL TD DRILLER
STAT.                                               TEXAS:   STATE NAME
UWI .                                        427124004600:   WELL API
DICO.               IHS : Digitizing Company
~PARAMETER INFORMATION (zones)
#MNEM.UNIT                       Value     Description
#=========                       =====     ===========
#ZONATION                          CNL:   ZONATION NAME
#ZONE                            RUN_2:   ZONE NAME
TOP .                       3452.0000:   TOP DEPTH
BOT .                      12100.5000:   BOTTOM DEPTH
RUN .                               2:   RUN NUMBER
LCCD.                             440:   LOGGING CONTRACTOR
SRVC.                    Schlumberger:   LOGGING CONT NAME
DICO.          QC Data Collectors Ltd:   DIG COMPANY NAME
LDAT.                      06/16/1981:   DATE LOGGED
ELD .F                        86.0000:   LOG DATUM ELEVATION
TDD .F                      7546.0000:   TOTAL DEPTH DRILLER
TDL .F                      7545.0000:   TOTAL DEPTH LOGGER
BOTL.F                     12100.0000:   BOTTOM DEPTH LOGGED
TOPL.F                      3504.0000:   TOP DEPTH LOGGED
CS1 .IN                        9.6250:   CASING SIZE 1
BS1 .IN                       12.2500:   BIT SIZE 1
DDB1.F                      7546.0000:   DEPTH DRILLED BIT 1
BHF .                              99:   FLUID CODE
DPT .                   Miscellaneous:   DRILLING FLUID TYPE
MUDD.                         14.0000:   FLUID DENSITY
MUDV.                         42.0000:   FLUID VISCOSITY
DFPH.                         11.0000:   FLUID PH
FL  .                          4.8000:   FLUID LOSS
RM  .OHMM                       .7300:   RM
RMT .DEGF                     74.0000:   RM TEMP
RMF .OHMM                       .4600:   RMF
RMFT.DEGF                     74.0000:   RMF TEMP
FSC .                               M:   RMF CODE
RMC .OHMM                      1.1200:   RMC
RMCT.DEGF                     74.0000:   RMC TEMP
CMC .                               M:   RMC CODE
TMAX.DEGF                    168.0000:   MAX REC TEMP
TIMC.                          7.0000:   TIME SINCE CIRCLN
~PARAMETER INFORMATION (zones)
#MNEM.UNIT                       Value     Description
#=========                       =====     ===========
#ZONATION                          DIL:   ZONATION NAME
#ZONE                            RUN_1:   ZONE NAME
TOP .                       1471.0000:   TOP DEPTH
BOT .                      12095.5000:   BOTTOM DEPTH
RUN .                               1:   RUN NUMBER
LCCD.                             440:   LOGGING CONTRACTOR
SRVC.                    Schlumberger:   LOGGING CONT NAME
DICO.          QC Data Collectors Ltd:   DIG COMPANY NAME
LDAT.                      05/25/1981:   DATE LOGGED
ELD .F                        86.0000:   LOG DATUM ELEVATION
TDD .F                      4590.0000:   TOTAL DEPTH DRILLER
TDL .F                      3529.0000:   TOTAL DEPTH LOGGER
BOTL.F                     12095.0000:   BOTTOM DEPTH LOGGED
TOPL.F                      1471.0000:   TOP DEPTH LOGGED
CS1 .IN                       20.0000:   CASING SIZE 1
BS1 .IN                       12.2500:   BIT SIZE 1
DDB1.F                      4590.0000:   DEPTH DRILLED BIT 1
BHF .                              99:   FLUID CODE
DPT .                   Miscellaneous:   DRILLING FLUID TYPE
MUDD.                         11.4000:   FLUID DENSITY
MUDV.                         44.0000:   FLUID VISCOSITY
DFPH.                         11.0000:   FLUID PH
FL  .                         10.0000:   FLUID LOSS
RM  .OHMM                       .5200:   RM
RMT .DEGF                     75.0000:   RM TEMP
RMF .OHMM                       .3500:   RMF
RMFT.DEGF                     75.0000:   RMF TEMP
FSC .                               M:   RMF CODE
RMC .OHMM                       .8800:   RMC
RMCT.DEGF                     75.0000:   RMC TEMP
CMC .                               M:   RMC CODE
TMAX.DEGF                    125.0000:   MAX REC TEMP
TIMC.                         14.0000:   TIME SINCE CIRCLN
~PARAMETER INFORMATION (zones)
#MNEM.UNIT                       Value     Description
#=========                       =====     ===========
#ZONATION                          FDC:   ZONATION NAME
#ZONE                            RUN_4:   ZONE NAME
TOP .                      11080.0000:   TOP DEPTH
BOT .                      12095.0000:   BOTTOM DEPTH
RUN .                               4:   RUN NUMBER
LCCD.                             440:   LOGGING CONTRACTOR
SRVC.                    Schlumberger:   LOGGING CONT NAME
DICO.          QC Data Collectors Ltd:   DIG COMPANY NAME
LDAT.                      07/06/1981:   DATE LOGGED
ELD .F                        86.0000:   LOG DATUM ELEVATION
TDD .F                     12100.0000:   TOTAL DEPTH DRILLER
TDL .F                     12102.0000:   TOTAL DEPTH LOGGER
BOTL.F                     12095.0000:   BOTTOM DEPTH LOGGED
TOPL.F                     11080.0000:   TOP DEPTH LOGGED
CS1 .IN                        9.6250:   CASING SIZE 1
BS1 .IN                        8.5000:   BIT SIZE 1
DDB1.F                     12100.0000:   DEPTH DRILLED BIT 1
BHF .                              99:   FLUID CODE
DPT .                   Miscellaneous:   DRILLING FLUID TYPE
MUDD.                         15.7000:   FLUID DENSITY
MUDV.                         50.0000:   FLUID VISCOSITY
DFPH.                         11.0000:   FLUID PH
FL  .                          4.2000:   FLUID LOSS
RM  .OHMM                      1.2000:   RM
RMT .DEGF                     90.0000:   RM TEMP
RMF .OHMM                       .6600:   RMF
RMFT.DEGF                     78.0000:   RMF TEMP
FSC .                               M:   RMF CODE
RMC .OHMM                      1.4200:   RMC
RMCT.DEGF                     78.0000:   RMC TEMP
CMC .                               M:   RMC CODE
TMAX.DEGF                    277.0000:   MAX REC TEMP
TIMC.                         20.0000:   TIME SINCE CIRCLN
~PARAMETER INFORMATION (zones)
#MNEM.UNIT                       Value     Description
#=========                       =====     ===========
#ZONATION                          FDC:   ZONATION NAME
#ZONE                            RUN_2:   ZONE NAME
TOP .                       3504.0000:   TOP DEPTH
BOT .                      12100.5000:   BOTTOM DEPTH
RUN .                               2:   RUN NUMBER
LCCD.                             440:   LOGGING CONTRACTOR
SRVC.                    Schlumberger:   LOGGING CONT NAME
DICO.          QC Data Collectors Ltd:   DIG COMPANY NAME
LDAT.                      06/16/1981:   DATE LOGGED
ELD .F                        86.0000:   LOG DATUM ELEVATION
TDD .F                      7546.0000:   TOTAL DEPTH DRILLER
TDL .F                      7545.0000:   TOTAL DEPTH LOGGER
BOTL.F                     12100.0000:   BOTTOM DEPTH LOGGED
TOPL.F                      3504.0000:   TOP DEPTH LOGGED
CS1 .IN                        9.6250:   CASING SIZE 1
BS1 .IN                       12.2500:   BIT SIZE 1
DDB1.F                      7546.0000:   DEPTH DRILLED BIT 1
BHF .                              99:   FLUID CODE
DPT .                   Miscellaneous:   DRILLING FLUID TYPE
MUDD.                         14.0000:   FLUID DENSITY
MUDV.                         42.0000:   FLUID VISCOSITY
DFPH.                         11.0000:   FLUID PH
FL  .                          4.8000:   FLUID LOSS
RM  .OHMM                       .7300:   RM
RMT .DEGF                     74.0000:   RM TEMP
RMF .OHMM                       .4600:   RMF
RMFT.DEGF                     74.0000:   RMF TEMP
FSC .                               M:   RMF CODE
RMC .OHMM                      1.1200:   RMC
RMCT.DEGF                     74.0000:   RMC TEMP
CMC .                               M:   RMC CODE
TMAX.DEGF                    168.0000:   MAX REC TEMP
TIMC.                          7.0000:   TIME SINCE CIRCLN
~Curve Information Block
#MNEM.UNIT                                        API CODE    No Description
#=========                                        ========    == ===========
DEPT.F                                       00 001 00 00:     1  DEPTH
CALI.IN                                                  :     2  Caliper
NPHI.%                                                   :     3  Neutron Porosity
CILD.MMHO                                                :     4  Deep Induction Conductivity
DT.US/F                                                  :     5  Sonic Transit Time
GR.GAPI                                                  :     6  Gamma Ray
ILD.OHMM                                                 :     7  Deep Induction Resistivity
SFL.OHMM                                                 :     8  Medium Resistivity
SP.MV                                                    :     9  Spontaneous Potential
DPHI.%                                                   :    10  Porosity
~ASCII
# ...
 5011.5000    13.4084    43.7552  1682.3223   136.4851    50.9905      .5886      .6017   -96.1394    27.9222
 5012.0000    13.3434    44.9927  1661.8457   134.9536    51.9891      .5950      .6196   -96.8698    28.0175
 5012.5000    13.2143    45.0045  1641.3711   133.9490    52.8096      .6025      .6433   -97.5074    28.1949
 5013.0000    13.1015    42.7297  1620.8965   133.6204    53.5049      .6101      .6662   -97.5200    28.2615
 5013.5000    13.0036    41.7769  1600.7930   133.6409    53.2972      .6177      .6810   -97.4991    28.1618
 5014.0000    12.9309    42.4015  1580.8867   133.9097    52.0388      .6253      .6875   -97.5425    28.0356
 5014.5000    12.8602    43.5139  1560.9668   134.2678    51.3075      .6329      .6895   -97.8672    28.0045
 5015.0000    12.7931    44.4696  1545.3477   134.6870    51.0263      .6407      .6856   -98.0056    27.9420
 5015.5000    12.7290    44.9304  1534.1895   134.9209    51.4892      .6426      .6767   -96.3967    27.7603
 5016.0000    12.6682    45.0104  1527.0020   134.8459    52.6417      .6436      .6687   -94.7081    27.6040
 5016.5000    12.6167    44.5745  1523.5020   135.0137    53.6569      .6445      .6635   -93.4851    27.7703
 5017.0000    12.5514    44.1963  1553.5039   135.2849    52.9786      .6442      .6604   -93.0991    27.8846
 5017.5000    12.4951    43.7326  1587.5332   135.3369    51.3967      .6384      .6647   -93.4689    27.8816
 5018.0000    12.4412    43.4797  1619.6367   135.2275    50.5438      .6326      .6624   -94.1353    27.7601
 5018.5000    12.3946    43.5455  1651.7148   136.1636    50.8998      .6269      .6566   -95.1406    27.7878
 5019.0000    12.3601    44.0952  1683.7930   137.3357    51.5027      .6175      .6416   -95.2827    27.8831
 5019.5000    12.3303    45.2554  1718.3418   138.6943    52.1252      .6073      .6234   -95.2535    27.7589
 5020.0000    12.3049    46.3936  1757.6348   140.0161    52.7299      .5871      .6117   -95.0422    27.6234
 5020.5000    12.2771    45.1414  1796.9043   141.0764    54.1630      .5703      .6062   -94.8954    27.5048
 5021.0000    12.2638    43.3874  1836.1738   144.3533    54.1808      .5559      .5991   -94.9480    27.3498
 5021.5000    12.2473    42.1499  1866.6699   145.5598    53.7318      .5454      .5863   -94.7485    27.0820
 5022.0000    12.2251    41.2880  1895.8574   146.4214    55.2849      .5373      .5724   -93.9930    26.8722
 5022.5000    12.1947    42.1955  1925.0430   147.2517    56.8828      .5291      .5583   -94.4005    26.8939
 5023.0000    12.1745    43.7141  1938.6973   147.1577    57.7614      .5207      .5501   -95.4005    26.9616
 5023.5000    12.1653    44.6572  1947.8301   146.3035    58.3589      .5148      .5458   -95.9917    27.0459
 5024.0000    12.1585    45.2830  1956.9609   145.4265    58.3930      .5119      .5480   -95.3405    27.2284
 5024.5000    12.1515    45.2687  1953.0313   144.6548    58.2561      .5133      .5585   -93.2817    27.5738
 5025.0000    12.1490    45.2863  1933.3594   143.9153    57.8931      .5157      .5700   -92.4696    27.8900
 5025.5000    12.1469    45.3815  1913.6758   143.4067    56.6132      .5188      .5830   -92.4619    28.1581
 5026.0000    12.1444    45.5368  1894.8496   143.3123    54.9185      .5214      .5896   -93.0765    28.3835
 5026.5000    12.1637    46.2067  1884.4336   143.7427    53.8545      .5238      .5920   -92.9974    28.6458
 5027.0000    12.1506    47.4537  1874.0039   144.6633    54.0521      .5236      .5930   -92.8439    28.9055
 5027.5000    12.1253    48.3873  1881.2012   146.2397    55.1341      .5213      .5902   -92.7706    29.1315
 5028.0000    12.1041    48.9377  1906.7813   148.1438    55.1022      .5189      .5877   -93.2137    29.3099
 5028.5000    12.0902    49.6565  1934.4590   148.6870    52.5093      .5139      .5787   -93.7758    29.3373
 5029.0000    12.0855    50.2991  1962.1387   149.2295    50.9028      .5085      .5620   -93.9292    28.4500
 5029.5000    12.0921    49.8514  1989.8418   148.8145    49.4679      .5031      .5451   -94.0826    27.8618
 5030.0000    12.1101    48.4109  2010.8730   148.0132    49.6492      .4994      .5363   -94.4492    27.3277
 5030.5000    12.1395    47.1315  2024.9727   147.3237    51.1908      .4968      .5380   -94.8644    27.6588
 5031.0000    12.1932    46.1287  2039.0586   146.8457    52.7802      .4943      .5458   -95.3961    28.0108
 5031.5000    12.2323    45.0082  2053.1562   146.5415    54.0153      .4919      .5528   -95.1367    28.3492
 5032.0000    12.2389    44.0186  2067.2539   146.7214    54.8558      .4920      .5473   -94.3558    28.6722
 5032.5000    12.2187    44.6087  2081.3555   147.4573    55.0273      .4920      .5421   -93.4814    29.1188
 5033.0000    12.1872    46.3067  2094.8281   148.1626    54.5031      .4920      .5382   -92.5367    29.6508
 5033.5000    12.1696    48.2277  2098.6602   148.5366    53.7310      .4913      .5342   -92.5251    30.1095
 5034.0000    12.2137    48.9060  2102.4883   148.7708    52.3733      .4904      .5303   -92.5983    30.2998
 5034.5000    12.2584    48.5176  2106.3164   150.5818    51.7189      .4895      .5264   -92.9696    30.3165
 5035.0000    12.2664    47.6259  2110.1484   155.1917    52.4274      .4909      .5274   -93.3412    30.2704
 5035.5000    12.2810    47.1890  2113.9805   155.4285    52.6368      .4923      .5284   -93.9545    30.1747
 5036.0000    12.3179    47.8510  2081.1562   151.1194    51.0805      .4931      .5339   -94.6199    30.0992
 5036.5000    12.3288    49.4821  2021.5000   147.6665    50.2065      .4938      .5403   -95.0248    30.0509
 5037.0000    12.3056    50.5276  1961.8906   146.8997    50.5364      .4929      .5458   -95.0687    30.1521
 5037.5000    12.2780    51.1389  1909.7949   146.8459    51.7863      .4921      .5502   -95.1125    30.6576
 5038.0000    12.2615    51.5900  1863.5820   148.8071    52.8592      .4974      .5525   -95.2335    31.0959
 5038.5000    12.2832    52.1172  1817.3672   153.2402    53.0228      .5026      .5515   -95.3615    31.2498
 5039.0000    12.3362    51.9795  1771.1543   153.3298    52.0455      .5166      .5512   -95.4883    31.3651
 5039.5000    12.3807    50.0471  1720.2930   150.7659    51.1418      .5357      .5509   -95.6145    31.3403
 5040.0000    12.4181    48.8156  1661.1309   147.7173    50.2527      .5561      .5674   -95.6306    31.0784
 5040.5000    12.4528    48.0355  1606.1680   145.3647    49.4973      .5779      .5960   -95.5206    30.6432
 5041.0000    12.4742    48.4565  1577.2520   146.2446    48.8313      .6017      .6288   -95.0787    30.3345
 5041.5000    12.4977    49.2871  1548.3145   154.5410    48.4122      .6279      .6614   -94.3607    30.3479
 5042.0000    12.5419    50.2186  1523.7617   158.1445    47.9594      .6482      .7124   -93.6426    30.2209
 5042.5000    12.6411    51.1757  1507.0293   157.9910    49.0549      .6657      .7674   -92.9246    29.6912
 5043.0000    12.6749    49.9471  1493.0488   156.2004    50.2791      .6737      .7536   -92.2064    29.0143
 5043.5000    12.6927    48.5426  1498.6406   153.1150    51.1791      .6767      .7151   -91.8594    28.7678
 5044.0000    12.7429    47.7429  1527.0840   152.7639    51.8519      .6739      .6787   -91.5647    28.5317
 5044.5000    12.8002    46.6304  1555.5547   158.0967    52.3776      .6656      .6590   -92.1973    27.9902
 5045.0000    12.8776    45.1943  1584.0000   159.0747    52.8533      .6529      .6536   -93.0490    27.4337
 5045.5000    12.9494    43.5125  1602.8066   155.4836    52.9590      .6366      .6411   -93.9680    26.9797
 5046.0000    12.9953    41.9888  1617.8438   150.9133    52.4799      .6234      .6305   -94.5421    26.5960
 5046.5000    12.9596    41.4598  1632.8828   145.1204    52.3942      .6121      .6257   -94.8358    26.1598
 5047.0000    12.8186    41.8401  1647.9453   141.8142    52.3880      .6065      .6218   -94.2970    25.5734
 5047.5000    12.6862    42.8150  1664.9844   140.5242    51.2704      .6010      .6222   -93.6414    25.3368
