~VERSION INFORMATION
VERS.                                                 2.0:   CWLS Log ASCII Standard-VERSION 2.0
WRAP.                                                  NO:   One line per depth step
~Well Information Block
STRT.F                                          1471.0000:   Top Depth
STOP.F                                         12100.0000:   Bottom Depth
STEP.F                                             .50000:   Depth Increment
NULL.                                            -999.250:   Null Value
FLD .                                        MU BLK A 175:   Field Name
WELL.                           OCSG03931   001 ST00 BP00:   NAME
API .                                        427124004600:   WELL API
EDF .F                                            85.0000:   ELEV DRILL FLOOR
COMP.                                GULF OIL CORPORATION:   OPERATOR
BN  .                                               A 175:   BLOCK
CTRY.                                                 USA:   COUNTRY NAME
CNTY.                                            M I E AD:   COUNTY NAME
EKB .F                                            86.0000:   ELEV KELLY BUSHING
TDD .F                                          12102.000:   FINAL TD DRILLER
STAT.                                               TEXAS:   STATE NAME
UWI .                                        427124004600:   WELL API
DICO.               IHS : Digitizing Company
~PARAMETER INFORMATION (zones)
#MNEM.UNIT                       Value     Description
#=========                       =====     ===========
#ZONATION                          CNL:   ZONATION NAME
#ZONE                            RUN_2:   ZONE NAME
TOP .                       3452.0000:   TOP DEPTH
BOT .                      12100.5000:   BOTTOM DEPTH
RUN .                               2:   RUN NUMBER
LCCD.                             440:   LOGGING CONTRACTOR
SRVC.                    Schlumberger:   LOGGING CONT NAME
DICO.          QC Data Collectors Ltd:   DIG COMPANY NAME
LDAT.                      06/16/1981:   DATE LOGGED
ELD .F                        86.0000:   LOG DATUM ELEVATION
TDD .F                      7546.0000:   TOTAL DEPTH DRILLER
TDL .F                      7545.0000:   TOTAL DEPTH LOGGER
BOTL.F                     12100.0000:   BOTTOM DEPTH LOGGED
TOPL.F                      3504.0000:   TOP DEPTH LOGGED
CS1 .IN                        9.6250:   CASING SIZE 1
BS1 .IN                       12.2500:   BIT SIZE 1
DDB1.F                      7546.0000:   DEPTH DRILLED BIT 1
BHF .                              99:   FLUID CODE
DPT .                   Miscellaneous:   DRILLING FLUID TYPE
MUDD.                         14.0000:   FLUID DENSITY
MUDV.                         42.0000:   FLUID VISCOSITY
DFPH.                         11.0000:   FLUID PH
FL  .                          4.8000:   FLUID LOSS
RM  .OHMM                       .7300:   RM
RMT .DEGF                     74.0000:   RM TEMP
RMF .OHMM                       .4600:   RMF
RMFT.DEGF                     74.0000:   RMF TEMP
FSC .                               M:   RMF CODE
RMC .OHMM                      1.1200:   RMC
RMCT.DEGF                     74.0000:   RMC TEMP
CMC .                               M:   RMC CODE
TMAX.DEGF                    168.0000:   MAX REC TEMP
TIMC.                          7.0000:   TIME SINCE CIRCLN
~PARAMETER INFORMATION (zones)
#MNEM.UNIT                       Value     Description
#=========                       =====     ===========
#ZONATION                          DIL:   ZONATION NAME
#ZONE                            RUN_1:   ZONE NAME
TOP .                       1471.0000:   TOP DEPTH
BOT .                      12095.5000:   BOTTOM DEPTH
RUN .                               1:   RUN NUMBER
LCCD.                             440:   LOGGING CONTRACTOR
SRVC.                    Schlumberger:   LOGGING CONT NAME
DICO.          QC Data Collectors Ltd:   DIG COMPANY NAME
LDAT.                      05/25/1981:   DATE LOGGED
ELD .F                        86.0000:   LOG DATUM ELEVATION
TDD .F                      4590.0000:   TOTAL DEPTH DRILLER
TDL .F                      3529.0000:   TOTAL DEPTH LOGGER
BOTL.F                     12095.0000:   BOTTOM DEPTH LOGGED
TOPL.F                      1471.0000:   TOP DEPTH LOGGED
CS1 .IN                       20.0000:   CASING SIZE 1
BS1 .IN                       12.2500:   BIT SIZE 1
DDB1.F                      4590.0000:   DEPTH DRILLED BIT 1
BHF .                              99:   FLUID CODE
DPT .                   Miscellaneous:   DRILLING FLUID TYPE
MUDD.                         11.4000:   FLUID DENSITY
MUDV.                         44.0000:   FLUID VISCOSITY
DFPH.                         11.0000:   FLUID PH
FL  .                         10.0000:   FLUID LOSS
RM  .OHMM                       .5200:   RM
RMT .DEGF                     75.0000:   RM TEMP
RMF .OHMM                       .3500:   RMF
RMFT.DEGF                     75.0000:   RMF TEMP
FSC .                               M:   RMF CODE
RMC .OHMM                       .8800:   RMC
RMCT.DEGF                     75.0000:   RMC TEMP
CMC .                               M:   RMC CODE
TMAX.DEGF                    125.0000:   MAX REC TEMP
TIMC.                         14.0000:   TIME SINCE CIRCLN
~PARAMETER INFORMATION (zones)
#MNEM.UNIT                       Value     Description
#=========                       =====     ===========
#ZONATION                          FDC:   ZONATION NAME
#ZONE                            RUN_4:   ZONE NAME
TOP .                      11080.0000:   TOP DEPTH
BOT .                      12095.0000:   BOTTOM DEPTH
RUN .                               4:   RUN NUMBER
LCCD.                             440:   LOGGING CONTRACTOR
SRVC.                    Schlumberger:   LOGGING CONT NAME
DICO.          QC Data Collectors Ltd:   DIG COMPANY NAME
LDAT.                      07/06/1981:   DATE LOGGED
ELD .F                        86.0000:   LOG DATUM ELEVATION
TDD .F                     12100.0000:   TOTAL DEPTH DRILLER
TDL .F                     12102.0000:   TOTAL DEPTH LOGGER
BOTL.F                     12095.0000:   BOTTOM DEPTH LOGGED
TOPL.F                     11080.0000:   TOP DEPTH LOGGED
CS1 .IN                        9.6250:   CASING SIZE 1
BS1 .IN                        8.5000:   BIT SIZE 1
DDB1.F                     12100.0000:   DEPTH DRILLED BIT 1
BHF .                              99:   FLUID CODE
DPT .                   Miscellaneous:   DRILLING FLUID TYPE
MUDD.                         15.7000:   FLUID DENSITY
MUDV.                         50.0000:   FLUID VISCOSITY
DFPH.                         11.0000:   FLUID PH
FL  .                          4.2000:   FLUID LOSS
RM  .OHMM                      1.2000:   RM
RMT .DEGF                     90.0000:   RM TEMP
RMF .OHMM                       .6600:   RMF
RMFT.DEGF                     78.0000:   RMF TEMP
FSC .                               M:   RMF CODE
RMC .OHMM                      1.4200:   RMC
RMCT.DEGF                     78.0000:   RMC TEMP
CMC .                               M:   RMC CODE
TMAX.DEGF                    277.0000:   MAX REC TEMP
TIMC.                         20.0000:   TIME SINCE CIRCLN
~PARAMETER INFORMATION (zones)
#MNEM.UNIT                       Value     Description
#=========                       =====     ===========
#ZONATION                          FDC:   ZONATION NAME
#ZONE                            RUN_2:   ZONE NAME
TOP .                       3504.0000:   TOP DEPTH
BOT .                      12100.5000:   BOTTOM DEPTH
RUN .                               2:   RUN NUMBER
LCCD.                             440:   LOGGING CONTRACTOR
SRVC.                    Schlumberger:   LOGGING CONT NAME
DICO.          QC Data Collectors Ltd:   DIG COMPANY NAME
LDAT.                      06/16/1981:   DATE LOGGED
ELD .F                        86.0000:   LOG DATUM ELEVATION
TDD .F                      7546.0000:   TOTAL DEPTH DRILLER
TDL .F                      7545.0000:   TOTAL DEPTH LOGGER
BOTL.F                     12100.0000:   BOTTOM DEPTH LOGGED
TOPL.F                      3504.0000:   TOP DEPTH LOGGED
CS1 .IN                        9.6250:   CASING SIZE 1
BS1 .IN                       12.2500:   BIT SIZE 1
DDB1.F                      7546.0000:   DEPTH DRILLED BIT 1
BHF .                              99:   FLUID CODE
DPT .                   Miscellaneous:   DRILLING FLUID TYPE
MUDD.                         14.0000:   FLUID DENSITY
MUDV.                         42.0000:   FLUID VISCOSITY
DFPH.                         11.0000:   FLUID PH
FL  .                          4.8000:   FLUID LOSS
RM  .OHMM                       .7300:   RM
RMT .DEGF                     74.0000:   RM TEMP
RMF .OHMM                       .4600:   RMF
RMFT.DEGF                     74.0000:   RMF TEMP
FSC .                               M:   RMF CODE
RMC .OHMM                      1.1200:   RMC
RMCT.DEGF                     74.0000:   RMC TEMP
CMC .                               M:   RMC CODE
TMAX.DEGF                    168.0000:   MAX REC TEMP
TIMC.                          7.0000:   TIME SINCE CIRCLN
~Curve Information Block
#MNEM.UNIT                                        API CODE    No Description
#=========                                        ========    == ===========
DEPT.F                                       00 001 00 00:     1  DEPTH
CALI.IN                                                  :     2  Caliper
NPHI.%                                                   :     3  Neutron Porosity
CILD.MMHO                                                :     4  Deep Induction Conductivity
DT.US/F                                                  :     5  Sonic Transit Time
GR.GAPI                                                  :     6  Gamma Ray
ILD.OHMM                                                 :     7  Deep Induction Resistivity
SFL.OHMM                                                 :     8  Medium Resistivity
SP.MV                                                    :     9  Spontaneous Potential
DPHI.%                                                   :    10  Porosity
~ASCII
# ...
 8515.5000    10.7872    33.2068  2090.9883   135.4888    57.4288      .4957      .7066   -89.2072    24.3141
 8516.0000    10.7780    34.3367  2076.4727   135.7957    61.8408      .5002      .6790   -89.0425    24.1418
 8516.5000    10.7762    35.2747  2060.8281   136.7283    63.3606      .5049      .6607   -88.8162    23.1395
 8517.0000    10.7788    35.2715  2037.1680   137.1152    62.0764      .5098      .6616   -88.5309    22.0789
 8517.5000    10.7706    35.0090  2008.4063   136.8682    58.9061      .5146      .6861   -88.5155    21.5818
 8518.0000    10.7552    35.2911  1979.5957   135.8176    55.2548      .5207      .7120   -87.6432    22.8593
 8518.5000    10.7366    36.2872  1950.8340   134.6602    52.2881      .5286      .7211   -86.0948    23.8195
 8519.0000    10.7312    35.9601  1928.4336   133.9360    51.2514      .5367      .7151   -85.7413    24.3572
 8519.5000    10.7269    35.4401  1906.2070   133.6072    50.7759      .5440      .7097   -86.9047    23.7266
 8520.0000    10.7282    35.3147  1883.9805   133.3982    50.3171      .5509      .7248   -88.1156    22.6764
 8520.5000    10.7268    35.8771  1860.0957   133.2441    50.0814      .5580      .7599   -88.8658    21.8894
 8521.0000    10.7247    35.9366  1835.3945   133.0293    51.0269      .5600      .7593   -89.1897    22.0229
 8521.5000    10.7200    35.7631  1810.6426   132.5928    54.0450      .5615      .7406   -88.9756    22.8829
 8522.0000    10.7152    34.6672  1793.3418   132.0588    55.5888      .5599      .7117   -88.7758    23.5383
 8522.5000    10.7131    34.2971  1781.8574   132.0649    54.7886      .5548      .6787   -88.6672    23.1926
 8523.0000    10.7103    34.2804  1795.5684   132.9443    53.0782      .5498      .6492   -88.5586    22.1291
 8523.5000    10.7059    34.1879  1809.2813   134.3362    52.4581      .5447      .6294   -88.4530    21.5383
 8524.0000    10.7013    34.0141  1826.1875   135.9368    53.5789      .5390      .6149   -88.3478    21.2109
 8524.5000    10.7016    33.8355  1848.1172   137.2744    54.9014      .5334      .6063   -88.2761    20.7411
 8525.0000    10.7019    34.6244  1870.0469   138.1238    55.4554      .5279      .6093   -88.2350    20.7374
 8525.5000    10.7005    35.3531  1892.0000   138.2915    54.0402      .5252      .6294   -88.2612    21.2714
 8526.0000    10.6990    36.0463  1913.0137   138.0139    52.9200      .5228      .6677   -88.4000    22.0008
 8526.5000    10.7034    36.1909  1920.8105   137.2366    52.1299      .5205      .6958   -88.5787    21.9123
 8527.0000    10.7101    35.4017  1927.5195   136.2803    51.8290      .5199      .7177   -88.9333    20.7101
 8527.5000    10.7143    34.2114  1913.3848   135.8777    52.4575      .5195      .7190   -89.2716    19.7247
 8528.0000    10.7128    33.0269  1899.2520   135.6875    54.5162      .5191      .7106   -89.4772    18.8530
 8528.5000    10.7137    32.7061  1885.1191   136.0876    55.6658      .5226      .7010   -89.3020    18.2592
 8529.0000    10.7162    33.4532  1876.8965   136.7996    56.5277      .5280      .6885   -88.6173    18.6347
 8529.5000    10.7198    34.2689  1880.5215   136.7839    57.0743      .5335      .6762   -87.4641    19.4430
 8530.0000    10.7462    35.0580  1884.1426   136.4429    56.8430      .5342      .6721   -86.2396    20.1356
 8530.5000    10.7361    35.2452  1888.9687   135.9551    56.5265      .5334      .6714   -85.3440    20.5186
 8531.0000    10.7265    35.2407  1896.3066   135.8154    55.7051      .5326      .6758   -84.6520    20.5251
 8531.5000    10.7191    35.2073  1903.6465   135.8760    54.7775      .5291      .6661   -84.2288    20.4346
 8532.0000    10.7225    35.3177  1910.9727   135.9280    53.9445      .5252      .6518   -85.2568    20.4151
 8532.5000    10.7255    33.8220  1918.3105   135.6077    53.1874      .5215      .6632   -86.4004    21.0265
 8533.0000    10.7284    32.4280  1925.6367   135.1750    52.6102      .5200      .6735   -87.2125    21.5922
 8533.5000    10.7309    32.3646  1932.9766   135.0186    52.3074      .5185      .6737   -87.8689    22.0966
 8534.0000    10.7333    33.7556  1938.7305   135.8030    52.2237      .5170      .6618   -88.2444    22.0941
 8534.5000    10.7303    34.7623  1942.7598   136.5762    52.1907      .5156      .6490   -88.1456    21.7832
 8535.0000    10.7243    34.9513  1946.7871   137.0020    52.0521      .5142      .6483   -87.8589    21.5007
 8535.5000    10.7168    34.5241  1950.8164   136.4329    51.9127      .5128      .6579   -87.6902    21.5059
 8536.0000    10.7094    34.1844  1954.8438   136.1404    52.3887      .5115      .6685   -87.6432    21.6715
 8536.5000    10.7118    33.9691  1958.3828   135.9722    53.0304      .5108      .6759   -88.0094    21.4594
 8537.0000    10.7141    33.6014  1954.5352   136.0361    54.0144      .5101      .6750   -88.2039    21.0250
 8537.5000    10.6970    33.0136  1950.6855   136.0464    54.7836      .5100      .6718   -88.1351    21.0741
 8538.0000    10.6832    33.1714  1946.8379   135.9214    54.9088      .5128      .6810   -87.8561    21.5966
 8538.5000    10.6795    33.7371  1940.0176   135.6873    54.5168      .5157      .6905   -87.6924    21.9178
 8539.0000    10.6804    34.1819  1926.0078   134.5620    54.0874      .5193      .7036   -87.6876    21.7511
 8539.5000    10.6854    34.4644  1912.0000   133.4795    53.6567      .5240      .7169   -88.0027    21.3986
 8540.0000    10.6875    35.1495  1897.9648   132.7773    53.2917      .5288      .7212   -88.6023    21.4439
 8540.5000    10.6889    35.8185  1887.3965   132.5276    53.8512      .5317      .7229   -88.6179    21.7419
 8541.0000    10.6975    36.3751  1877.8555   132.8584    55.3480      .5343      .7124   -88.2162    21.9346
 8541.5000    10.7079    35.4055  1868.3262   133.4648    56.8743      .5365      .7019   -87.9631    22.0421
 8542.0000    10.7189    34.5845  1862.5488   133.6526    55.8768      .5384      .6938   -87.7251    21.9764
 8542.5000    10.7103    33.8751  1861.8184   133.3230    54.5652      .5399      .6863   -87.5743    21.4034
 8543.0000    10.7057    33.3640  1860.9922   132.9922    53.7665      .5386      .6871   -87.4581    20.3590
 8543.5000    10.6871    32.9480  1857.5645   132.7771    53.3221      .5372      .6903   -87.3418    19.0713
 8544.0000    10.6644    32.5563  1854.1367   132.7224    53.0479      .5377      .7073   -87.4453    17.7990
 8544.5000    10.6451    33.0483  1850.7090   132.3975    53.0007      .5394      .6983   -87.5724    18.3279
 8545.0000    10.6245    33.6450  1849.6133   132.1248    53.1506      .5410      .6914   -87.8689    19.3102
 8545.5000    10.6037    34.2261  1854.9727   132.5344    53.8733      .5396      .6836   -88.3210    20.5464
 8546.0000    10.5833    34.7697  1860.3320   133.8477    54.8965      .5382      .6679   -89.0038    20.6138
 8546.5000    10.5679    34.9910  1866.6797   136.1477    55.3382      .5328      .6433   -89.4965    20.5371
 8547.0000    10.5583    34.8713  1891.5293   138.8799    54.6873      .5247      .6090   -89.7850    21.0125
 8547.5000    10.5560    34.6705  1916.3809   140.7258    54.1377      .5159      .5925   -89.4952    22.2840
 8548.0000    10.5873    34.5227  1956.9238   141.4556    53.6095      .5027      .5857   -89.2053    23.8077
 8548.5000    10.6200    34.5551  2009.0996   141.6201    53.1445      .4884      .5837   -88.9220    25.3617
 8549.0000    10.6359    35.5065  2052.8594   141.6252    52.2255      .4801      .5828   -88.6404    25.9676
 8549.5000    10.6347    36.1754  2084.8867   141.4534    51.5103      .4740      .5859   -88.3763    25.8134
 8550.0000    10.6332    36.4586  2116.9648   141.0720    52.1703      .4715      .5881   -88.4177    25.1013
 8550.5000    10.6320    36.5160  2134.9336   140.4607    53.7457      .4690      .5938   -88.4592    24.3019
 8551.0000    10.6347    36.3502  2142.1992   139.9084    55.3873      .4667      .6102   -88.5117    23.8232
 8551.5000    10.6343    37.0568  2137.2734   139.4106    56.8596      .4673      .6270   -88.5745    23.5062
