~VERSION INFORMATION
VERS.                                                 2.0:   CWLS Log ASCII Standard-VERSION 2.0
WRAP.                                                  NO:   One line per depth step
~Well Information Block
STRT.F                                          1471.0000:   Top Depth
STOP.F                                         12100.0000:   Bottom Depth
STEP.F                                             .50000:   Depth Increment
NULL.                                            -999.250:   Null Value
FLD .                                        MU BLK A 175:   Field Name
WELL.                           OCSG03931   001 ST00 BP00:   NAME
API .                                        427124004600:   WELL API
EDF .F                                            85.0000:   ELEV DRILL FLOOR
COMP.                                GULF OIL CORPORATION:   OPERATOR
BN  .                                               A 175:   BLOCK
CTRY.                                                 USA:   COUNTRY NAME
CNTY.                                            M I E AD:   COUNTY NAME
EKB .F                                            86.0000:   ELEV KELLY BUSHING
TDD .F                                          12102.000:   FINAL TD DRILLER
STAT.                                               TEXAS:   STATE NAME
UWI .                                        427124004600:   WELL API
DICO.               IHS : Digitizing Company
~PARAMETER INFORMATION (zones)
#MNEM.UNIT                       Value     Description
#=========                       =====     ===========
#ZONATION                          CNL:   ZONATION NAME
#ZONE                            RUN_2:   ZONE NAME
TOP .                       3452.0000:   TOP DEPTH
BOT .                      12100.5000:   BOTTOM DEPTH
RUN .                               2:   RUN NUMBER
LCCD.                             440:   LOGGING CONTRACTOR
SRVC.                    Schlumberger:   LOGGING CONT NAME
DICO.          QC Data Collectors Ltd:   DIG COMPANY NAME
LDAT.                      06/16/1981:   DATE LOGGED
ELD .F                        86.0000:   LOG DATUM ELEVATION
TDD .F                      7546.0000:   TOTAL DEPTH DRILLER
TDL .F                      7545.0000:   TOTAL DEPTH LOGGER
BOTL.F                     12100.0000:   BOTTOM DEPTH LOGGED
TOPL.F                      3504.0000:   TOP DEPTH LOGGED
CS1 .IN                        9.6250:   CASING SIZE 1
BS1 .IN                       12.2500:   BIT SIZE 1
DDB1.F                      7546.0000:   DEPTH DRILLED BIT 1
BHF .                              99:   FLUID CODE
DPT .                   Miscellaneous:   DRILLING FLUID TYPE
MUDD.                         14.0000:   FLUID DENSITY
MUDV.                         42.0000:   FLUID VISCOSITY
DFPH.                         11.0000:   FLUID PH
FL  .                          4.8000:   FLUID LOSS
RM  .OHMM                       .7300:   RM
RMT .DEGF                     74.0000:   RM TEMP
RMF .OHMM                       .4600:   RMF
RMFT.DEGF                     74.0000:   RMF TEMP
FSC .                               M:   RMF CODE
RMC .OHMM                      1.1200:   RMC
RMCT.DEGF                     74.0000:   RMC TEMP
CMC .                               M:   RMC CODE
TMAX.DEGF                    168.0000:   MAX REC TEMP
TIMC.                          7.0000:   TIME SINCE CIRCLN
~PARAMETER INFORMATION (zones)
#MNEM.UNIT                       Value     Description
#=========                       =====     ===========
#ZONATION                          DIL:   ZONATION NAME
#ZONE                            RUN_1:   ZONE NAME
TOP .                       1471.0000:   TOP DEPTH
BOT .                      12095.5000:   BOTTOM DEPTH
RUN .                               1:   RUN NUMBER
LCCD.                             440:   LOGGING CONTRACTOR
SRVC.                    Schlumberger:   LOGGING CONT NAME
DICO.          QC Data Collectors Ltd:   DIG COMPANY NAME
LDAT.                      05/25/1981:   DATE LOGGED
ELD .F                        86.0000:   LOG DATUM ELEVATION
TDD .F                      4590.0000:   TOTAL DEPTH DRILLER
TDL .F                      3529.0000:   TOTAL DEPTH LOGGER
BOTL.F                     12095.0000:   BOTTOM DEPTH LOGGED
TOPL.F                      1471.0000:   TOP DEPTH LOGGED
CS1 .IN                       20.0000:   CASING SIZE 1
BS1 .IN                       12.2500:   BIT SIZE 1
DDB1.F                      4590.0000:   DEPTH DRILLED BIT 1
BHF .                              99:   FLUID CODE
DPT .                   Miscellaneous:   DRILLING FLUID TYPE
MUDD.                         11.4000:   FLUID DENSITY
MUDV.                         44.0000:   FLUID VISCOSITY
DFPH.                         11.0000:   FLUID PH
FL  .                         10.0000:   FLUID LOSS
RM  .OHMM                       .5200:   RM
RMT .DEGF                     75.0000:   RM TEMP
RMF .OHMM                       .3500:   RMF
RMFT.DEGF                     75.0000:   RMF TEMP
FSC .                               M:   RMF CODE
RMC .OHMM                       .8800:   RMC
RMCT.DEGF                     75.0000:   RMC TEMP
CMC .                               M:   RMC CODE
TMAX.DEGF                    125.0000:   MAX REC TEMP
TIMC.                         14.0000:   TIME SINCE CIRCLN
~PARAMETER INFORMATION (zones)
#MNEM.UNIT                       Value     Description
#=========                       =====     ===========
#ZONATION                          FDC:   ZONATION NAME
#ZONE                            RUN_4:   ZONE NAME
TOP .                      11080.0000:   TOP DEPTH
BOT .                      12095.0000:   BOTTOM DEPTH
RUN .                               4:   RUN NUMBER
LCCD.                             440:   LOGGING CONTRACTOR
SRVC.                    Schlumberger:   LOGGING CONT NAME
DICO.          QC Data Collectors Ltd:   DIG COMPANY NAME
LDAT.                      07/06/1981:   DATE LOGGED
ELD .F                        86.0000:   LOG DATUM ELEVATION
TDD .F                     12100.0000:   TOTAL DEPTH DRILLER
TDL .F                     12102.0000:   TOTAL DEPTH LOGGER
BOTL.F                     12095.0000:   BOTTOM DEPTH LOGGED
TOPL.F                     11080.0000:   TOP DEPTH LOGGED
CS1 .IN                        9.6250:   CASING SIZE 1
BS1 .IN                        8.5000:   BIT SIZE 1
DDB1.F                     12100.0000:   DEPTH DRILLED BIT 1
BHF .                              99:   FLUID CODE
DPT .                   Miscellaneous:   DRILLING FLUID TYPE
MUDD.                         15.7000:   FLUID DENSITY
MUDV.                         50.0000:   FLUID VISCOSITY
DFPH.                         11.0000:   FLUID PH
FL  .                          4.2000:   FLUID LOSS
RM  .OHMM                      1.2000:   RM
RMT .DEGF                     90.0000:   RM TEMP
RMF .OHMM                       .6600:   RMF
RMFT.DEGF                     78.0000:   RMF TEMP
FSC .                               M:   RMF CODE
RMC .OHMM                      1.4200:   RMC
RMCT.DEGF                     78.0000:   RMC TEMP
CMC .                               M:   RMC CODE
TMAX.DEGF                    277.0000:   MAX REC TEMP
TIMC.                         20.0000:   TIME SINCE CIRCLN
~PARAMETER INFORMATION (zones)
#MNEM.UNIT                       Value     Description
#=========                       =====     ===========
#ZONATION                          FDC:   ZONATION NAME
#ZONE                            RUN_2:   ZONE NAME
TOP .                       3504.0000:   TOP DEPTH
BOT .                      12100.5000:   BOTTOM DEPTH
RUN .                               2:   RUN NUMBER
LCCD.                             440:   LOGGING CONTRACTOR
SRVC.                    Schlumberger:   LOGGING CONT NAME
DICO.          QC Data Collectors Ltd:   DIG COMPANY NAME
LDAT.                      06/16/1981:   DATE LOGGED
ELD .F                        86.0000:   LOG DATUM ELEVATION
TDD .F                      7546.0000:   TOTAL DEPTH DRILLER
TDL .F                      7545.0000:   TOTAL DEPTH LOGGER
BOTL.F                     12100.0000:   BOTTOM DEPTH LOGGED
TOPL.F                      3504.0000:   TOP DEPTH LOGGED
CS1 .IN                        9.6250:   CASING SIZE 1
BS1 .IN                       12.2500:   BIT SIZE 1
DDB1.F                      7546.0000:   DEPTH DRILLED BIT 1
BHF .                              99:   FLUID CODE
DPT .                   Miscellaneous:   DRILLING FLUID TYPE
MUDD.                         14.0000:   FLUID DENSITY
MUDV.                         42.0000:   FLUID VISCOSITY
DFPH.                         11.0000:   FLUID PH
FL  .                          4.8000:   FLUID LOSS
RM  .OHMM                       .7300:   RM
RMT .DEGF                     74.0000:   RM TEMP
RMF .OHMM                       .4600:   RMF
RMFT.DEGF                     74.0000:   RMF TEMP
FSC .                               M:   RMF CODE
RMC .OHMM                      1.1200:   RMC
RMCT.DEGF                     74.0000:   RMC TEMP
CMC .                               M:   RMC CODE
TMAX.DEGF                    168.0000:   MAX REC TEMP
TIMC.                          7.0000:   TIME SINCE CIRCLN
~Curve Information Block
#MNEM.UNIT                                        API CODE    No Description
#=========                                        ========    == ===========
DEPT.F                                       00 001 00 00:     1  DEPTH
CALI.IN                                                  :     2  Caliper
NPHI.%                                                   :     3  Neutron Porosity
CILD.MMHO                                                :     4  Deep Induction Conductivity
DT.US/F                                                  :     5  Sonic Transit Time
GR.GAPI                                                  :     6  Gamma Ray
ILD.OHMM                                                 :     7  Deep Induction Resistivity
SFL.OHMM                                                 :     8  Medium Resistivity
SP.MV                                                    :     9  Spontaneous Potential
DPHI.%                                                   :    10  Porosity
~ASCII
# ...
 5705.0000    12.1544    47.9340  1860.0820   143.8044    56.2667      .5402      .5615   -91.0485    29.2018
 5705.5000    12.1398    46.4570  1871.9102   142.7837    53.9551      .5431      .5757   -90.9080    28.3808
 5706.0000    12.1262    45.6880  1893.6934   142.0349    52.6554      .5402      .5848   -90.7842    27.5790
 5706.5000    12.1180    46.6280  1926.5664   142.6550    52.4362      .5368      .5880   -90.9054    27.5605
 5707.0000    12.1263    47.6819  1959.4395   144.0320    53.8216      .5278      .5852   -91.1215    28.0086
 5707.5000    12.1385    48.9186  1992.3145   145.4741    57.2810      .5189      .5777   -91.3048    28.7176
 5708.0000    12.1527    49.8538  2028.5879   146.9270    59.6342      .5098      .5699   -91.4210    29.0924
 5708.5000    12.1692    49.3151  2065.2070   148.1748    60.9303      .5002      .5553   -91.4661    29.1534
 5709.0000    12.1966    47.2176  2101.8242   149.3477    61.6830      .4894      .5410   -91.2946    29.0640
 5709.5000    12.2341    45.0405  2132.2109   149.7336    61.9228      .4775      .5277   -90.9594    28.8279
 5710.0000    12.2538    44.2490  2162.1484   149.5583    62.0460      .4653      .5151   -90.4216    28.7841
 5710.5000    12.2553    44.8599  2192.0898   149.3594    62.1980      .4576      .5061   -89.7411    28.9478
 5711.0000    12.2610    45.8600  2204.5977   149.3459    62.0723      .4536      .5028   -89.2462    29.1281
 5711.5000    12.2469    47.3679  2213.1523   149.4255    61.3223      .4520      .5025   -88.8314    29.2766
 5712.0000    12.1879    48.7631  2209.8711   149.2874    59.8327      .4524      .5059   -88.6949    29.4550
 5712.5000    12.0974    49.0660  2206.5820   149.0205    58.2083      .4530      .5094   -88.5942    29.8018
 5713.0000    12.0395    48.9164  2200.7031   148.5667    56.6391      .4538      .5129   -88.5973    30.2178
 5713.5000    12.0001    48.5048  2190.4023   148.5085    56.5925      .4556      .5165   -89.4685    30.6139
 5714.0000    12.0100    47.6738  2180.1016   148.5537    59.8021      .4574      .5183   -90.7732    30.9338
 5714.5000    12.0180    46.5307  2157.8125   148.5762    61.6929      .4600      .5194   -91.9730    31.2054
 5715.0000    12.0248    46.4567  2112.1250   148.6479    62.1528      .4627      .5178   -91.7017    31.3929
 5715.5000    12.0206    48.3378  2066.4375   148.9470    60.5628      .4668      .5154   -90.6825    31.5486
 5716.0000    12.0145    50.8421  2014.1465   148.1909    55.4974      .4714      .5114   -89.8593    31.4684
 5716.5000    12.0081    51.2961  1961.6094   144.8323    51.2540      .4769      .5234   -89.6418    31.1855
 5717.0000    12.0020    49.9002  1911.0430   140.8984    48.9075      .4865      .5361   -89.8832    30.6725
 5717.5000    11.9970    48.9045  1875.4082   139.0391    49.4581      .4970      .5645   -90.1613    30.1223
 5718.0000    11.9973    49.9843  1839.7754   140.5222    51.2981      .5125      .6161   -90.3239    29.6031
 5718.5000    12.0058    50.8620  1804.1426   144.0725    52.4073      .5281      .6047   -90.4728    29.2827
 5719.0000    12.0111    49.3268  1774.2754   147.6794    52.2444      .5435      .5705   -90.8879    29.3087
 5719.5000    12.0166    47.7836  1744.8027   144.1243    51.6984      .5583      .5574   -91.2811    29.4412
 5720.0000    12.0370    47.2301  1715.3789   140.4705    51.7740      .5723      .6026   -91.4606    29.3028
 5720.5000    12.0777    48.4056  1691.9941   136.8833    52.4073      .5853      .6603   -91.6136    28.3167
 5721.0000    12.1331    49.0637  1668.5840   130.5571    52.7562      .5983      .6997   -91.5089    26.9562
 5721.5000    12.1962    47.9118  1647.8828   131.3093    52.3301      .6087      .6916   -91.3457    26.1599
 5722.0000    12.2245    45.8335  1629.6484   140.0378    52.1974      .6189      .6726   -91.2247    26.6297
 5722.5000    12.2092    44.8143  1611.4121   143.6707    53.5687      .6285      .6680   -91.3844    27.4069
 5723.0000    12.1842    45.3323  1627.5293   142.5999    53.4363      .6245      .6745   -91.8165    27.5237
 5723.5000    12.1682    45.6412  1661.3379   138.0461    52.2413      .6165      .6846   -91.9161    26.0954
 5724.0000    12.2029    45.5059  1695.1719   132.6716    50.5300      .6054      .6855   -90.6506    24.3694
 5724.5000    12.2749    45.1960  1728.9824   128.5015    49.0845      .5937      .6866   -89.4907    22.1569
 5725.0000    12.3412    44.7228  1762.7930   127.4099    48.4671      .5823      .6895   -89.7852    21.1885
 5725.5000    12.4003    43.9836  1787.5332   130.4490    48.4409      .5717      .6796   -90.6409    21.1358
 5726.0000    12.2527    43.6971  1811.9551   134.9580    49.1740      .5614      .6412   -91.2845    21.4494
 5726.5000    12.1487    43.4941  1836.4004   141.0901    50.1031      .5531      .6116   -91.9093    21.3617
 5727.0000    12.1338    43.2457  1860.8457   143.1321    50.9239      .5450      .5937   -92.1439    20.4854
 5727.5000    12.1363    43.0264  1885.2656   143.0024    51.7881      .5370      .5799   -92.3721    20.0984
 5728.0000    12.1649    43.0400  1907.4688   142.1941    52.6958      .5291      .5773   -92.6250    20.8215
 5728.5000    12.2008    43.2104  1923.5000   140.9758    53.6354      .5214      .5783   -92.6237    21.5865
 5729.0000    12.2168    43.5625  1939.5176   140.9170    54.4145      .5138      .5743   -92.5332    21.8290
 5729.5000    12.1816    43.9266  1955.5469   141.2156    55.0270      .5092      .5684   -92.4314    22.6595
 5730.0000    12.1231    44.0710  1958.6035   141.6846    55.8123      .5086      .5717   -92.2900    24.1350
 5730.5000    12.0710    43.6649  1950.3223   141.4136    55.0295      .5079      .5764   -92.1487    26.0615
 5731.0000    12.0429    43.2122  1930.9531   140.7903    53.7175      .5104      .5789   -92.0394    27.1442
 5731.5000    12.0301    43.3757  1911.5840   139.6074    52.9096      .5147      .5802   -91.9608    27.1359
 5732.0000    12.0237    44.1605  1892.2148   138.5854    52.8719      .5190      .5796   -91.8855    27.1537
 5732.5000    12.0221    45.5048  1872.8223   137.7124    54.4782      .5231      .5775   -91.8352    27.8789
 5733.0000    12.0211    47.4122  1853.4531   137.3088    54.7661      .5270      .5756   -91.7849    28.4881
 5733.5000    12.0398    48.6761  1839.4434   136.7947    54.2485      .5310      .5773   -92.0603    28.7878
 5734.0000    12.0546    49.3431  1826.3457   136.4937    53.8679      .5376      .5817   -92.3654    28.5231
 5734.5000    12.0651    49.2885  1813.2480   137.7573    54.2455      .5446      .5905   -92.8373    27.6490
 5735.0000    12.0757    48.6599  1800.1504   139.3740    54.9694      .5525      .5952   -93.3110    26.9629
 5735.5000    12.0770    47.8779  1792.8320   140.8811    55.7234      .5595      .5945   -93.0250    26.5871
 5736.0000    12.0743    47.1815  1789.4805   141.7397    55.6414      .5624      .5865   -92.1451    26.7020
 5736.5000    12.0550    46.7328  1796.7383   141.5854    55.3890      .5653      .5826   -91.3088    27.3608
 5737.0000    12.0345    46.7116  1803.9277   140.2566    54.8574      .5658      .5816   -90.9453    27.8546
 5737.5000    12.0136    46.7549  1811.0293   138.6819    53.9649      .5654      .5825   -90.7467    28.0520
 5738.0000    11.9968    45.9617  1818.1328   137.0708    52.8600      .5647      .5927   -90.5934    28.0505
 5738.5000    11.9985    44.9587  1825.2363   136.2576    52.3853      .5615      .5976   -90.3358    28.0441
 5739.0000    12.0103    44.5486  1832.3398   136.1433    53.1368      .5583      .6004   -90.0786    28.0219
 5739.5000    12.0263    45.0007  1818.3613   136.6792    54.1107      .5568      .5995   -90.1373    27.8922
 5740.0000    12.0296    46.1548  1802.5039   137.6294    55.0834      .5564      .5977   -90.5757    27.8366
 5740.5000    12.0212    46.9467  1786.6465   138.7163    55.5443      .5560      .5961   -91.2559    28.0589
 5741.0000    12.0082    47.1993  1762.5215   139.4287    55.8940      .5568      .5944   -92.0656    28.1230
